{"cityName": "肇庆", "days": "3", "cityImage": "", "spots": [{"title": "鼎湖山", "address": "肇庆市鼎湖山风景区", "image": "", "rank": 1, "time": 2.5, "location": {"lat": 23.16588906408795, "lng": 112.56143142046498}, "feature": {"sight_features": "特色1 山里的飞水潭景区。 特色2 流泉飞瀑壮观，水质清澈，孙中山曾在此游泳。 特色3 鼎湖山是岭南四大名山之一 特色4 鼎湖山自唐代以来就是著名的佛教圣地和旅游胜地 特色5 景区内庆云寺成为岭南四大名刹之首", "sight_content": "鼎湖山是岭南四大名山之一，于肇庆城区东北18公里。因地球上北回归线穿过的地方大都是沙漠或干草原，所以鼎湖山又被中外学者誉为\"北回归线上的绿宝石\" 。1956年，鼎湖山成为我国第一个自然保护区。1979年又成为我国第一批加入联合国教科文组织\"人与生物圈\"计划的保护区，建立了\"人与生物圈\"研究中心，成为国际性的学术交流和研究基地。1982年国务院又将星湖风景名胜区（含七星岩、鼎湖山）列为第一批44个国家级重点风景名胜区之一。\n鼎湖山面积11.55平方公里，最高处的鸡笼山顶高1000.3米，从山麓到山顶依次分布着河岸林、沟谷常绿阔叶林、季风常绿阔叶林、山地常绿阔叶林、灌丛草地等森林类型。而保存较好的南亚热带季风常绿阔叶林是有400多年历史的原始森林。鼎湖山因其特殊的研究价值闻名海内外，被眷为华南生物种类的\"基因储存库\"和\"活的自然博物馆\"。这里有高等植物2300多种，其中野生高等植物1808种，其中国家重点保护植物47种；以鼎湖山命名的或以鼎湖山为模式产地的植物有49种。鼎湖山多样的生态和丰富的植物为动物提供了充足的食源和良好的栖息环境。因此这里的动物种类和数量也很多，有鸟类232种，兽类41种，爬行类54种、两栖类23种，已鉴定的昆虫1000多种，其中国家重点保护动物35种。2014年，经广州市环境保护科学研究院测定，鼎湖山飞水潭的空气负离子浓度最高值达每立方厘米125000个，目前为全国测定值之最。\n【问鼎祈福】\n2000年建成的宝鼎园占地约1.3万平方米，园中的九龙宝鼎及端溪龙王砚在当时被上海吉尼斯大世界列入了世界之。园中共设有九龙宝鼎、兽面纹方鼎、大禾方鼎、龙纹鼎、秦公鼎、四联鼎、世纪宝鼎、香港、澳门回归鼎，共九鼎，寓意一言九鼎，还有一鼎是留给台湾，待台湾回归祖国之日便是十全十美了。九龙宝鼎高6.68米，口径5.58米，重16吨，大鼎颇具灵性，所以游客到此均把心愿写在彩球上扔其中以问鼎祈福。\n【鼎湖探险】\n蝴蝶谷是典型的亚热带沟谷雨林，由一湖（鼎湖）一岛（愿望岛）一谷（蝴蝶谷）组成，瀑布碧潭遍布，溪涧纵横，古木葱茏，林木繁荫，是蝴蝶栖息繁殖的理想场所，里面有茶亭、蝴蝶园、人字瀑、大象瀑等景点，来到这里感受山野异趣，看蝶恋花，品鼎湖山水泡的香茶、到森林探秘，是为人生一大乐事。\n【双虹飞堑】\n从响水潭沿蹬道而上，经听瀑亭，听涛亭，见双桥虹连，便是飞堑桥与凌虚桥，飞堑桥长约50米，是通往庆云寺的公路桥，飞架于深谷之间，桥下筑拦水坝，成天然的游泳池，池水碧澄清冽，四季常盈。凌虚桥是一座渡槽桥，长约30米，与飞堑桥成立体交叉，从深谷中凌虚而过，桥下幽壑深渊，溪水潺潺，桥影树海与云天组成一幅秀丽图画。\n【幽谷奔雷】\n从飞水潭旁的石级而上，过观雪亭，顺沟壑沿险峻迂回的蹬道而过，又可见一飞瀑，称为响水潭。再依山沿石阶梯拾级而上，有一亭叫“听瀑亭”，响水飞瀑从亭旁深谷里分两级直泻而下，流水临空，像纱帘飞挂，水花飞溅，声如奔雷，山鸣谷应。\n【龙潭飞瀑】\n沿登山曲径至山腰岔路右折，过眠绿亭，即到飞水潭。飞水潭瀑布白练悬空，高30余米，从悬崖峭壁间倾泻而下，声震雷鸣，雾障云腾。潭上时而激起满空飞雪，时而阳光折射，彩虹横空。站在潭畔观瀑亭上观赏，沁人肺腑，心旷神怡。"}}, {"title": "七星岩", "address": "肇庆市七星岩景区", "image": "", "rank": 2, "time": 2.5, "location": {"lat": 23.07850514209503, "lng": 112.47688022535016}, "feature": {"sight_features": "特色1 被誉为人间仙境、岭南第一奇观 特色2 湖中有山，山中有洞，洞中有河，景在城中不见城。", "sight_content": "2019年4月1日至4月30日期间，从七星岩的东、南、西、北门、仙女湖、鼎湖山门口进入景区参观，凡身穿汉服，可“刷汉服”免费进入景区，并不限次数参观景区各个景点。\n关于汉服的要求：对襟领，交领，圆领；襦裙，袄裙，衫裙；直裰，圆领袍，衣裳，襕衫；无拉链，橡皮筋，魔术贴。汉元素服饰也可，但，现代唐装、旗袍、中山装等近现代服饰不在活动之列。\n﻿\n‍‍七星岩景区主要包括了星湖和七座山峰，它们似北斗七星散落湖中，因而得名；星湖烟波浩瀚，总面积达649万平方米，湖堤长达20多公里，串起数个翠绿的小岛，景色十分宜人，国家体委在该湖建有划船基地。‍‍\n【桃花岛】\n七星岩桃花提前绽放，这个新年，来这里踏踏“春”吧。\n\n桃之夭夭，灼灼其华。艳丽的桃花提前绽放，为冷冽的寒冬歹带来一丝春意。\n桃花岛之上，姹紫嫣红的桃花纷纷绽开。绛桃、寸桃、碧桃、白桃等，各类桃花遍布岛上，游人在花中穿梭，亦如仙人般洒脱自在。\n随着年末的钟声，踏上桃花岛，穿梭在桃花林之中，感受冬日别样的喜庆。这个新年，就来桃花岛走桃花运吧。\n\n‍‍‍‍‍‍【水月岩云】\n‍‍站在五龙亭对开水月‍‍‍‍‍‍堤仰望石室岩，悬岩峭壁，高入云天，俯视湖面，水平如镜。山岩入水，景色怡人。若在夜晚玉兔高悬时，还可领略水、月、岩、云人间天上浑然一体的情趣。有诗云：“五岳归来不看山，料应未上七星岩。劝君放眼寻将去，更有蓬莱人世间（明陈建侯诗)。‍‍\n‍‍【星岩春晓】‍‍\n‍‍春光三月，一棵棵宫粉紫荆含苞怒放，花儿挂满枝头，适逢蒙蒙细雨，风景更是迷人，只见山映着水，水绕着山，烟雾飘渺。此外还有虹桥卧波，龙亭映碧，景物成双，一起把七星岩的山水装点得更妩媚清秀，有如梦如幻的感觉，仿佛已进入人间仙境。‍‍\n‍‍【天柱摘星】‍‍\n‍‍站在亭前望去，两岸翠笼，一片湖光，景色入画。远处的天柱岩如擎天一柱, 高耸入云，上有摘星亭。只见栈道高悬，常有人登高揽胜，时而发出欢呼惊叹之声。近代诗人黄雨诗赋：“笑语随风飘下界，欢颜映日立云端。信知揽月非难事，摘得星星未肯还。”描绘了天上人间之美！‍‍\n‍‍【星岩烟雨】‍‍\n每当雨季来临，常见烟雾飘渺于山水间，群峰隐隐，朦朦胧胧，一片清秀迷人，如入梦幻仙境。近代诗人段云（前国家计委副主任）诗云：“晴光潋滟瑶池水，雨意葱笼七星山。执斗挹浆历桑海，道是天上却人间。”\n【玉屏叠翠】\n玉屏岩为道教名山，山上有三仙观、玉皇殿等寺庙，存有仙气、灵气，常年香火鼎盛。登山道上沿途有十友亭、状元碑、三仙观、八音石、含珠迳、玉皇殿、待月台、小石林等众多胜迹。 郭沫若诗云：景这边好，如此江山何处来”\n【仙鹤呈祥】\n“丹顶鹤生态园”有丹顶鹤50多只，它们身姿高雅而端庄，两翅不时轻舒慢舞，引着修长婀娜的脖子，偶而亭亭玉立，偶而轻盈踱步。它们时而高歌，时而飞翔，象是欢迎远道而来的客人。\n\n\n【水中林趣】\n“水中林”之南是一片绿洲，洲上疏林草地，广种桃花，远山近水,视野开阔，游人在此歇息，可观岩、戏水、入林、赏鸟,其趣无穷。每年阳春二月，岛上桃花盛开，喜气盈盈，湖边垂柳依依，芦苇随风摇摆，湖水荡漾，峰峦叠彰，候鸟成群，好一派鸟语花香，令人心旷神怡、留连忘返的景象。\n【卧佛含丹】\n“卧佛”为一象形地貌，由阿坡岩和万松岗约1公里长的岩山组成，每年中秋节前后的晴天，夕阳沿“卧佛”嘴部徐徐而落下，形成了“卧佛含丹”的自然奇观。本地人有观“卧佛含丹”的传统，岛上建有观佛平台，广种香花植物，是抒怀吟花的园地，吸引游客在观佛之余能在“神仙世界看神仙”。\n【石洞古庙】\n\n敞天石洞俗称出米洞，又名敞天财神洞。，始建于初唐，为国家重点保护文物。庙中供奉的周氏神,民间称为财神，主事农桑，能保天下太平，五谷丰登。各地香客、游人慕名纷至，广种福田，香火不断。每年农历五月初五财神诞，正月十八财神开金库，更是热闹非凡。 “洞中出米”等传说故事，美丽传奇。\n【千年诗廊】\n七星岩摩岩石刻群是蜚声中外的文化遗迹之一，是级重点文物保护单位。唐开元年间有名的文章家、书法家李邕就在石室洞口留下的《端州石室记》。此后，唐朝李绅，宋朝包拯、周敦颐、郭祥正、黄公度，明朝俞大猷、吴国伦、郭都贤、陈璘,清朝黎简、冯敏昌等都在洞内外留下了大量的诗文或题名。"}}, {"title": "七星岩牌坊广场", "address": "肇庆市端州区端州四路", "image": "", "rank": 3, "time": 1.5, "location": {"lat": 23.06348960249264, "lng": 112.48498510776037}, "feature": {"sight_features": "", "sight_content": ""}}, {"title": "盘龙峡生态旅游区", "address": "肇庆市德庆县官圩镇", "image": "", "rank": 4, "time": 4.5, "location": {"lat": 23.3119663192355, "lng": 111.79950679968738}, "feature": {"sight_features": "特色1 春季可赏薰衣草花田，夏季可玩漂流，冬季还可泡温泉。 特色2 可以同时看到原始森林、悬崖瀑布、高山湖泊、通天峡谷、水车王国。 特色3 盘龙峡——南中国的天然大氧库。", "sight_content": ""}}, {"title": "端州古城墙", "address": "肇庆市端州区宋城路", "image": "", "rank": 5, "time": 0.5, "location": {"lat": 23.055471135673567, "lng": 112.47112234215187}, "feature": {"sight_features": "", "sight_content": ""}}, {"title": "悦城龙母祖庙 （龙母庙）", "address": "肇庆市德庆县悦城镇321国道旁", "image": "", "rank": 6, "time": 5.5, "location": {"lat": 23.086709676936724, "lng": 112.17977374839978}, "feature": {"sight_features": "特色1 历史悠久，香火鼎盛的龙母庙。 特色2 没有迷信的色彩，只为龙母祖庙内祈福寻根问祖朝圣龙母。 特色3 龙母祖庙是一座凝聚了历代建筑和造型艺术的殿堂烟火经年不衰，为百粤龙的子孙朝拜龙的母亲的圣地龙母手信。", "sight_content": "‍‍‍‍‍‍‍‍‍‍‍‍‍‍‍‍\n‍‍‍‍‍‍‍‍‍‍德庆龙母祖庙位于德庆县悦城镇，古称博泉庙、五龙庙，又称孝通庙。坐西北向东南，正对悦城河与西江交汇处，祀龙母。\n龙母祖庙始建于秦汉时期，至今约有2200多年的历史，历经沧桑，屡经兴废、扩建和重建至今仍矗立在江湾边上。现存的建筑为清光绪年间所建，由码头、牌楼、广场、山门、香亭、大殿、寝宫（妆楼）、东裕堂、客厅、碑亭、龙母坟、程溪书院等组成，占地面积4.8万平方米。‍‍‍‍‍‍‍‍‍‍\n‍\n‍‍龙母祖庙石雕、砖雕、木雕、陶雕等，建筑雕刻艺术巧夺天工，广泛运用深雕和透雕工艺，使得祖庙建筑活灵活现和具有立体感；庙内木雕、陶雕题材广，造工精、数量多、保存好，堪称小型雕刻艺术馆。龙母祖庙无论从建筑技艺、文化底蕴都堪称“古坛仅存”。‍‍‍\n‍\n‍‍‍‍‍‍‍‍‍‍‍‍‍‍‍‍‍‍‍‍‍‍ ‍‍\n‍‍‍‍\n其牌楼建于清‍‍‍‍光绪三十三年（1907年），‍‍由花岗石锻造而成。四柱三间五楼，两侧延伸直棂栏杆，且置小门，共宽35米。牌楼为庑殿顶，楼面平缓、稳重。主楼的浮雕、匾额、题词、对联，庄重典雅，龙的图案尤为别致、逼真。两侧小门额雕满中国古代神话人物，额下的门圆弧线，具有西洋建筑风格‍‍‍‍‍‍‍‍。‍‍‍‍‍‍‍‍‍‍\n它与广州陈家祠、佛山祖庙并称为我国岭南古建筑的三颗“明珠”，是我国清代岭南古建筑的光辉典范。自光绪三十一年重建至今，历经洪水雷雨而墙不裂、地不陷、害虫不蛀、雷电不侵，堪称建筑技艺上的一绝。具有“神”、“绝”、“巧”、“灵”四大特点，整个建筑群与周围的山水和谐相契，浑然一体。\n每年的农历五月初八至初八和八月初一至初八的“龙母诞”吸引着成千上万的海内外游客上香朝拜，烟火经年不衰，为百粤龙的子孙朝拜龙的母亲的圣地。\n龙母水灯节、庙会等传统节假日前后，各方善信游人汇集于龙母祖庙，寻根问祖朝圣龙母，人山人海，兴盛之极。\n‍‍‍‍‍‍‍‍‍‍‍‍‍‍‍‍"}}, {"title": "庆云寺", "address": "肇庆市鼎湖区鼎湖山风景区内", "image": "", "rank": 7, "time": 1.5, "location": {"lat": 23.16671171143204, "lng": 112.55888628739663}, "feature": {"sight_features": "", "sight_content": ""}}, {"title": "星湖旅游景区", "address": "肇庆市北郊4公里处", "image": "", "rank": 8, "time": 4.5, "location": {"lat": 23.052888771125616, "lng": 112.47148894063035}, "feature": {"sight_features": "特色1 湖面划分为五个湖：东湖、青莲湖、中心湖、波海湖、里湖 特色2 堤上杨柳、凤凰木成行 特色3 群山环绕，湖水碧绿", "sight_content": "鼎湖山是岭南四大名山之一，于肇庆城区东北18公里。因地球上北回归线穿过的地方大都是沙漠或干草原，所以鼎湖山又被中外学者誉为\"北回归线上的绿宝石\" 。1956年，鼎湖山成为我国第一个自然保护区。1979年又成为我国第一批加入联合国教科文组织\"人与生物圈\"计划的保护区，建立了\"人与生物圈\"研究中心，成为国际性的学术交流和研究基地。1982年国务院又将星湖风景名胜区（含七星岩、鼎湖山）列为全国第一批44个国家级重点风景名胜区之一。\n\n鼎湖山面积11.55平方公里，最高处的鸡笼山顶高1000.3米，从山麓到山顶依次分布着河岸林、沟谷常绿阔叶林、季风常绿阔叶林、山地常绿阔叶林、灌丛草地等森林类型。而保存较好的南亚热带季风常绿阔叶林是有400多年历史的原始森林。鼎湖山因其特殊的研究价值闻名海内外，被眷为华南生物种类的\"基因储存库\"和\"活的自然博物馆\"。这里有高等植物2300多种，其中野生高等植物1808种，其中国家重点保护植物47种；以鼎湖山命名的或以鼎湖山为模式产地的植物有49种。鼎湖山多样的生态和丰富的植物为动物提供了充足的食源和良好的栖息环境。因此这里的动物种类和数量也很多，有鸟类232种，兽类41种，爬行类54种、两栖类23种，已鉴定的昆虫1000多种，其中国家重点保护动物35种。2014年，经广州市环境保护科学研究院测定，鼎湖山飞水潭的空气负离子浓度最高值达每立方厘米125000个，目前为全国测定值之最。\n【问鼎祈福】\n2000年建成的宝鼎园占地约1.3万平方米，园中的九龙宝鼎及端溪龙王砚在当时被上海吉尼斯大世界列入了世界之。园中共设有九龙宝鼎、兽面纹方鼎、大禾方鼎、龙纹鼎、秦公鼎、四联鼎、世纪宝鼎、香港、澳门回归鼎，共九鼎，寓意一言九鼎，还有一鼎是留给台湾，待台湾回归祖国之日便是十全十美了。九龙宝鼎高6.68米，口径5.58米，重16吨，大鼎颇具灵性，所以游客到此均把心愿写在彩球上扔其中以问鼎祈福。\n【鼎湖探险】\n蝴蝶谷是典型的亚热带沟谷雨林，由一湖（鼎湖）一岛（愿望岛）一谷（蝴蝶谷）组成，瀑布碧潭遍布，溪涧纵横，古木葱茏，林木繁荫，是蝴蝶栖息繁殖的理想场所，里面有茶亭、蝴蝶园、人字瀑、大象瀑等景点，来到这里感受山野异趣，看蝶恋花，品鼎湖山水泡的香茶、到森林探秘，是为人生一大乐事。\n【双虹飞堑】\n从响水潭沿蹬道而上，经听瀑亭，听涛亭，见双桥虹连，便是飞堑桥与凌虚桥，飞堑桥长约50米，是通往庆云寺的公路桥，飞架于深谷之间，桥下筑拦水坝，成天然的游泳池，池水碧澄清冽，四季常盈。凌虚桥是一座渡槽桥，长约30米，与飞堑桥成立体交叉，从深谷中凌虚而过，桥下幽壑深渊，溪水潺潺，桥影树海与云天组成一幅秀丽图画。\n【幽谷奔雷】\n从飞水潭旁的石级而上，过观雪亭，顺沟壑沿险峻迂回的蹬道而过，又可见一飞瀑，称为响水潭。再依山沿石阶梯拾级而上，有一亭叫“听瀑亭”，响水飞瀑从亭旁深谷里分两级直泻而下，流水临空，像纱帘飞挂，水花飞溅，声如奔雷，山鸣谷应。\n【龙潭飞瀑】\n沿登山曲径至山腰岔路右折，过眠绿亭，即到飞水潭。飞水潭瀑布白练悬空，高30余米，从悬崖峭壁间倾泻而下，声震雷鸣，雾障云腾。潭上时而激起满空飞雪，时而阳光折射，彩虹横空。站在潭畔观瀑亭上观赏，沁人肺腑，心旷神怡。\n★★★七星岩★★★﻿\n七星岩景区主要包括了星湖和七座山峰，它们似北斗七星散落湖中，因而得名；星湖烟波浩瀚，总面积达649万平方米，湖堤长达20多公里，串起数个翠绿的小岛，景色十分宜人，国家体委在该湖建有划船基地。\n‍‍‍‍‍‍‍‍‍‍  ‍‍‍‍‍‍‍‍‍‍\n【水月岩云】\n\n站在五龙亭对开水月堤仰望石室岩，悬岩峭壁，高入云天，俯视湖面，水平如镜。山岩入水，景色怡人。若在夜晚玉兔高悬时，还可领略水、月、岩、云人间天上浑然一体的情趣。有诗云：“五岳归来不看山，料应未上七星岩。劝君放眼寻将去，更有蓬莱人世间（明陈建侯诗)。\n【星岩春晓】\n春光三月，一棵棵宫粉紫荆含苞怒放，花儿挂满枝头，适逢蒙蒙细雨，风景更是迷人，只见山映着水，水绕着山，烟雾飘渺。此外还有虹桥卧波，龙亭映碧，景物成双，一起把七星岩的山水装点得更妩媚清秀，有如梦如幻的感觉，仿佛已进入人间仙境。\n【天柱摘星】\n站在亭前望去，两岸翠笼，一片湖光，景色入画。远处的天柱岩如擎天一柱, 高耸入云，上有摘星亭。只见栈道高悬，常有人登高揽胜，时而发出欢呼惊叹之声。近代诗人黄雨诗赋：“笑语随风飘下界，欢颜映日立云端。信知揽月非难事，摘得星星未肯还。”描绘了天上人间之美！\n【星岩烟雨】\n每当雨季来临，常见烟雾飘渺于山水间，群峰隐隐，朦朦胧胧，一片清秀迷人，如入梦幻仙境。近代诗人段云（前国家计委副主任）诗云：“晴光潋滟瑶池水，雨意葱笼七星山。执斗挹浆历桑海，道是天上却人间。”\n【玉屏叠翠】\n玉屏岩为道教名山，山上有三仙观、玉皇殿等寺庙，存有仙气、灵气，常年香火鼎盛。登山道上沿途有十友亭、状元碑、三仙观、八音石、含珠迳、玉皇殿、待月台、小石林等众多胜迹。 郭沫若诗云：景这边好，如此江山何处来”\n【仙鹤呈祥】\n“丹顶鹤生态园”有丹顶鹤50多只，它们身姿高雅而端庄，两翅不时轻舒慢舞，引着修长婀娜的脖子，偶而亭亭玉立，偶而轻盈踱步。它们时而高歌，时而飞翔，象是欢迎远道而来的客人。\n\n\n【水中林趣】\n“水中林”之南是一片绿洲，洲上疏林草地，广种桃花，远山近水,视野开阔，游人在此歇息，可观岩、戏水、入林、赏鸟,其趣无穷。每年阳春二月，岛上桃花盛开，喜气盈盈，湖边垂柳依依，芦苇随风摇摆，湖水荡漾，峰峦叠彰，候鸟成群，好一派鸟语花香，令人心旷神怡、留连忘返的景象。\n【卧佛含丹】\n“卧佛”为一象形地貌，由阿坡岩和万松岗约1公里长的岩山组成，每年中秋节前后的晴天，夕阳沿“卧佛”嘴部徐徐而落下，形成了“卧佛含丹”的自然奇观。本地人有观“卧佛含丹”的传统，岛上建有观佛平台，广种香花植物，是抒怀吟花的园地，吸引游客在观佛之余能在“神仙世界看神仙”。\n【石洞古庙】\n\n敞天石洞俗称出米洞，又名敞天财神洞。，始建于初唐，为国家重点保护文物。庙中供奉的周氏神,民间称为财神，主事农桑，能保天下太平，五谷丰登。各地香客、游人慕名纷至，广种福田，香火不断。每年农历五月初五财神诞，正月十八财神开金库，更是热闹非凡。 “洞中出米”等传说故事，美丽传奇。\n【千年诗廊】\n七星岩摩岩石刻群是蜚声中外的文化遗迹之一，是级重点文物保护单位。唐开元年间有名的文章家、书法家李邕就在石室洞口留下的《端州石室记》。此后，唐朝李绅，宋朝包拯、周敦颐、郭祥正、黄公度，明朝俞大猷、吴国伦、郭都贤、陈璘,清朝黎简、冯敏昌等都在洞内外留下了大量的诗文或题名。"}}, {"title": "七星岩牌坊广场音乐喷泉", "address": "肇庆市端州区七星岩牌坊广场", "image": "", "rank": 9, "time": 0.5, "location": {"lat": 23.06129775296812, "lng": 112.4773799383323}, "feature": {"sight_features": "", "sight_content": ""}}, {"title": "牌坊公园", "address": "肇庆市端州区莲湖西路", "image": "", "rank": 10, "time": 1.5, "location": {"lat": 23.06380913088533, "lng": 112.4802089179756}, "feature": {"sight_features": "", "sight_content": ""}}, {"title": "竹海大观", "address": "肇庆市广宁县南街镇平头沙", "image": "", "rank": 11, "time": 2.0, "location": {"lat": 23.596254829148414, "lng": 112.40033287483503}, "feature": {"sight_features": "特色1 景区内翠竹绵延浩如烟海，构成一幅气势雄伟、景色奇特的天然竹林美景。", "sight_content": "﻿广宁竹海大观旅游区位于全国著名的竹子之乡——广东肇庆市广宁县，面积达104万亩。景区占地面积8.13平方公里，空气负离子达9.8万个/立方厘米，竹子制氧量是常绿阔叶林的1.5倍，源源不断地输送大量的新鲜纯氧，使您置身于浓浓的纯氧和竹林精气之中，堪称南中国氧吧。\n竹海大观旅游区内翠竹绵延浩如烟海，构成一幅气势雄伟，景色奇特的天然竹林美景。全年四季均可观竹，构成四景：春看竹雾、夏赏竹绿、秋览竹浪、冬观竹翠。景区内有万亩竹海“空气维生素”吸吮区和“竹林精气熏蒸区”，特色民族竹寨、竹林茶寮、竹生态园、竹水车、竹吉普车等。美丽清澈的绥江曲折回环蜿蜒而过，诠释着水的灵性，秀丽之水增添了竹的灵秀与峻逸。\n平湖戏水区民俗歌舞表演坐最原始的水上工具——竹排，沿绥江游览连绵百里的翠竹廊，翠绿的色彩与水天融于一色。大家正在细心欣赏两岸美景时，突然传来艄公高歌一曲《竹海一声笑》，令人觉得置身于世外桃源之中。\n驰名竹筒饭遍地竹林的阿里山区，竹简饭为其特色小吃，尤其广为当地邹族族人所运用；传统的做法是以桂竹的竹筒内装生糯米，再以高丽菜或山酥塞住筒口后炭烤，一会即可闻到浓浓的竹香，待烤熟后即拨开竹筒，长条的白饭外围裹着一层透明的竹膜，桂竹的清香混合着饭香扑鼻而来，香嫩可口。  竹笋以其味美鲜嫰清香爽口而引人胃口，凡食者莫不对其赞叹不已，唐代诗人白居易《食笋》诗云：“置之炊甑中，与饭同时熟。紫箨圻，素肌擘新玉。每日逐加餐，经时不思肉。久为京洛客，此味常不足。且食物踟蹰，南风吹作竹。”竹笋是妇女美容佳品排毒洗肠上品。\n竹林迷宫，神龟锁江；财击福音；卧波栈道；逍遥垂钓，金沙碧水；两个全国景观（竹大水车和彩霞石龙龟），20多个多姿多彩的参与性、竞赛性、趣味性游乐项目令人乐而忘返。  忘忧岛上，碧幽绝尘、清雅绝俗。修竹满岛、金沙  碧水、蛙声鸟鸣、景观奇绝、古朴野趣、回归自然。全岛空气清新如洗，蓝天白云，翠竹掩映，犹如人间仙境。夜宿竹林小屋、下榻竹乡船屋，感受亲切周到的个性化服务，体会宾至如归的温馨。"}}, {"title": "梅庵", "address": "肇庆市梅庵路十五路", "image": "", "rank": 12, "time": 2.0, "location": {"lat": 23.0564831016517, "lng": 112.45446578173025}, "feature": {"sight_features": "", "sight_content": ""}}, {"title": "仙女湖", "address": "肇庆市端州区莲湖西路星湖风景区七星岩景区星湖湿地公园的核心景区", "image": "", "rank": 13, "time": 1.0, "location": {"lat": 23.078401868937103, "lng": 112.47506874917123}, "feature": {"sight_features": "", "sight_content": ""}}, {"title": "九龙湖", "address": "肇庆市鼎湖区凤凰镇内", "image": "", "rank": 14, "time": 3.0, "location": {"lat": 23.24382464581552, "lng": 112.54436849717318}, "feature": {"sight_features": "", "sight_content": ""}}, {"title": "阅江楼", "address": "肇庆市端州区正东路江滨东路交汇", "image": "", "rank": 15, "time": 2.0, "location": {"lat": 23.069098571205714, "lng": 112.52618433679167}, "feature": {"sight_features": "", "sight_content": ""}}, {"title": "西江", "address": "肇庆市德庆县肇庆全境", "image": "", "rank": 16, "time": 1.0, "location": {"lat": 23.15137330611021, "lng": 111.79155377492526}, "feature": {"sight_features": "", "sight_content": ""}}, {"title": "宝锭山风景区", "address": "肇庆市广宁县南街镇碧翠湖", "image": "", "rank": 17, "time": 4.0, "location": {"lat": 23.649613531435875, "lng": 112.4689313193188}, "feature": {"sight_features": "", "sight_content": ""}}, {"title": "紫云谷", "address": "肇庆市东南郊烂柯山", "image": "", "rank": 18, "time": 3.0, "location": {"lat": 23.052888771125616, "lng": 112.47148894063035}, "feature": {"sight_features": "特色1 紫云谷是端砚的发源地，景区内有古石磨、水车作坊遗址、老坑洞遗址、错落的瀑布群。 特色2 吸纳山氧，弄瀑戏水，沐浴山泉，置身大自然 特色3 水疗健体标准池", "sight_content": "砚坑紫云谷作为西江羚羊峡保护区的重要组成部分，因其优美的自然风光和优越的地理位置以及丰富的旅游项目，成为都市人回归大自然保健养生的最佳生态旅游线路。游人可吸纳山氧、弄瀑戏水、沐浴山泉，置身于大自然包围之中。\n\n砚坑之所以名扬天下，得益于这里石品花纹极为丰富的端砚石。早在一千多年前，砚坑就已开始端砚的开采和加工，且中国品质最好的端砚都出自于紫云谷的老坑、坑仔、麻子坑三大名坑。到这里可感受一下一千三百多年来沉积下来的端砚文化。当然了，在这里除了能看到唐朝年间开采砚石的千年老坑洞之外，您还可以观赏到有“烂柯仙钟”之称的吊钟花。此外，景区内还有铁索桥、户外拓展基地、绿色长廊、古磨群遗址等景点。\n紫云谷景区的四条豪华游轮是整个西江羚羊峡段唯一的旅游船只，游客游览完景区后，更可坐上游轮享受不一样的动态旅游。春夏之际更是烟雾弥漫，气象万千，让游客全身心感受羚羊峡峡两岸美景，并可观看到砚坑城墙、大小龙门、羚关古道、清风阁、晒衣坑、出入山虎口、文殊村等胜景。"}}, {"title": "黎槎村", "address": "肇庆市高要市回龙镇北面的黎槎岗上", "image": "", "rank": 19, "time": 1.5, "location": {"lat": 22.950015422983434, "lng": 112.65330078717722}, "feature": {"sight_features": "特色1 黎槎古村距今已有700多年的历史，呈八卦形状，布局精巧，暗藏洛书河图的玄机。", "sight_content": ""}}, {"title": "披云楼", "address": "广东省肇庆市端州区人民中路", "image": "", "rank": 20, "time": 2.0, "location": {"lat": 23.057355267247107, "lng": 112.46810137126519}, "feature": {"sight_features": "", "sight_content": ""}}, {"title": "星湖湿地公园", "address": "肇庆市端州区星湖大道", "image": "", "rank": 21, "time": 1.0, "location": {"lat": 23.163715582511546, "lng": 112.578100258028}, "feature": {"sight_features": "特色1 可以欣赏到丹顶鹤以及多种湿地鸟类 特色2 空气清新，是个森林氧吧。", "sight_content": "广东星湖国家湿地公园在肇庆市城区，总面积935公顷，水面面积677公顷。以岩溶、湖泊、浅滩构成，是肇庆的城市之肾、主要有出米洞、卧佛含丹、湿地宣教中心、观佛岛、火烈鸟岛、丹顶鹤岛、野生鹭鸟岛等景观。\n公园主要有出米洞、卧佛含丹、湿地宣教中心、观佛岛、火烈鸟岛、丹顶鹤岛、野生鹭鸟岛等景观。春分，秋分前后的“卧佛含丹”、夏至“立竿见影”、冬至“月亮垂照”等观象。\n星湖国家湿地公园自然环境美丽，生物资源丰富多样。现有360种野生植物，栽培植物约200种，常见水生植物24种；有鸟类约160多种；鱼类45种。其中园内有丹顶鹤60多只，还有亭亭玉立的宫廷美女——火烈鸟等水禽150多只。"}}, {"title": "封开国家地质公园", "address": "肇庆市封开县河儿口镇龙山景区", "image": "", "rank": 22, "time": 4.5, "location": {"lat": 23.521110289633633, "lng": 111.81026039967257}, "feature": {"sight_features": "特色1 能看到石灰岩、沙页岩、花岗岩等形成的多种地质地貌，很壮观，适合拍照。 这里有多个溶洞，结合五彩灯光效果，看喀斯特地貌的奇观。", "sight_content": "龙山景区是省级风景名胜区，素有“广东小桂林”美誉，占地面积129.3公顷。景区内有山青水秀，鸟语花香，山水映辉所衬托出的一片片迷人景色；有独一无二，鬼斧神工所雕的石灰石溶岩神奇景观；还有多种或轻松写意或紧张刺激的旅游运动，进入景区会使你有如回归大自然的怀抱，重拾清新、梦幻、生动的感觉。\n大斑石景区位于广东省封开县杏花镇古广信河畔，是一个集攀登揽胜、健身娱乐、休闲美食于一体的生态旅游景区。景区内有大斑石、天下第一石棋盘、盘古神坛、圣妃泉、圣妃宫、石趣园、如意榕、柳叶塘、鸳鸯亭、投石问路、石畔回廊、攀岩胜地、白马远眺、刘三妹对歌台等景点以及登石攀岩、健身道、祈福许愿等项目。\n杨池古村，山青水秀，景色怡人，民风淳朴，村民知书达礼，热情好客，实属是当今罕有的\"世外桃源\"。杨池，座落在广东省封开县罗董镇，是一个峰峦环抱、绿树掩映的美丽山村，村中石板砌道，曲径相连，奇花异卉；村前禾田绿畴，果树飘香，小溪流过；整个环境清雅和谐，民风淳朴，文风浓厚，一幅世外桃源般的景致。\n封开山明水秀峰亦奇。千层峰乃奇峰也。它位于渔涝镇罗源村黄岗河畔，深山野岭之中。一进入千层峰所在地，河水潺潺，山峦竞秀。千层峰，矗立河边，其状与通常所见的山峰不同：此峰由无数色彩斑谰的页岩重迭构成，故有此名。由重重叠叠的色彩斑澜的砂页岩和局部钙质页岩构成，属砂岩峰林地貌，形成于三亿八千万年前的泥盘纪。它还是我国最古老的造山运动――嘉理东造山运动所造成的山峰，是广东两个嘉理东造山运动的标准地之一。这里群峰耸立，苍翠欲滴，主峰高233米，如倚天长剑，直插云霄，奇伟险峻。山虽不高，但却集“黄山之奇、华山之险、庐山之秀、峨眉之幽”于一身。"}}, {"title": "世外桃源", "address": "肇庆市怀集县桥头村", "image": "", "rank": 23, "time": 1.5, "location": {"lat": 23.917842129185328, "lng": 112.19146878783033}, "feature": {"sight_features": "", "sight_content": ""}}, {"title": "德庆学宫", "address": "肇庆市德庆县悦城镇朝阳西路26号", "image": "", "rank": 24, "time": 0.75, "location": {"lat": 23.144761468514638, "lng": 111.77489948721659}, "feature": {"sight_features": "特色1 南方现存最古老、规模最大、最具特色的孔庙", "sight_content": "1962年，德庆孔庙被广东省政府评为省级重点文物保护单位，1996年11月，国务院公布为全国重点文物保护单位。\n\n德庆学宫现占地面积1万多平方米，整个孔庙以南北为中轴，分左、中、右三路建筑群，可以说是集殿、坛、阁、祠、庑（也就是廊）以及池、桥等各式建筑于一身，现在整个景区主要由棂星门、大成殿、名宦祠和乡贤祠、尊圣义祠、东西两庑、尊经阁、仰圣园等组成，占地面积一万平方米，建筑面积将近五千平方米。其中大成殿和仰圣园更是特色显著，被誉为我们孔庙的两大镇庙之宝。\n德庆孔庙被称为国之瑰宝，以古、奇、雄、厚四大特点而为世人称道。\n\n孔庙，无论规模大小，庙内都设有大成殿。殿内用以安放孔子塑像。大成殿是学宫的主要建筑，气势雄伟。为重檐灰瓦歇山顶，平面呈正方形，面宽、进深各五间。殿内面积三百多平方米，殿高十九点四米。它在建筑上别具一格，与“八柱撑空”的一般古代厅堂不同，明间四根金柱不到屋顶，在柱顶上横架座斗枋，安放12朵类仿溜金斗，承托压槽枋和井口天花板，形成“四柱不顶”的独物结构，与广西容县“四柱不地”的真武阁，一东一西，一文一武，一天一地，遥遥相对，被称之为我国南方古代木构建筑的“一对明珠”。是广东省唯一现存的宋元木结构建筑，被誉为“国之瑰宝”。"}}, {"title": "鼎湖", "address": "肇庆市鼎湖区境内", "image": "", "rank": 25, "time": 2, "location": {"lat": 23.164308112715716, "lng": 112.57443448254817}, "feature": {"sight_features": "", "sight_content": ""}}, {"title": "丽谯楼", "address": "肇庆市端州区城中路175号", "image": "", "rank": 26, "time": 0.15000000000000002, "location": {"lat": 23.053384497890676, "lng": 112.46550972932737}, "feature": {"sight_features": "", "sight_content": ""}}, {"title": "崇禧塔", "address": "肇庆市端州区江滨三路", "image": "", "rank": 27, "time": 2, "location": {"lat": 23.050205643535662, "lng": 112.48903654106668}, "feature": {"sight_features": "", "sight_content": ""}}, {"title": "飞水潭", "address": "肇庆市鼎湖区上山路坑口镇鼎湖山风景区内", "image": "", "rank": 28, "time": 4.5, "location": {"lat": 23.16671171143204, "lng": 112.55888628739663}, "feature": {"sight_features": "", "sight_content": ""}}, {"title": "白沙龙母庙", "address": "肇庆市端州区江滨西路西段（江滨五路）龟顶山脚旁边", "image": "", "rank": 29, "time": 1.0, "location": {"lat": 23.051348588080426, "lng": 112.43588589800899}, "feature": {"sight_features": "", "sight_content": ""}}, {"title": "奇石河", "address": "肇庆市四会威整镇红星村四会瀑布奇石景区", "image": "", "rank": 30, "time": 2.5, "location": {"lat": 23.682503138684368, "lng": 112.73883360384114}, "feature": {"sight_features": "特色1 蔚为壮观的银龙大瀑布", "sight_content": "四会瀑布奇石景区生态旅游度假区，位于广佛肇一小时经济生活圈内的四会市威整镇，与清远市、广宁县交界，全景区总面积约8平方公里。景区以独特的自然景观和优雅的生态环境而著称。景区内森林繁茂、瀑布飞流、奇石遍布。集休闲度假、观光旅游、乡村风情体验、乡村风味美食于一体，被誉为省内最具特色的生态旅游度假区。\n【银龙大瀑布】宽120米，高60米，蔚为壮观，是省内最大最具特色的天然瀑布，瀑布终年飞泻不断，宛如一幅巨大的天沙帐。在此一边观赏瀑布的宏伟壮观，感叹于大自然的鬼斧神工。一边品尝山村美食，品裳山泉茗茶，完全被大自然的人间仙境所陶醉。\n\n【栈道】位于银龙大瀑布的正前方，横穿天壤氧吧区，全长三公里，迈步其中，欣赏着美丽的景色，聆听着鸟语花香，吸纳着清新的空气犹如步入人间仙境。\n【神仙岛】位于观光栈道的终点，是景区内最具人气娱乐设施较为齐全的综合性游乐区域，集吃、喝、玩、乐于一体。占地面积12000多平米，建有儿童乐园，奇石文化休闲公园和山村美食、山村茗香茶座等设施，岛内古木参天，环境优雅，奇花异草，让人留恋往返，乐也融融。\n【水车】是山村农民借助水力用作舂米、面粉和加工农幅产品或香粉的一种生产工具。在科学尚未发达，生产力落后的时代，山村农民利用丰富的水资源，通过水的冲击力和惯性的原理，设计制造了这种水车。古朴风情水车群就是让游人回味古朴而纯真的山村特色。\n【高空杂技表演】“吉尼斯世界纪录”的河南高空飞车艺术团为奇石河景区策划编排的专题性大型高空综合艺术节目。以银帘瀑布为屏幕，以高空钢丝作舞台，全部在距地面20余米的高空钢丝上进行，可谓惊险奇绝，惊心动魄。\n【天然泳场】位于十里奇石河的上游，面积约500平方米，可供300多人同时游泳，纯天然山水，清澈见底。炎炎夏日，浸泡其中，清爽凉快，与家人小孩享乐其中，其乐无穷。\n【奇石河酒店】酒店位于景区的中心区内，高三层，采用四星级标准设计装修，总建筑面积3000多平方米，40多套标准豪华客房，富丽堂皇，金碧辉煌，酒店配套设施齐全服务一流，令您有宾至如归的感觉。\n【奇石河餐厅】选用原生态天然材料建筑，格局别致，环境优雅，可容纳500多人同时就餐，餐厅采以绿色健康乡村原料制作菜肴，农家风味，丰俭由人。"}}, {"title": "城东公园", "address": "肇庆市端州区和平路39号", "image": "", "rank": 31, "time": 1.0, "location": {"lat": 23.061102721701154, "lng": 112.49429949565798}, "feature": {"sight_features": "", "sight_content": ""}}, {"title": "蝴蝶谷", "address": "肇庆市鼎湖区上山路坑口镇鼎湖山风景区内", "image": "", "rank": 32, "time": 1.5, "location": {"lat": 23.16671171143204, "lng": 112.55888628739663}, "feature": {"sight_features": "", "sight_content": ""}}, {"title": "肇庆黄金沟", "address": "肇庆市鼎湖区凤凰镇竹坝村", "image": "", "rank": 33, "time": 2.5, "location": {"lat": 23.253253228430257, "lng": 112.56411438953076}, "feature": {"sight_features": "", "sight_content": ""}}, {"title": "七星湖", "address": "广东省肇庆端州区七星湖", "image": "", "rank": 34, "time": 1.0, "location": {"lat": 23.07770218793548, "lng": 112.47343098731174}, "feature": {"sight_features": "", "sight_content": ""}}, {"title": "元魁塔", "address": "肇庆市端州区二塔路", "image": "", "rank": 35, "time": 0.5, "location": {"lat": 23.056354641173208, "lng": 112.50657955475509}, "feature": {"sight_features": "", "sight_content": ""}}, {"title": "砚洲岛", "address": "肇庆市鼎湖区砚洲岛", "image": "", "rank": 36, "time": 3.5, "location": {"lat": 23.185314317915132, "lng": 112.6309345196818}, "feature": {"sight_features": "", "sight_content": ""}}, {"title": "白云寺", "address": "肇庆市鼎湖区上山路坑口镇鼎湖山风景区内", "image": "", "rank": 37, "time": 1.5, "location": {"lat": 23.16671171143204, "lng": 112.55888628739663}, "feature": {"sight_features": "", "sight_content": ""}}, {"title": "龙山景区", "address": "肇庆市封开县河儿口镇", "image": "", "rank": 38, "time": 2.0, "location": {"lat": 23.52165998120341, "lng": 111.80367979439019}, "feature": {"sight_features": "", "sight_content": ""}}, {"title": "波海公园", "address": "肇庆市西江北路火车站广场南侧波海湖畔", "image": "", "rank": 39, "time": 2, "location": {"lat": 23.086724501101635, "lng": 112.45404290710648}, "feature": {"sight_features": "", "sight_content": ""}}, {"title": "勒竹围天主堂", "address": "肇庆市端州区勒竹围37号", "image": "", "rank": 40, "time": 2, "location": {"lat": 23.056343855988697, "lng": 112.47470352689676}, "feature": {"sight_features": "", "sight_content": ""}}, {"title": "星湖湾公园", "address": "肇庆市端州区星湖大道", "image": "", "rank": 41, "time": 0.25, "location": {"lat": 23.163715582511546, "lng": 112.578100258028}, "feature": {"sight_features": "", "sight_content": ""}}, {"title": "将军山", "address": "肇庆市端州区北岭将军山", "image": "", "rank": 42, "time": 2.5, "location": {"lat": 23.106613452777186, "lng": 112.48257663570581}, "feature": {"sight_features": "", "sight_content": ""}}, {"title": "宝鼎园", "address": "肇庆市鼎湖区上山路坑口镇鼎湖山风景区天湖景区旁", "image": "", "rank": 43, "time": 0.25, "location": {"lat": 23.16588906408795, "lng": 112.56143142046498}, "feature": {"sight_features": "", "sight_content": ""}}, {"title": "贞山", "address": "肇庆市贞山区天音路", "image": "", "rank": 44, "time": 4.0, "location": {"lat": 23.329900127196343, "lng": 112.67480745984227}, "feature": {"sight_features": "", "sight_content": ""}}, {"title": "丹顶鹤生态园", "address": "肇庆市端州区莲湖西路星湖风景区七星岩景区星湖湿地公园内", "image": "", "rank": 45, "time": 1.0, "location": {"lat": 23.078401868937103, "lng": 112.47506874917123}, "feature": {"sight_features": "", "sight_content": ""}}, {"title": "杜鹃山", "address": "肇庆市鼎湖区上山路坑口镇鼎湖山风景区内", "image": "", "rank": 46, "time": 1.5, "location": {"lat": 23.16671171143204, "lng": 112.55888628739663}, "feature": {"sight_features": "", "sight_content": ""}}, {"title": "肇庆高尔夫度假村", "address": "肇庆市高要市回龙镇", "image": "", "rank": 47, "time": 2.5, "location": {"lat": 22.950015422983434, "lng": 112.65330078717722}, "feature": {"sight_features": "", "sight_content": ""}}, {"title": "肇庆市包公文化园", "address": "肇庆市端州区城西厂排街包公祠", "image": "", "rank": 48, "time": 2.0, "location": {"lat": 23.051630318166726, "lng": 112.44122601973848}, "feature": {"sight_features": "", "sight_content": ""}}, {"title": "大旺海鹰博览中心", "address": "肇庆市封开县江口镇大旺村海鹰军事基地", "image": "", "rank": 49, "time": 2, "location": {"lat": 23.46956187759713, "lng": 111.4703597414788}, "feature": {"sight_features": "", "sight_content": ""}}, {"title": "燕岩", "address": "肇庆市怀集县桥头村", "image": "", "rank": 50, "time": 1.0, "location": {"lat": 23.917842129185328, "lng": 112.19146878783033}, "feature": {"sight_features": "", "sight_content": ""}}, {"title": "龙安堂", "address": "肇庆市端州区龙安路14号", "image": "", "rank": 51, "time": 2, "location": {"lat": 23.062319465708413, "lng": 112.47036288143667}, "feature": {"sight_features": "", "sight_content": ""}}, {"title": "燕峰峡", "address": "肇庆市怀集凤岗镇热水坑怀集温泉漂流旅游度假邨", "image": "", "rank": 52, "time": 2, "location": {"lat": 24.008852979483965, "lng": 112.4844972128855}, "feature": {"sight_features": "", "sight_content": ""}}, {"title": "龟顶山炮台", "address": "肇庆市端州区西郊龟顶山上", "image": "", "rank": 53, "time": 1.0, "location": {"lat": 23.057695472567552, "lng": 112.429071768328}, "feature": {"sight_features": "", "sight_content": ""}}, {"title": "藏龙沟", "address": "肇庆市鼎湖区凤凰镇铜鼓村，七八乡道北路段尽头。", "image": "", "rank": 54, "time": null, "location": {"lat": 23.24382464581552, "lng": 112.54436849717318}, "feature": {"sight_features": "特色1 休闲度假、放松心情、享受艺术、陶冶情操、开拓视野的好去处。 特色2 融合透视学、设计学、几何学及心理学的艺术形式。 特色3 在这里您就是导演，又是画中的主人公，身临其境，体验动漫生活，体验动画乐趣。", "sight_content": "藏龙沟自然度假园位于凤凰镇同古村灯盏额，占地1000亩。2003年由南海投资者创建经营。藏龙沟自然度假园以溯溪探险为主。探险路上似惊似险，或悬崖怪石或深潭怒吼，或跨越峡谷，或攀崖扶壁，或置身茂密原始森林，在溯溪途中欣赏一幕接一幕胜景过程中，游客更可体验简易攀岩，过独木桥、乘滑索、撑竹筏、爬软梯等户外的种种乐趣。景区内青山绿水相印，欢声笑语相闻，能让人忘记一切烦恼，尽情地享受自然。\n藏龙沟是鼎湖山的后花园，经专家调查认定是天然的大氧吧，负离子每立方含量达90000个，适合户外旅游活动，有益身心健康。\n藏龙沟里天然植物众多，其中著名的有：恐龙年代的杪椤，还有板蓝根、两面针等中草药，野花野草不计其数，地理结构明显，是进行青少年科普教育理想的天然课堂。\n藏龙沟青少年素质教育基地，适合青少年的户外教育活动，基地内有：迷宫城、水战城、足球场、篮球场、蔬菜种植场、植树场、烧烤场、野炊场、表演舞台、团体游戏场。天然田园风光，山清水秀，湖光山色特别适合绘画、摄影、摄像活动。餐厅、洗澡堂、厕所、停车场等设施齐全，饮食设备符合国家卫生标准，另有一批经严格培训的专职导游全程为各位老师和学生组织活动。\n藏龙沟的居民是以客家人为主，客家居住特色保留完好，客家风味浓。参观客家住所，听山歌，了解当地客家人的生活。与客家学生进行交流，品尝客家特产领略客家深居山中的风情。"}}, {"title": "仙掌岩", "address": "肇庆市端州区星湖大道七星岩景区内", "image": "", "rank": 55, "time": null, "location": {"lat": 23.07850514209503, "lng": 112.47688022535016}, "feature": {"sight_features": "", "sight_content": ""}}, {"title": "宝月公园", "address": "肇庆市端州区端州五路", "image": "", "rank": 56, "time": 1.0, "location": {"lat": 23.059739064149714, "lng": 112.473873378521}, "feature": {"sight_features": "", "sight_content": ""}}, {"title": "荣睿纪念碑", "address": "肇庆市鼎湖区上山路坑口镇鼎湖山风景区天溪景区登山径旁", "image": "", "rank": 57, "time": 0.15000000000000002, "location": {"lat": 23.16588906408795, "lng": 112.56143142046498}, "feature": {"sight_features": "", "sight_content": ""}}, {"title": "盘古山", "address": "广东省肇庆市北岭盘古山风景区", "image": "", "rank": 58, "time": 4.0, "location": {"lat": 23.052888771125616, "lng": 112.47148894063035}, "feature": {"sight_features": "", "sight_content": ""}}, {"title": "四会山湖水上乐园", "address": "肇庆市四会市贞山风景区大坑村（原山中湖水上乐园）", "image": "", "rank": 59, "time": 2, "location": {"lat": 23.329228880483303, "lng": 112.67470531981093}, "feature": {"sight_features": "特色1 致力打造成具有独特景观的水上娱乐目的地 特色2 园区整体环境以朴素淡雅的山村野趣为格调，取自然山水之本色 特色3 穿行万千画卷之中，感受中国真正风水宝地", "sight_content": "作为采用纯天然山泉水的水上乐园，山湖水上乐园综合引进了先进的设备、刺激的玩法，会让每一位游客体验到一种与众不同、欢畅淋漓的激情感觉。海盗船，适合亲子游玩项目，看着小朋友们攀上滑下的可爱身姿，家长们也会会心微笑。海啸冲浪，采用目前先进电脑自动控制系统，有十多种海浪及海啸高仿真效果，让游客真切体验到在大海中冲浪及海啸发生时的乐趣与震憾。\n加勒比海水寨，具有大翻斗、水炮、风水盘等多项功能，刺激的是顶端的两个大铁桶，当水注满铁桶后会自动一倾而下，这时会引来无数的欢呼声，身处其下的游客也可体验一下“中头彩”的美妙感觉。冲天回旋滑梯，设备平台高12米，双人滑圈滑行，能让游客在高速落体式滑行与前后回旋滑行中瞬间体验“心体分离”的快感。\n大喇叭，游客在封闭的管道中自由垂落约60度、摆高约10米，同时由于落体惯性会在大喇叭中左右摇摆滑行，游客滑落时喊出的悦耳尖叫声，感受到其中的惊心与惊险。彩虹滑道，是一项可以竞赛的项目，可四人竞赛滑行，体验失重感及飘逸感。另配双管急速滑道。相对目前滑道类它是最刺激的一款，垂直滑下的落差高达25米、角度最大为70度，绝对权威地挑战一个人的胆量与勇气。"}}, {"title": "狮岗炮台", "address": "肇庆市端州区北郊七星岩东北狮岗，靠近星湖风景区。", "image": "", "rank": 60, "time": 0.25, "location": {"lat": 23.060454825403475, "lng": 112.47616812419975}, "feature": {"sight_features": "", "sight_content": ""}}]}