{"cityName": "昭通", "days": "", "cityImage": "", "spots": [{"title": "西部大峡谷温泉", "address": "昭通市水富县坝尾槽", "image": "", "rank": 1, "time": 2, "location": {"lat": 28.510929836358752, "lng": 104.22883253660663}, "feature": {"sight_features": "特色1 沐浴乱石丛中，回归自然，融入自然", "sight_content": "西部大峡谷温泉地处云南北大门水富县金沙江边。距宜宾市区32公里、云南水富县4公里。由宜宾市到大峡谷车程仅一小时。大峡谷是一个“山青”、“峡急”、“水险”的金沙江河谷，在风景如画的大峡谷下2380米的深处蕴藏着一股奇泉，在1978年被云南省勘探队打井发现。\n经国家级专家鉴定，水温85度，水压高，流量大，日涌水量达8000余立方米，居全国之首。富含有益人体健康的偏硅酸、硫、锝、锂、溴、硒、氡、铜、锶等矿物质。系高热优质温泉。大峡谷温泉生态园占地300余亩。可同时容纳3000人以上沐浴，是目前国内最大的天然露天温泉浴场之一。温泉生态园拥有档次高雅情调各异的花瓣温泉、药物温泉、地板温泉、醋温泉、酒温泉、牛奶温泉和安全刺激的大坡度滑水道等。\n中国西部大峡谷是国家AAAA级旅游景区，中国最佳温泉度假胜地之一。西部大峡谷温泉是以现代休闲、度假为着眼点，融吃、住、玩、娱乐、购物、商务洽谈、会议接待、儿童娱乐、文艺表演为一体的，具有云南民族风情特色的综合性旅游景点。露天温泉浴区占地100亩，可同时容纳3000人以上浸泡温泉，是目前国内最大的天然生态露天温泉浴场之一。\n景区依山就势，临江而建，沿江两岸山崖险峻，草木葱翠，一派独特的高山峡谷盛景。景区温泉系高热优质医疗温泉,现有形态各异、风格不同的各种特色温泉池如花瓣池、牛奶池、咖啡池、中药池、套醋池等30多个，散布在自然奇石和茂密的芦苇丛中。\n园内设有目前国内最大的海浪池之一，有蒙古包、云上居宾馆、玛瑙海宾馆、高档套房、红宫、东巴苑别墅等各类房间供游客选择入住；景区餐厅豪华典雅，可融聚600人就餐，同时还配备国际会议中心、顶级会所、高尔夫练习场、健身中心、休闲保健、鱼疗、地热理疗等娱乐设施。\n在灵山秀水环绕之中的西部大峡谷，依然沿袭了云南特有的民族风情，处处涤荡着浓郁的民族韵味。浑然天成的山水，别具风格的民族特色，在这里泡温泉，是一种独特的极致享受，遥望连绵的山峰，俯瞰雄奇的峡谷，沉醉在山顶柔若轻纱的云雾中，任由自己的身体浸泡在暖暖的温泉中，让你在青山绿水的幽谷中感受生活的从容。"}}, {"title": "大山包", "address": "昭通市昭阳区枫园路35号", "image": "", "rank": 2, "time": 3.5, "location": {"lat": 27.354306649197028, "lng": 103.72086751448076}, "feature": {"sight_features": "", "sight_content": ""}}, {"title": "豆沙关", "address": "昭通市盐津县豆沙镇G85渝昆高速", "image": "", "rank": 3, "time": 1.5, "location": {"lat": 28.178892845943704, "lng": 104.10148594229165}, "feature": {"sight_features": "", "sight_content": ""}}, {"title": "黄连河风景区", "address": "昭通市大关县黄连河风景区", "image": "", "rank": 4, "time": 1.0, "location": {"lat": 27.732322831708018, "lng": 103.92413228987066}, "feature": {"sight_features": "", "sight_content": ""}}, {"title": "扎西会址", "address": "昭通市威信县扎西镇东北角的江西庙内", "image": "", "rank": 5, "time": 1.0, "location": {"lat": 27.84643348343907, "lng": 105.05474872844448}, "feature": {"sight_features": "", "sight_content": ""}}, {"title": "望海楼", "address": "昭通市昭阳区", "image": "", "rank": 6, "time": 1.5, "location": {"lat": 27.32614420605265, "lng": 103.71347042315112}, "feature": {"sight_features": "", "sight_content": ""}}, {"title": "永宏水上娱乐城", "address": "昭通市昭阳区老民航路中段", "image": "", "rank": 7, "time": 2, "location": {"lat": 27.32614420605265, "lng": 103.71347042315112}, "feature": {"sight_features": "", "sight_content": ""}}, {"title": "大龙洞", "address": "昭通市昭阳区北闸镇三零二国道旁", "image": "", "rank": 8, "time": null, "location": {"lat": 27.4446818472477, "lng": 103.80212158342574}, "feature": {"sight_features": "特色1 洞顶钟乳石倒悬，千姿百态", "sight_content": "大龙洞位于昭通市北郊，距昭通城12公里，这里有许多古色古香的建筑群落，楼台上雕梁画栋，飞檐彩亭。轩内苍松成林、翠竹成荫、绿茵满地、碧水环绕，曲径通幽，一古寺藏于林深洞口处，洞口恢宏，洞顶钟乳石倒悬，千姿百态，一泓清泉从侧洞中汩汩流出，水质优良，清澈见底，是昭通市的城市主要水源之一整个景区山林蓊郁，庭院幽静，水库广阔，是一个天然森林公园，也是览胜、休息、划船、垂钓的避暑胜地。\n每逢农历八月十五，当明月升空后，天上的月亮就会倒映在龙泉之内，龙泉中的明月又会反映在洞内岩上，“三个月亮”相映成趣，形成独特的自然景观，人称“龙洞吸月”。"}}, {"title": "西部大峡谷四季水城", "address": "昭通市水富县向家坝镇西部大峡谷", "image": "", "rank": 9, "time": 2, "location": {"lat": 28.644870706859294, "lng": 104.37556524143393}, "feature": {"sight_features": "", "sight_content": "西部大峡谷四季水城位于云南省水富县西部大峡谷，毗邻金沙神汤·云上温泉（原中国大峡谷温泉），是中国西部大峡谷2014年品牌拓展升级的鼎力之作，整个水城总投资逾2.5亿，占地面积约200亩，可同时接待游客6000余人。水城内包含占地约6100㎡的海浪池，以及包括飞龙迷环、风暴神、超级漩涡、螺旋滑道、童话王国、金江漂流河、夏威夷水城、六彩竞赛滑梯、SPA水疗设施等十几个娱乐设施。四季水城是目前川西南、滇东北地区最大、最先进、水上娱乐项目最多的水上乐园。"}}, {"title": "观斗山石雕", "address": "昭通市威信县城高田乡的新华汾山与罗汉山之间", "image": "", "rank": 10, "time": 1.0, "location": {"lat": 28.00173861525929, "lng": 105.15073354261196}, "feature": {"sight_features": "", "sight_content": ""}}, {"title": "罗炳辉将军纪念馆", "address": "昭通市彝良县过境街", "image": "", "rank": 11, "time": 1.0, "location": {"lat": 27.634368894699925, "lng": 104.05393054691463}, "feature": {"sight_features": "", "sight_content": ""}}, {"title": "小山峡（躲军洞）", "address": "昭通市镇雄县中屯乡翟底河西岸", "image": "", "rank": 12, "time": 1.0, "location": {"lat": 27.350045839311647, "lng": 104.87495777465021}, "feature": {"sight_features": "", "sight_content": ""}}, {"title": "拖姑清真寺", "address": "昭通市鲁甸县城桃源回族乡拖姑村", "image": "", "rank": 13, "time": 1.0, "location": {"lat": 27.17728831946736, "lng": 103.61482485950465}, "feature": {"sight_features": "", "sight_content": ""}}, {"title": "清官亭公园", "address": "昭通市昭阳区公园路中国邮政对面", "image": "", "rank": 14, "time": 1.0, "location": {"lat": 27.34632117717454, "lng": 103.72239836451}, "feature": {"sight_features": "", "sight_content": ""}}, {"title": "小草坝风景区", "address": "昭通市彝良县小草坝镇国营小草坝林场内", "image": "", "rank": 15, "time": 1.0, "location": {"lat": 27.747325607336474, "lng": 104.26035405912076}, "feature": {"sight_features": "", "sight_content": ""}}, {"title": "码口溶洞群", "address": "昭通市永善县码口乡", "image": "", "rank": 16, "time": 1.0, "location": {"lat": 27.62503018009474, "lng": 103.31050647151564}, "feature": {"sight_features": "", "sight_content": ""}}, {"title": "砚池山水库", "address": "昭通市鲁甸县城南2公里", "image": "", "rank": 17, "time": 1.0, "location": {"lat": 27.193107219132514, "lng": 103.56441216450484}, "feature": {"sight_features": "", "sight_content": ""}}, {"title": "天台山溶洞", "address": "昭通市威信县麟凤乡毕坝河边", "image": "", "rank": 18, "time": 1.0, "location": {"lat": 27.856504062749416, "lng": 104.85477772674828}, "feature": {"sight_features": "", "sight_content": ""}}, {"title": "莲花洞", "address": "昭通市盐津县城外28公里处的白水江畔，在柿子－牛街路旁。", "image": "", "rank": 19, "time": 0.4, "location": {"lat": 28.114384038516498, "lng": 104.24157884245965}, "feature": {"sight_features": "", "sight_content": ""}}, {"title": "铜锣坝国家森林公园", "address": "昭通市水富县太平乡境内", "image": "", "rank": 20, "time": 1.0, "location": {"lat": 28.557815456681105, "lng": 104.23503961582395}, "feature": {"sight_features": "", "sight_content": ""}}, {"title": "大山包黑颈鹤自然保护区", "address": "云南昭通市昭阳区大山包乡", "image": "", "rank": 21, "time": 2, "location": {"lat": 27.414066288343406, "lng": 103.3224511132168}, "feature": {"sight_features": "", "sight_content": ""}}, {"title": "天星国家森林公园", "address": "昭通市威信县旧城镇、高田乡境内", "image": "", "rank": 22, "time": 1.0, "location": {"lat": 27.965148885874502, "lng": 105.20375016477574}, "feature": {"sight_features": "", "sight_content": ""}}, {"title": "野石山遗址", "address": "昭通市鲁甸县桃源乡普之噜村野石社", "image": "", "rank": 23, "time": 1.0, "location": {"lat": 27.16351052653917, "lng": 103.59609000999825}, "feature": {"sight_features": "", "sight_content": ""}}, {"title": "龙氏家祠", "address": "昭通市城南10公里簸箕湾村", "image": "", "rank": 24, "time": 2, "location": {"lat": 27.34408386024681, "lng": 103.72351177196889}, "feature": {"sight_features": "", "sight_content": ""}}, {"title": "望海文化公园", "address": "云南省昭通市昭阳区", "image": "", "rank": 25, "time": 2, "location": {"lat": 27.32614420605265, "lng": 103.71347042315112}, "feature": {"sight_features": "", "sight_content": ""}}, {"title": "昭通古城", "address": "位与贵州、四川两省接壤", "image": "", "rank": 26, "time": 1.5, "location": {"lat": 30.577543147015334, "lng": 104.07346654728391}, "feature": {"sight_features": "", "sight_content": ""}}, {"title": "五尺道风景区", "address": "昭通市盐津县豆沙古镇", "image": "", "rank": 27, "time": 2, "location": {"lat": 28.041327066796285, "lng": 104.12757722582033}, "feature": {"sight_features": "", "sight_content": ""}}, {"title": "昭通市博物馆", "address": "云南省昭通市昭阳区朱提大道", "image": "", "rank": 28, "time": 2.5, "location": {"lat": 27.384594485910764, "lng": 103.77538307616716}, "feature": {"sight_features": "", "sight_content": ""}}, {"title": "金沙水上乐园", "address": "昭通市绥江县县城龙湖路中段（BC区交界处）水域（中城镇加油站东北侧130米处）", "image": "", "rank": 29, "time": 2, "location": {"lat": 28.604004636740914, "lng": 103.95155570477526}, "feature": {"sight_features": "特色1 世界上唯一一个浮筒异形水上建筑", "sight_content": "金沙水上乐园位于云南省绥江县城龙湖路中段B、C区交界处水域，占地面积广、水域面积宽。项目以金沙江的水资源为依托，以游泳项目为引擎，以休闲娱乐为核心，集江中游泳、水上休闲、水上游乐、水上度假等功能于一体，是绥江县重点打造的旅游项目。\n绥江金沙水上乐园形象主题是“江中欢乐谷，水上嘉年华”，主要特色为十五个字“金沙江里游，长江水上漂、川滇空中飞”，在我国水上旅游中独树一帜。绥江金沙水上乐园形象主题是“江中欢乐谷，水上嘉年华”，主要特色为十五个字“金沙江里游，长江水上漂、川滇空中飞”，在我国水上旅游中独树一帜。\n乐园的主体是一个漂浮在水上的浮筒建筑物，总投资4000余万元，其所用浮筒数量在世界上是最多的，也是世界上唯一一个浮筒异形水上建筑，它会随着水位的涨落而自动涨落，技术成熟，稳定而安全。水体建筑面积为60余亩，达1万平方米，水上娱乐可用水域面积为2000余亩，可同时容纳4000余人游玩。内部设有儿童游泳池、成人游泳池、戏水区、餐厅、VIP室等，是一个集休闲，娱乐，运动于一体的水上旅游综合体。\n园区内具有在天上飞行的娱乐设施—水上降落伞让游客尽情体验空中飞人的惊险与刺激；热气球可体验浪漫空中之旅；动力三角翼将振动微小的翅膀，带你飞翔在城市上空让美景尽收眼底。乐园具有各式各样的水上项目，动力设备有摩托艇、水上飞龙、快艇、游艇等，非动力设备有皮划艇、碰碰船、手摇船、电动船以及各种充气式设备，水上大冲关等。"}}, {"title": "罗炳辉广场", "address": "云南省昭通市昭阳区北顺城街", "image": "", "rank": 30, "time": 2, "location": {"lat": 27.34654903850548, "lng": 103.72253905891554}, "feature": {"sight_features": "", "sight_content": ""}}, {"title": "昭通古文化遗址", "address": "云南省昭通市昭阳区北闸镇塘房村", "image": "", "rank": 31, "time": 2, "location": {"lat": 27.437419048907092, "lng": 103.78283225664008}, "feature": {"sight_features": "", "sight_content": ""}}, {"title": "孟孝琚碑", "address": "云南省昭通市昭阳区昭通第三中学", "image": "", "rank": 32, "time": 2, "location": {"lat": 27.35725307522067, "lng": 103.7250293450427}, "feature": {"sight_features": "", "sight_content": ""}}, {"title": "老鹰嘴", "address": "云南省昭通市盐津县", "image": "", "rank": 33, "time": 1.0, "location": {"lat": 28.114384038516498, "lng": 104.24157884245965}, "feature": {"sight_features": "", "sight_content": ""}}, {"title": "万年生态园", "address": "G213观音滩西北侧120米", "image": "", "rank": 34, "time": 7.5, "location": {"lat": 27.77085260338003, "lng": 112.7019120328842}, "feature": {"sight_features": "", "sight_content": ""}}, {"title": "扎西上广场", "address": "云南省昭通市威信县人民路12号附近", "image": "", "rank": 35, "time": 2, "location": {"lat": 27.849643975590347, "lng": 105.05588471481235}, "feature": {"sight_features": "", "sight_content": ""}}, {"title": "伊斯兰风情城", "address": "云南省昭通市鲁甸县文屏镇桃源回族乡拖姑村民委员会", "image": "", "rank": 36, "time": 2, "location": {"lat": 27.18117783966171, "lng": 103.60711752489267}, "feature": {"sight_features": "", "sight_content": ""}}, {"title": "盐津悬棺墓葬", "address": "云南省盐津县豆沙乡石门村 657504", "image": "", "rank": 37, "time": 2, "location": {"lat": 28.04084247584874, "lng": 104.12738508276334}, "feature": {"sight_features": "", "sight_content": ""}}, {"title": "观音阁", "address": "昭通市盐津县西南部的豆沙古镇五尺道景区内", "image": "", "rank": 38, "time": 1.0, "location": {"lat": 28.04270221799241, "lng": 104.12286536638804}, "feature": {"sight_features": "", "sight_content": ""}}, {"title": "豪都温泉SPA", "address": "昭通市永善县金江路金溪花园下行50米", "image": "", "rank": 39, "time": 2, "location": {"lat": 28.239518148429443, "lng": 103.64910225022776}, "feature": {"sight_features": "", "sight_content": "豪都温泉SPA九鼎所有的设计和休闲娱乐项目均打破传统的设计风格和休闲娱乐组合，势必给来宾带来全新的感受，是高端个人、家庭及商务活动的最佳时尚选择；\n更是渴望自由、渴望学习、渴望进步、渴望引领江西休闲新风尚的年轻人的时代首选。"}}, {"title": "原生态水果采摘园", "address": "小龙洞集市经过乡政府前面路口向右走", "image": "", "rank": 40, "time": 2, "location": {"lat": 39.91050690454764, "lng": 116.41376502691378}, "feature": {"sight_features": "", "sight_content": ""}}, {"title": "pxp密室逃脱", "address": "昭阳大道58号", "image": "", "rank": 41, "time": 2, "location": {"lat": 27.339098974093137, "lng": 103.71487321703503}, "feature": {"sight_features": "", "sight_content": ""}}, {"title": "情未了山庄", "address": "大龙洞斜对面", "image": "", "rank": 42, "time": 2, "location": {"lat": 42.67164387103469, "lng": 129.54371061623831}, "feature": {"sight_features": "", "sight_content": ""}}, {"title": "金沙江奇石文化博览中心", "address": "第三中学左侧", "image": "", "rank": 43, "time": 2, "location": {"lat": 40.14453426694905, "lng": 117.11601115437095}, "feature": {"sight_features": "", "sight_content": ""}}, {"title": "心灵家园生态农庄", "address": "昭大线三善堂村西北侧", "image": "", "rank": 44, "time": 2, "location": {"lat": 27.380983352138266, "lng": 103.67634040219727}, "feature": {"sight_features": "", "sight_content": ""}}, {"title": "昭通市文化艺术剧院", "address": "昭通市昭阳区元宝山体育场东2门", "image": "", "rank": 45, "time": 3.5, "location": {"lat": 27.325866358464097, "lng": 103.73077738730413}, "feature": {"sight_features": "", "sight_content": ""}}, {"title": "卡子清真寺", "address": "元烟段与卡新线交叉口西北150米", "image": "", "rank": 46, "time": 2, "location": {"lat": 39.754319199493544, "lng": 118.4675874287618}, "feature": {"sight_features": "", "sight_content": ""}}, {"title": "景秀山庄农家乐", "address": "西部大峡谷旁丰满17号", "image": "", "rank": 47, "time": 2, "location": {"lat": 43.8271515768356, "lng": 126.5685704636207}, "feature": {"sight_features": "", "sight_content": ""}}, {"title": "烨龙九区温泉(茨院店)", "address": "茨院乡", "image": "", "rank": 48, "time": 2, "location": {"lat": 27.22290926650565, "lng": 103.60956346527004}, "feature": {"sight_features": "", "sight_content": ""}}, {"title": "苑花潭山庄", "address": "环城南路", "image": "", "rank": 49, "time": 2, "location": {"lat": 32.343803277365524, "lng": 118.8527646843988}, "feature": {"sight_features": "", "sight_content": ""}}, {"title": "绥江县腾飞水上娱乐有限公司", "address": "金沙丽都下码头", "image": "", "rank": 50, "time": 2, "location": {"lat": 27.465354872613517, "lng": 106.22644163900851}, "feature": {"sight_features": "", "sight_content": ""}}, {"title": "梦里水乡生态园", "address": "303省道附近", "image": "", "rank": 51, "time": 2, "location": {"lat": 38.25466494631471, "lng": 114.66726867564682}, "feature": {"sight_features": "", "sight_content": ""}}, {"title": "大海梁子", "address": "云南省会泽县乌蒙山主峰 654200", "image": "", "rank": 52, "time": 2, "location": {"lat": 26.424215045560672, "lng": 103.3034872919241}, "feature": {"sight_features": "", "sight_content": ""}}, {"title": "两合岩", "address": "云南省威信县扎西镇 657900", "image": "", "rank": 53, "time": 2, "location": {"lat": 27.84643348343907, "lng": 105.05474872844448}, "feature": {"sight_features": "", "sight_content": ""}}, {"title": "小东门新石器墓葬", "address": "云南省巧家县小东门 654600", "image": "", "rank": 54, "time": 2, "location": {"lat": 26.914705038576646, "lng": 102.93651934036706}, "feature": {"sight_features": "", "sight_content": ""}}, {"title": "红山寨农庄", "address": "永善县溪峡商贸有限责任公司附近", "image": "", "rank": 55, "time": 2, "location": {"lat": 28.230996931985672, "lng": 103.65105266731987}, "feature": {"sight_features": "", "sight_content": ""}}, {"title": "天源山庄", "address": "家乡旅店附近", "image": "", "rank": 56, "time": 2, "location": {"lat": 49.22938331640079, "lng": 119.74561913205712}, "feature": {"sight_features": "", "sight_content": ""}}, {"title": "云南省绥江县图书馆", "address": "龙行大道4号", "image": "", "rank": 57, "time": 2, "location": {"lat": 28.60468481053437, "lng": 103.9887724301769}, "feature": {"sight_features": "", "sight_content": ""}}, {"title": "昭通文物陈列馆", "address": "云南省昭通市青年路", "image": "", "rank": 58, "time": 3.5, "location": {"lat": 27.342198572179388, "lng": 103.71936396395596}, "feature": {"sight_features": "", "sight_content": ""}}, {"title": "清真古寺", "address": "云南省昭通市昭阳区毛货街83号", "image": "", "rank": 59, "time": 1.0, "location": {"lat": 27.34025330334257, "lng": 103.72286796808807}, "feature": {"sight_features": "", "sight_content": ""}}, {"title": "忘忧谷游乐园", "address": "云南省昭通市昭阳区永丰镇龙氏家祠北250米", "image": "", "rank": 60, "time": 2, "location": {"lat": 27.285716884862875, "lng": 103.67324165422295}, "feature": {"sight_features": "", "sight_content": ""}}]}