{"cityName": "诏安", "days": 2, "cityImage": "", "spots": [{"title": "九侯山", "address": "漳州市诏安县金星乡湖内村九侯山", "image": "", "rank": 1, "time": 2.5, "location": {"lat": 23.80965413066329, "lng": 117.21657457911544}, "feature": {"sight_features": "", "sight_content": ""}}, {"title": "哈溪激流探险", "address": "漳州市诏安县红星乡西埔村五洞作业区", "image": "", "rank": 2, "time": 2, "location": {"lat": 23.88163298554228, "lng": 117.11718978908539}, "feature": {"sight_features": "特色1 10公里惊艳峡谷，208米垂直落差", "sight_content": "‍‍哈溪激流探险景区，10公里惊艳峡谷，208米垂直落差，5m³/秒磅礴水量，1.5小时巅峰体验，专业级河道设计。皮艇时左时右，或直下入潭，或连续冲滩，始终与浪共舞。在漂流间隙，感受两岸原生态的自然风光，看青山戏绿水，刺激与美景共存，快乐无与伦比。\n景区位于赏梅胜地——福建省诏安县，诏安是全国闻名的“青梅之乡”、“中国书画艺术之乡”、“中国硒都”、“中国长寿之乡”，境内乌山被列为国家森林公园。漂流距乌山风景区仅7公里，距沈海高速诏安南出口24公里，诏安动车站16公里，沈海高速复线诏安出口32公里。地理位置十分优越，对外交通特别便利。"}}, {"title": "乌山", "address": "漳州市诏安县红星乡境内", "image": "", "rank": 3, "time": 1.5, "location": {"lat": 23.892194961820767, "lng": 117.14223831868013}, "feature": {"sight_features": "", "sight_content": ""}}, {"title": "诏安土楼(在田楼）", "address": "漳州诏安县", "image": "", "rank": 4, "time": 1.0, "location": {"lat": 23.717053963784434, "lng": 117.18255858271938}, "feature": {"sight_features": "", "sight_content": ""}}, {"title": "金光明寺", "address": "漳州市诏安县桥东镇凤山生态公园内", "image": "", "rank": 5, "time": 2, "location": {"lat": 23.699599641561342, "lng": 117.22365704971998}, "feature": {"sight_features": "", "sight_content": ""}}, {"title": "大铺山现代农场", "address": "309省道附近", "image": "", "rank": 6, "time": 2, "location": {"lat": 40.709016096764906, "lng": 116.52743651721413}, "feature": {"sight_features": "", "sight_content": ""}}, {"title": "后陈农场", "address": "309省道附近", "image": "", "rank": 7, "time": 2, "location": {"lat": 40.709016096764906, "lng": 116.52743651721413}, "feature": {"sight_features": "", "sight_content": ""}}, {"title": "闽粤分水关", "address": "广东省饶平县黄冈镇仙春村 515700", "image": "", "rank": 8, "time": 2, "location": {"lat": 23.664704020492888, "lng": 117.0646270717126}, "feature": {"sight_features": "", "sight_content": ""}}, {"title": "五安赤竹坪农家苑", "address": "霞葛镇五通村马安石", "image": "", "rank": 9, "time": 2, "location": {"lat": 24.01702019196525, "lng": 117.04331582900438}, "feature": {"sight_features": "", "sight_content": ""}}, {"title": "诏安县欢乐岛儿童乐园", "address": "南诏镇中山西路493号（百货大楼二楼）", "image": "", "rank": 10, "time": 2, "location": {"lat": 31.661129139716472, "lng": 119.03693773242853}, "feature": {"sight_features": "", "sight_content": ""}}, {"title": "四都教堂", "address": "324国道东50米", "image": "", "rank": 11, "time": 2, "location": {"lat": 23.154734358898722, "lng": 114.20514325588965}, "feature": {"sight_features": "", "sight_content": ""}}, {"title": "李伯瑶文化博物馆", "address": "漳州市诏安县", "image": "", "rank": 12, "time": 2, "location": {"lat": 23.717053963784434, "lng": 117.18255858271938}, "feature": {"sight_features": "", "sight_content": ""}}, {"title": "孝享堂", "address": "福建省漳州市诏安县四都镇上湖村境内", "image": "", "rank": 13, "time": 2, "location": {"lat": 23.80190033262685, "lng": 117.30239824105254}, "feature": {"sight_features": "", "sight_content": ""}}, {"title": "田厝农民公园", "address": "梅岭镇", "image": "", "rank": 14, "time": 2, "location": {"lat": 28.792320845289968, "lng": 115.78510907939712}, "feature": {"sight_features": "", "sight_content": ""}}, {"title": "叶太恭人祠", "address": "福建省漳州市诏安县山河村内", "image": "", "rank": 15, "time": 2, "location": {"lat": 23.7919887777744, "lng": 117.16467866583773}, "feature": {"sight_features": "", "sight_content": ""}}, {"title": "金莲禅寺", "address": "南诏镇中山西路501号", "image": "", "rank": 16, "time": 2, "location": {"lat": 23.711907921951322, "lng": 117.18540001287705}, "feature": {"sight_features": "", "sight_content": ""}}, {"title": "儿童乐园", "address": "南诏镇中山西路493号(百货大楼二楼)", "image": "", "rank": 17, "time": 2, "location": {"lat": 31.661129139716472, "lng": 119.03693773242853}, "feature": {"sight_features": "", "sight_content": ""}}, {"title": "明灯寺", "address": "福建省漳州市诏安县", "image": "", "rank": 18, "time": 2, "location": {"lat": 23.717053963784434, "lng": 117.18255858271938}, "feature": {"sight_features": "", "sight_content": ""}}, {"title": "顶福宫", "address": "福建省漳州市诏安县坑口村附近", "image": "", "rank": 19, "time": 2, "location": {"lat": 24.10543193130734, "lng": 117.31257165425482}, "feature": {"sight_features": "", "sight_content": ""}}, {"title": "大夫第祠堂", "address": "福建省漳州市诏安县山河村", "image": "", "rank": 20, "time": 2, "location": {"lat": 23.7919887777744, "lng": 117.16467866583773}, "feature": {"sight_features": "", "sight_content": ""}}, {"title": "省山祖祠", "address": "福建省漳州市诏安县西潭镇山河村", "image": "", "rank": 21, "time": 2, "location": {"lat": 23.7919887777744, "lng": 117.16467866583773}, "feature": {"sight_features": "", "sight_content": ""}}, {"title": "棒棒儿童乐园", "address": "文化古街中段恒生电讯隔壁章光101(县前街)附近", "image": "", "rank": 22, "time": 2, "location": {"lat": 23.712021243950623, "lng": 117.18704570857079}, "feature": {"sight_features": "", "sight_content": ""}}, {"title": "沈氏家庙饗保堂", "address": "福建省漳州市诏安县中山路", "image": "", "rank": 23, "time": 2, "location": {"lat": 23.72319529500883, "lng": 117.1786095274954}, "feature": {"sight_features": "", "sight_content": ""}}, {"title": "沈柔坚故居", "address": "南诏镇中山路450号", "image": "", "rank": 24, "time": 2, "location": {"lat": 23.710135272389046, "lng": 117.19039999392021}, "feature": {"sight_features": "", "sight_content": ""}}, {"title": "沈锡纯沈冰山纪念馆", "address": "福建省漳州市诏安县中山西路233号", "image": "", "rank": 25, "time": 2, "location": {"lat": 23.709546996750248, "lng": 117.19325578438978}, "feature": {"sight_features": "", "sight_content": ""}}, {"title": "友福啤酒广场", "address": "福建省漳州市诏安县康华西路149号附近", "image": "", "rank": 26, "time": 2, "location": {"lat": 23.717863565679384, "lng": 117.17547786291229}, "feature": {"sight_features": "", "sight_content": ""}}, {"title": "东里庙", "address": "东路附近", "image": "", "rank": 27, "time": 2, "location": {"lat": 23.100931760317003, "lng": 113.27528273950196}, "feature": {"sight_features": "", "sight_content": ""}}, {"title": "凤乔盆景园", "address": "诏安东互通与324国道交叉口东南50米", "image": "", "rank": 28, "time": 2, "location": {"lat": 23.71239685669806, "lng": 117.25478985193858}, "feature": {"sight_features": "", "sight_content": ""}}, {"title": "集雅框艺画廊", "address": "康华路与文峰路交叉口东北200米", "image": "", "rank": 29, "time": 2, "location": {"lat": 23.720136694619708, "lng": 117.18027803296263}, "feature": {"sight_features": "", "sight_content": ""}}, {"title": "闽粤第一城", "address": "福建漳州", "image": "", "rank": 30, "time": 2, "location": {"lat": 24.51892979117087, "lng": 117.65357645298785}, "feature": {"sight_features": "", "sight_content": ""}}, {"title": "山河古村", "address": "漳州市诏安县西潭镇山河村", "image": "", "rank": 31, "time": 2, "location": {"lat": 23.7919887777744, "lng": 117.16467866583773}, "feature": {"sight_features": "", "sight_content": ""}}, {"title": "望洋台", "address": "漳州市诏安县梅岭镇南门村", "image": "", "rank": 32, "time": 2, "location": {"lat": 23.614545404744863, "lng": 117.25150215528168}, "feature": {"sight_features": "", "sight_content": ""}}]}