{"cityName": "招远", "days": 2, "cityImage": "", "spots": [{"title": "淘金小镇", "address": "招远市玲珑镇欧家夼村东", "image": "", "rank": 1, "time": 0.35, "location": {"lat": 37.446140435189555, "lng": 120.48502774509946}, "feature": {"sight_features": "特色1 仿宋代的古建筑、场景、特色小吃", "sight_content": "‍‍‍‍‍‍\n招远淘金小镇景区是国家AAAA级景区，由黄金主题体验区、财神广场、休闲娱乐区和综合服务区组成；融黄金文化、财神文化、市井文化和民俗文化于一体，以场景再现和游客参与的方式，集中展示宋代黄金采选冶炼技术、矿工生产生活、黄金管理机制以及商品市场等状况。\n身临淘金小镇，颇有穿越回宋朝之感。在这里，您不仅能在淘金河里亲身体验“吹尽狂沙始到金”的收获和乐趣，过一把淘金瘾，还能品读财神金殿彰显的道教文化，观瞻源于宋代的黄金和粉丝非物质文化遗产展演，领略督办衙门、镖局驿站、金铺银库、酒肆戏楼等宋代殿台楼阁建筑的清雅柔逸风采，欣赏琳琅满目的市井风情。\n“智审狗头金案”、“金镇第一镖”等主题表演，圆您场景互动体验梦，为您留下一段神奇而美妙的回忆！穿越淘金小镇当“闲”人，在宋朝繁华的淘金小镇完成您的黄金文化之旅、祈运谋福之旅和生活感受之旅吧！"}}, {"title": "罗山国家森林公园", "address": "烟台市招远市欧家夼村北", "image": "", "rank": 2, "time": 3.0, "location": {"lat": 37.446140435189555, "lng": 120.48502774509946}, "feature": {"sight_features": "特色1 素有“植物宝库”和“森林氧吧”的美誉。", "sight_content": "罗山位于山东金都招远欧家夼村北，北接龙口，东连栖霞，总面积18.8平方公里，为国家“AAAA”级旅游风景区，山东省首批农业旅游示范点，招远陆路交通便利，距烟台120公里、距离青岛150公里、距离潍坊160公里。各组团城市均处于200公里以内，为自驾游和组团一日游理想的目的地。\n罗山国家森林公园是92年经林业部批准设立的国家级森林公园，2011年经国家旅游局批准为AAAA级景区，总面积15000余亩，森林覆盖率达到91%，有植物资源1000多种，野生动物资源80多种。 负氧离子含量是城市的400多倍，素有“植物宝库”和“森林氧吧”的美誉。\n罗山自然风光优美。高峻雄浑的山峰，纵横灵秀的泉涧曾令古人发出“罗峰十里隔烟霞，势压登莱百万峰”的感叹。特殊的地质构造，令罗山无峰不险，无涧不幽，悬崖千仞，怪石林立。全真七子之一的丘处机就曾赞曰：“山高谷深复和有，白石磊磊松烟清。春风浩荡漫山谷，自上似欲上天庭。”景区内层峦叠嶂，飞瀑吐玉，古木参天，怪石嶙立，古刹庄严。春天的杜鹃满山遍野，如火如荼；夏季的溪流潺潺，鸟语花香；秋天的万绿丛中，红叶簇簇，野果挂满枝头；冬天的白雪皑皑，极为壮观，是春夏秋冬旅游度假的妙境之一。景区内有毛公山、莲花宝盆、瀑布、神龟观潭、森林氧吧等自然景观，观瀑阁、双谊亭、罗山影视城等人文景观以及祥光寺、周祖庙等历史文化古迹，驱狼石柱、双眼石等神奇优美的传说令游客浮想联翩，留恋忘返。"}}, {"title": "黄金博物馆", "address": "烟台招远市玲珑镇欧家夼村南", "image": "", "rank": 3, "time": 1.5, "location": {"lat": 37.446140435189555, "lng": 120.48502774509946}, "feature": {"sight_features": "特色1 体验火山喷发，领略声、光、电高科技", "sight_content": "黄金博物馆是国家AAAA级景区，为国内规模较大的运用声、光、电、动漫、幻影全息成像等高科技手段打造，融互动、参与、体验于一体的黄金主题旅游景点，被誉为“中国黄金第一游”。\n馆内设有12个专题展厅，融知识性、趣味性于一体，实物陈列和知识普及相得益彰，将斑驳杂陈的黄金历史层层铺展，绘就一幅几千年来人类掘取黄金的贪婪和文明发展交织融合的历史画卷，是一部古今中外黄金文化的百科全书。\n坐上轨道车，以采矿工人的身份进入矿井体验区，可进一步探索黄金的奥秘，一览亿万年前火山地质活动形成的金矿脉，感受挂锣橛的神奇传说，观赏宋代采金和现代采金作业场景。"}}, {"title": "魁星公园", "address": "烟台市招远市河西路", "image": "", "rank": 4, "time": 1.0, "location": {"lat": 37.3673058584149, "lng": 120.41621155223571}, "feature": {"sight_features": "", "sight_content": ""}}, {"title": "孟格庄古村落", "address": "烟台市招远市辛庄镇孟格庄村", "image": "", "rank": 5, "time": 1.5, "location": {"lat": 37.50575817360354, "lng": 120.25148206286762}, "feature": {"sight_features": "", "sight_content": ""}}, {"title": "龙凤峡", "address": "烟台市招远市张星镇", "image": "", "rank": 6, "time": 2.5, "location": {"lat": 37.480797305168046, "lng": 120.3982013675746}, "feature": {"sight_features": "", "sight_content": ""}}, {"title": "高家庄子古村落", "address": "烟台市招远市辛庄镇高家庄子村", "image": "", "rank": 7, "time": 2.5, "location": {"lat": 37.49516472409809, "lng": 120.22416625686931}, "feature": {"sight_features": "", "sight_content": ""}}, {"title": "金山佛谕实景演出", "address": "烟台市招远市玲珑镇欧家夼村北罗山国家森林公园内", "image": "", "rank": 8, "time": 2, "location": {"lat": 37.446140435189555, "lng": 120.48502774509946}, "feature": {"sight_features": "特色1 多种演出形式相辅相成，打造完美仙境", "sight_content": "﻿《金山佛谕》大型实景演出以中国金都招远的罗山国家森林公园景区为舞台，演艺充分利用美丽的罗山景色在顶级的灯光舞美映衬之下，由国内顶级的舞蹈演员为观众们呈现出惊险刺激、精彩绝伦、震撼人心的视觉盛宴。 《金山佛谕》将多种演出形式相辅相成，共同打造出招远金泉山海的完美仙境。\n宏大的视觉盛宴，百余名演员的精彩表演，彻底颠覆“传统舞台”，实现全新的观演关系。而且演出还将巧妙借用天然景观，烘托各种大型艺术灯光，高保真音响系统，仿真技术合成，多媒体控制技术，多色激光投射等，将这些要素与技术手段完美集成，协调组合，创造出一幅美仑美奂的画面意境，给游客提供一份精神文化盛宴。"}}, {"title": "金水湖生态观光园", "address": "烟台市招远市蚕庄镇", "image": "", "rank": 9, "time": 2, "location": {"lat": 37.40495947628711, "lng": 120.22793051807494}, "feature": {"sight_features": "", "sight_content": ""}}, {"title": "黄金阁公园", "address": "烟台市招远市温泉路406号", "image": "", "rank": 10, "time": 1.0, "location": {"lat": 37.36491773100734, "lng": 120.38538074684466}, "feature": {"sight_features": "", "sight_content": ""}}, {"title": "三联南海林苑景区", "address": "烟台市招远市大户陈家村南1公里路东", "image": "", "rank": 11, "time": 1.5, "location": {"lat": 37.329669638222335, "lng": 120.30545235312749}, "feature": {"sight_features": "", "sight_content": ""}}, {"title": "徐家古村落", "address": "烟台市招远市张星镇徐家村", "image": "", "rank": 12, "time": 2.5, "location": {"lat": 37.504244741072256, "lng": 120.44434870501266}, "feature": {"sight_features": "", "sight_content": ""}}, {"title": "金城温泉大酒店", "address": "温泉路212号(近河东路)", "image": "", "rank": 13, "time": 2, "location": {"lat": 26.09513473252226, "lng": 119.31663426285677}, "feature": {"sight_features": "", "sight_content": ""}}, {"title": "架旗山游乐园", "address": "烟台招远市温泉路龙王庙下村北", "image": "", "rank": 14, "time": 2, "location": {"lat": 37.369241723201704, "lng": 120.3961324684766}, "feature": {"sight_features": "特色1 园区是集游憩休闲、度假娱乐、生态疗养、商贸于一体的多功能城市生态养生度假区，也是生态招远、文明招远、和谐招远的窗口。 特色2 架旗山游乐园是中矿集团实施产业转型的重点项目，由游客服务中心、水上乐园、美食娱乐城、峡谷漂流区、儿童乐园区、惊险刺激区组成。 特色3 拥有峡谷漂流、木星、摩天轮、过山车、7D互动影院、观光游船、水上乐园、旋风飞椅、豪华转马、咖啡杯、碰碰车、海马精灵、海洋欢乐岛、大青虫等高安全标准的游乐设备30多台套。", "sight_content": "架旗山游乐园位于山东省招远市区以西，毗邻龙王湖景区，距离市区0.5公里，投资8亿元，占地600多亩，其中建筑面积2万多平方米，绿化面积420多亩，水面面积4万平方米。园区是集游憩休闲、度假娱乐、生态疗养、商贸于一体的多功能城市生态养生度假区，也是生态招远、文明招远、和谐招远的窗口。\n架旗山游乐园是中矿集团实施产业转型的重点项目，由游客服务中心、水上乐园、美食娱乐城、峡谷漂流区、儿童乐园区、惊险刺激区组成。拥有峡谷漂流、木星、摩天轮、过山车、7D互动影院、观光游船、水上乐园、旋风飞椅、豪华转马、咖啡杯、碰碰车、海马精灵、海洋欢乐岛、大青虫等高安全标准的游乐设备30多台套。"}}, {"title": "鸿润温泉", "address": "河西路15号", "image": "", "rank": 15, "time": 2, "location": {"lat": 40.051824389099906, "lng": 113.23389698643466}, "feature": {"sight_features": "", "sight_content": ""}}, {"title": "红金龙水族馆", "address": "河东路79号(近朱家嘴)", "image": "", "rank": 16, "time": 2, "location": {"lat": 31.86642825802099, "lng": 120.55443685193879}, "feature": {"sight_features": "", "sight_content": ""}}, {"title": "嘉年华游乐园", "address": "金城路新亚批发市场三楼", "image": "", "rank": 17, "time": 2, "location": {"lat": 33.60547794574178, "lng": 119.0331399033426}, "feature": {"sight_features": "", "sight_content": ""}}, {"title": "景剧院", "address": "泰府路66附近", "image": "", "rank": 18, "time": 2, "location": {"lat": 37.36706880323345, "lng": 120.46358991945988}, "feature": {"sight_features": "", "sight_content": ""}}, {"title": "影剧院(府前路)", "address": "罗峰路202号", "image": "", "rank": 19, "time": 2, "location": {"lat": 30.074145349130337, "lng": 120.2070149115639}, "feature": {"sight_features": "", "sight_content": ""}}, {"title": "影剧院(府东路店)", "address": "府东路与政通路交叉口西北100米", "image": "", "rank": 20, "time": 2, "location": {"lat": 37.19294685915789, "lng": 120.38847916783679}, "feature": {"sight_features": "", "sight_content": ""}}, {"title": "春雨集团影剧院", "address": "九曲蒋家村附近", "image": "", "rank": 21, "time": 2, "location": {"lat": 37.469617649126555, "lng": 120.56120419787108}, "feature": {"sight_features": "", "sight_content": ""}}, {"title": "招远市圣果果桑苗木(采摘)园", "address": "306省道附近", "image": "", "rank": 22, "time": 2.5, "location": {"lat": 44.29269479672118, "lng": 120.43504383645545}, "feature": {"sight_features": "", "sight_content": ""}}, {"title": "绿都果蔬采摘园直销店", "address": "罗峰路金海大厦南行30米", "image": "", "rank": 23, "time": 2, "location": {"lat": 37.3641684469651, "lng": 120.40935551121059}, "feature": {"sight_features": "", "sight_content": ""}}, {"title": "国大公司文工团", "address": "府前路124号附近", "image": "", "rank": 24, "time": 2, "location": {"lat": 37.6208653976165, "lng": 114.61263748405716}, "feature": {"sight_features": "", "sight_content": ""}}, {"title": "招远市展览馆", "address": "山东省招远市府前路", "image": "", "rank": 25, "time": 2.5, "location": {"lat": 37.367043708968325, "lng": 120.39928185213692}, "feature": {"sight_features": "", "sight_content": ""}}, {"title": "万昶奇石馆", "address": "山东省招远市温泉路", "image": "", "rank": 26, "time": 2, "location": {"lat": 37.369241723201704, "lng": 120.3961324684766}, "feature": {"sight_features": "", "sight_content": ""}}, {"title": "招远市城建档案馆", "address": "河东路366号", "image": "", "rank": 27, "time": 2.5, "location": {"lat": 37.37117896051628, "lng": 120.4174897277899}, "feature": {"sight_features": "", "sight_content": ""}}, {"title": "文化博览中心", "address": "府前路", "image": "", "rank": 28, "time": 2, "location": {"lat": 40.6095122160732, "lng": 117.1166282749851}, "feature": {"sight_features": "", "sight_content": ""}}, {"title": "招远美术馆", "address": "河东路408号", "image": "", "rank": 29, "time": 3.0, "location": {"lat": 18.274831953342286, "lng": 109.50840773558126}, "feature": {"sight_features": "", "sight_content": ""}}, {"title": "金都美术馆", "address": "府前路136号", "image": "", "rank": 30, "time": 2, "location": {"lat": 31.975540005730355, "lng": 120.55785100036852}, "feature": {"sight_features": "", "sight_content": ""}}, {"title": "滨海书画协会文化中心", "address": "206国道", "image": "", "rank": 31, "time": 2, "location": {"lat": 24.027693425509675, "lng": 115.9917729736661}, "feature": {"sight_features": "", "sight_content": ""}}, {"title": "艺莹书画苑", "address": "兴华路8号", "image": "", "rank": 32, "time": 2, "location": {"lat": 36.6012043194024, "lng": 114.53167053688227}, "feature": {"sight_features": "", "sight_content": ""}}, {"title": "东方金石艺雕展览馆", "address": "兴达驾校旁", "image": "", "rank": 33, "time": 2, "location": {"lat": 40.09553712575628, "lng": 116.13830731111318}, "feature": {"sight_features": "", "sight_content": ""}}, {"title": "金都金石博物馆", "address": "金阜路", "image": "", "rank": 34, "time": 2, "location": {"lat": 37.40385254511306, "lng": 120.5687356810973}, "feature": {"sight_features": "", "sight_content": ""}}, {"title": "工业产品展览中心", "address": "金晖路", "image": "", "rank": 35, "time": 2, "location": {"lat": 39.11644773951179, "lng": 117.17516813308603}, "feature": {"sight_features": "", "sight_content": ""}}, {"title": "罗山书画院", "address": "罗山路", "image": "", "rank": 36, "time": 2.5, "location": {"lat": 27.975695470857914, "lng": 120.76857955295311}, "feature": {"sight_features": "", "sight_content": ""}}, {"title": "红心艺术馆", "address": "北关东文化商城1号楼3楼西南角", "image": "", "rank": 37, "time": 2, "location": {"lat": 37.37202391993703, "lng": 120.41351926863922}, "feature": {"sight_features": "", "sight_content": ""}}, {"title": "中国黄金报金石文化陈列中心", "address": "于家夼附近", "image": "", "rank": 38, "time": 2, "location": {"lat": 37.48810769601854, "lng": 122.11664251039153}, "feature": {"sight_features": "", "sight_content": ""}}, {"title": "西山动物园", "address": "温泉路398号", "image": "", "rank": 39, "time": 2, "location": {"lat": 38.99315263963065, "lng": 116.1028511683801}, "feature": {"sight_features": "", "sight_content": ""}}, {"title": "金都画院(金兄弟分院)", "address": "魁星路205号", "image": "", "rank": 40, "time": 2, "location": {"lat": 37.37495360018554, "lng": 120.41168295251572}, "feature": {"sight_features": "", "sight_content": ""}}, {"title": "沙坨草莓基地", "address": "兴寿镇昌金路沙坨草莓采摘基地51.52.53.54号", "image": "", "rank": 41, "time": 2, "location": {"lat": 39.26884590147428, "lng": 117.77500464676034}, "feature": {"sight_features": "", "sight_content": ""}}, {"title": "九州温泉", "address": "温泉路169号", "image": "", "rank": 42, "time": 1.5, "location": {"lat": 40.05884258498037, "lng": 116.16910101199512}, "feature": {"sight_features": "", "sight_content": ""}}, {"title": "隆都温泉", "address": "玲珑路226号", "image": "", "rank": 43, "time": 2, "location": {"lat": 37.38913284461904, "lng": 120.40391901117947}, "feature": {"sight_features": "", "sight_content": ""}}, {"title": "超级星期天", "address": "文昌路28号", "image": "", "rank": 44, "time": 2, "location": {"lat": 39.91264756087654, "lng": 119.55531600306826}, "feature": {"sight_features": "", "sight_content": ""}}, {"title": "春雨滨海度假村水上乐园", "address": "春雨滨海度假村内", "image": "", "rank": 45, "time": 2, "location": {"lat": 37.526540099394886, "lng": 120.22735233541141}, "feature": {"sight_features": "", "sight_content": ""}}, {"title": "3D画展(招远店)", "address": "东关街77号金城会所二楼", "image": "", "rank": 46, "time": 2, "location": {"lat": 37.366580300189504, "lng": 120.41230125619823}, "feature": {"sight_features": "", "sight_content": ""}}, {"title": "红满堂红木艺术馆", "address": "招金路与温泉路交叉口旁", "image": "", "rank": 47, "time": 2, "location": {"lat": 37.370133985376235, "lng": 120.43688017054505}, "feature": {"sight_features": "", "sight_content": ""}}, {"title": "金丝楠木艺术博物馆(实体店)", "address": "金街21号附近", "image": "", "rank": 48, "time": 2, "location": {"lat": 45.98427539083081, "lng": 128.76297642394437}, "feature": {"sight_features": "", "sight_content": ""}}, {"title": "九曲影剧院", "address": "阜山镇九曲村卫生室附近", "image": "", "rank": 49, "time": 2, "location": {"lat": 31.276240622793022, "lng": 104.98615338949332}, "feature": {"sight_features": "", "sight_content": ""}}, {"title": "金街梦想星剧场", "address": "招金路120号", "image": "", "rank": 50, "time": 2, "location": {"lat": 37.35907061184021, "lng": 120.43784219188146}, "feature": {"sight_features": "", "sight_content": ""}}, {"title": "海代美术馆", "address": "河西路文化商城5号楼", "image": "", "rank": 51, "time": 2, "location": {"lat": 37.373683021074264, "lng": 120.41444139002488}, "feature": {"sight_features": "", "sight_content": ""}}, {"title": "北京银鲛萨克管重奏团(烟台分团)", "address": "罗峰路影剧院附近(罗峰路)", "image": "", "rank": 52, "time": 1.0, "location": {"lat": 30.073949583403763, "lng": 120.20783169045903}, "feature": {"sight_features": "", "sight_content": ""}}, {"title": "横掌动漫水世界", "address": "国大路659号", "image": "", "rank": 53, "time": 2, "location": {"lat": 31.61768971914864, "lng": 120.52914493184767}, "feature": {"sight_features": "", "sight_content": ""}}, {"title": "黄金博览苑", "address": "罗山黄金旅游区", "image": "", "rank": 54, "time": 2, "location": {"lat": 32.20915045183822, "lng": 114.51952993791492}, "feature": {"sight_features": "", "sight_content": ""}}, {"title": "楠铂万商业步行街", "address": "山东省招远市楠铂万商业步行街", "image": "", "rank": 55, "time": 2, "location": {"lat": 37.36244119623542, "lng": 120.43857130253204}, "feature": {"sight_features": "", "sight_content": ""}}, {"title": "中国黄金第一村展示厅", "address": "山东省招远市春雨路", "image": "", "rank": 56, "time": 2, "location": {"lat": 37.379305801543396, "lng": 120.44690081791566}, "feature": {"sight_features": "", "sight_content": ""}}, {"title": "灵山蒋家村", "address": "烟台市-招远市", "image": "", "rank": 57, "time": 1.0, "location": {"lat": 37.36113714256612, "lng": 120.44060165264568}, "feature": {"sight_features": "", "sight_content": ""}}, {"title": "友唱(金都购物中心店)", "address": "烟台市-招远市-罗峰路159号金都购物中心F6", "image": "", "rank": 58, "time": 2, "location": {"lat": 37.36673180602685, "lng": 120.4069771791017}, "feature": {"sight_features": "", "sight_content": ""}}, {"title": "灵山冯家", "address": "烟台市-招远市", "image": "", "rank": 59, "time": 1.0, "location": {"lat": 37.36113714256612, "lng": 120.44060165264568}, "feature": {"sight_features": "", "sight_content": ""}}]}