{"cityName": "赵县", "days": 2, "cityImage": "", "spots": [{"title": "赵州桥", "address": "石家庄市赵县城南2.5公里处", "image": "", "rank": 1, "time": 0.75, "location": {"lat": 37.76185852288779, "lng": 114.78259655057873}, "feature": {"sight_features": "", "sight_content": ""}}, {"title": "旭海庄园", "address": "石家庄市赵县赵藁公路与青银高速口北行200米（过桥即到）", "image": "", "rank": 2, "time": 2, "location": {"lat": 37.76185852288779, "lng": 114.78259655057873}, "feature": {"sight_features": "", "sight_content": ""}}, {"title": "赵州桥景区古桥展览馆", "address": "石家庄市赵县赵州镇赵州桥景区内", "image": "", "rank": 3, "time": 2, "location": {"lat": 37.72829142167303, "lng": 114.77722478154438}, "feature": {"sight_features": "", "sight_content": ""}}, {"title": "陀罗尼经幢", "address": "河北省赵县南大街与石塔路相交的十字路口", "image": "", "rank": 4, "time": 0.5, "location": {"lat": 37.758663853770805, "lng": 114.78135033134474}, "feature": {"sight_features": "", "sight_content": ""}}, {"title": "大观圣作之碑", "address": "河北石家庄市赵县石塔路87号（原赵州文庙遗址内）", "image": "", "rank": 5, "time": 2, "location": {"lat": 37.75367259870262, "lng": 114.78428593356487}, "feature": {"sight_features": "", "sight_content": ""}}, {"title": "旭海庄园冰雪嘉年华", "address": "石家庄市赵县县城东北旭海庄园", "image": "", "rank": 6, "time": 2, "location": {"lat": 37.78471454321024, "lng": 114.80973245113596}, "feature": {"sight_features": "", "sight_content": ""}}, {"title": "张北南泥河空中草原农家乐", "address": "草原天路83.5公里处", "image": "", "rank": 7, "time": 1.0, "location": {"lat": 41.20497212403336, "lng": 115.0360565942883}, "feature": {"sight_features": "", "sight_content": ""}}, {"title": "赵县美林果品专业合作社", "address": "谢庄乡林子村", "image": "", "rank": 8, "time": 0.75, "location": {"lat": 37.80532084138956, "lng": 114.9100712048199}, "feature": {"sight_features": "", "sight_content": ""}}, {"title": "赵县影剧院", "address": "永通路87号附近", "image": "", "rank": 9, "time": 0.75, "location": {"lat": 37.75943894450499, "lng": 114.7832499780067}, "feature": {"sight_features": "", "sight_content": ""}}, {"title": "忆童年儿童乐园", "address": "平棘大街妇幼保健院东行100米(郝家大厨对面)", "image": "", "rank": 10, "time": 2, "location": {"lat": 37.75701942895452, "lng": 114.78218557580792}, "feature": {"sight_features": "", "sight_content": ""}}, {"title": "民俗文化墙", "address": "石家庄市赵县城南2公里处(大石桥村附近)赵州桥景区内", "image": "", "rank": 11, "time": 2, "location": {"lat": 37.72829142167303, "lng": 114.77722478154438}, "feature": {"sight_features": "", "sight_content": ""}}, {"title": "魔方嬉水乐园", "address": "其他308国道机场路交口，赵州商贸城西侧", "image": "", "rank": 12, "time": 4.5, "location": {"lat": 37.781831786869155, "lng": 114.75944694450172}, "feature": {"sight_features": "", "sight_content": ""}}, {"title": "赵县海星水上乐园", "address": "赵州镇龙腾街冀通汽贸东南120米", "image": "", "rank": 13, "time": 0.75, "location": {"lat": 37.9135525099628, "lng": 114.65044730670101}, "feature": {"sight_features": "", "sight_content": ""}}, {"title": "赵县快乐小孩儿童乐园", "address": "河北省石家庄市赵县永通路驿里街综合市场内", "image": "", "rank": 14, "time": 0.75, "location": {"lat": 37.76031859270637, "lng": 114.78027351725873}, "feature": {"sight_features": "", "sight_content": ""}}, {"title": "龍祖殿", "address": "河北省石家庄市赵县范庄村商业大街88号", "image": "", "rank": 15, "time": 2, "location": {"lat": 37.78363471060577, "lng": 114.97360706986206}, "feature": {"sight_features": "", "sight_content": ""}}, {"title": "陈列室", "address": "石家庄市赵县赵州桥景区内", "image": "", "rank": 16, "time": 2, "location": {"lat": 37.72829142167303, "lng": 114.77722478154438}, "feature": {"sight_features": "", "sight_content": ""}}, {"title": "自强公园", "address": "自强路北50米", "image": "", "rank": 17, "time": 2, "location": {"lat": 39.7561525548909, "lng": 116.29274637938971}, "feature": {"sight_features": "", "sight_content": ""}}, {"title": "铁佛寺", "address": "河北省石家庄市赵县", "image": "", "rank": 18, "time": 1.5, "location": {"lat": 37.76185852288779, "lng": 114.78259655057873}, "feature": {"sight_features": "", "sight_content": ""}}, {"title": "灰兔子儿童乐园", "address": "赵州镇天阳超市对面", "image": "", "rank": 19, "time": 2, "location": {"lat": 37.75943862355814, "lng": 114.77670690033311}, "feature": {"sight_features": "", "sight_content": ""}}, {"title": "田庄天主堂", "address": "赵县镇州北街", "image": "", "rank": 20, "time": 2, "location": {"lat": 37.76185852288779, "lng": 114.78259655057873}, "feature": {"sight_features": "", "sight_content": ""}}, {"title": "海之蓝儿童游乐场", "address": "近郊石桥大街与建设路交口西行50米路南", "image": "", "rank": 21, "time": 2, "location": {"lat": 37.75669481944712, "lng": 114.78097960335569}, "feature": {"sight_features": "", "sight_content": ""}}, {"title": "童乐堡儿童游乐园", "address": "赵州镇柏林街森都花城西门对过", "image": "", "rank": 22, "time": 2, "location": {"lat": 37.77095569936867, "lng": 114.79173600156611}, "feature": {"sight_features": "", "sight_content": ""}}, {"title": "安济广场", "address": "河北省石家庄市赵县308国道路东", "image": "", "rank": 23, "time": 2, "location": {"lat": 37.73948849412714, "lng": 114.77771399064034}, "feature": {"sight_features": "", "sight_content": ""}}, {"title": "五一广场", "address": "府前街与永通路交叉口西北50米", "image": "", "rank": 24, "time": 1.5, "location": {"lat": 37.759239134849636, "lng": 114.7821492330619}, "feature": {"sight_features": "", "sight_content": ""}}, {"title": "赵县图书馆", "address": "永通路100号", "image": "", "rank": 25, "time": 1.5, "location": {"lat": 37.7591310131879, "lng": 114.78215970460923}, "feature": {"sight_features": "", "sight_content": ""}}, {"title": "赵县基地菜农贸批发市场(赵辛线)", "address": "安济大道东150米", "image": "", "rank": 26, "time": 0.75, "location": {"lat": 37.754867098832875, "lng": 114.77427425128327}, "feature": {"sight_features": "", "sight_content": ""}}, {"title": "奇诺游乐设备", "address": "赵州镇石塔学林雅园9号楼3单元301", "image": "", "rank": 27, "time": 2, "location": {"lat": 37.749154551714696, "lng": 114.78405692584631}, "feature": {"sight_features": "", "sight_content": ""}}, {"title": "全之画廊(赵州店)", "address": "赵州镇柏林街83号", "image": "", "rank": 28, "time": 2, "location": {"lat": 37.75800768590119, "lng": 114.78975397939058}, "feature": {"sight_features": "", "sight_content": ""}}]}