{"cityName": "肇州", "days": 2, "cityImage": "", "spots": [{"title": "青马湖垂钓园·渔家馆", "address": "203国道附近", "image": "", "rank": 1, "time": 2, "location": {"lat": 43.22021148148242, "lng": 123.55364319576223}, "feature": {"sight_features": "", "sight_content": ""}}, {"title": "极乐庵", "address": "黑龙江省大庆市肇州县南环东路150", "image": "", "rank": 2, "time": 2, "location": {"lat": 45.70611213656279, "lng": 125.28601079767066}, "feature": {"sight_features": "", "sight_content": ""}}, {"title": "140县道", "address": "黑龙江省大庆市肇州县", "image": "", "rank": 3, "time": 2, "location": {"lat": 45.70510798687091, "lng": 125.27536822480188}, "feature": {"sight_features": "", "sight_content": ""}}, {"title": "夏威夷啤酒广场", "address": "北四道街附近", "image": "", "rank": 4, "time": 2, "location": {"lat": 45.795560711541626, "lng": 126.68742401359356}, "feature": {"sight_features": "", "sight_content": ""}}, {"title": "基督教会", "address": "奋斗街62号附近", "image": "", "rank": 5, "time": 2, "location": {"lat": 45.71076251544923, "lng": 125.29687455701637}, "feature": {"sight_features": "", "sight_content": ""}}, {"title": "肇安休闲渔庄", "address": "305省道附近", "image": "", "rank": 6, "time": 2, "location": {"lat": 38.97180225572126, "lng": 112.6319987223776}, "feature": {"sight_features": "", "sight_content": ""}}, {"title": "儿童乐园", "address": "大庆路与富民街交叉口东南50米", "image": "", "rank": 7, "time": 2, "location": {"lat": 45.719198128405786, "lng": 125.27155687621801}, "feature": {"sight_features": "", "sight_content": ""}}, {"title": "文林村葡萄园区", "address": "宋朝路", "image": "", "rank": 8, "time": 2, "location": {"lat": 45.77007848766848, "lng": 125.60851075199565}, "feature": {"sight_features": "", "sight_content": ""}}, {"title": "肇州县图书馆", "address": "油田北路与德明街交叉口南", "image": "", "rank": 9, "time": 2, "location": {"lat": 45.71674186746895, "lng": 125.27873461571748}, "feature": {"sight_features": "", "sight_content": ""}}, {"title": "综艺美术社", "address": "八厂东街22号附近", "image": "", "rank": 10, "time": 2, "location": {"lat": 45.71472221259725, "lng": 125.28031892750137}, "feature": {"sight_features": "", "sight_content": ""}}, {"title": "得意楼大戏院", "address": "油田南路373G203", "image": "", "rank": 11, "time": 2, "location": {"lat": 45.703113106491614, "lng": 125.28089084897549}, "feature": {"sight_features": "", "sight_content": ""}}, {"title": "公园１号商业街", "address": "黑龙江省肇州县十厂路", "image": "", "rank": 12, "time": 2, "location": {"lat": 45.709918068554295, "lng": 125.28714855295469}, "feature": {"sight_features": "", "sight_content": ""}}, {"title": "蓝色沸点KTV(富民街店)", "address": "大庆市-肇州县-富民街15", "image": "", "rank": 13, "time": 2, "location": {"lat": 45.71967752921828, "lng": 125.27694282859811}, "feature": {"sight_features": "", "sight_content": ""}}, {"title": "老街基公园", "address": "黑龙江省大庆市肇州县南环东路", "image": "", "rank": 14, "time": 2, "location": {"lat": 45.706307406742546, "lng": 125.28802712898076}, "feature": {"sight_features": "", "sight_content": ""}}]}