{"cityName": "肇东", "days": 2, "cityImage": "", "spots": [{"title": "千鹤岛湿地公园", "address": "绥化市肇东市黎明镇", "image": "", "rank": 1, "time": 2, "location": {"lat": 45.87067663944851, "lng": 126.08660679104447}, "feature": {"sight_features": "", "sight_content": ""}}, {"title": "肇东植物园", "address": "民权北路", "image": "", "rank": 2, "time": 3.5, "location": {"lat": 30.36698132111171, "lng": 113.45406359745186}, "feature": {"sight_features": "", "sight_content": ""}}, {"title": "肇东市人民公园", "address": "绥化市肇东市九道街", "image": "", "rank": 3, "time": 2.5, "location": {"lat": 46.07605507059629, "lng": 126.00474073617227}, "feature": {"sight_features": "", "sight_content": ""}}, {"title": "肇东市国画院", "address": "正阳大街", "image": "", "rank": 4, "time": 0.75, "location": {"lat": 39.85467294655798, "lng": 116.2941080740004}, "feature": {"sight_features": "", "sight_content": ""}}, {"title": "肇东清真寺", "address": "黑龙江省绥化肇东市二合南路肇东清真寺", "image": "", "rank": 5, "time": 1.0, "location": {"lat": 46.07922924791114, "lng": 126.00587098416493}, "feature": {"sight_features": "", "sight_content": ""}}, {"title": "肇东水田农场", "address": "涝洲镇三星村", "image": "", "rank": 6, "time": 2, "location": {"lat": 45.75142624835666, "lng": 126.01369084412092}, "feature": {"sight_features": "", "sight_content": ""}}, {"title": "阳光农业相互保险公司(果园街)", "address": "富民南路与果园街交叉口西100米", "image": "", "rank": 7, "time": 2, "location": {"lat": 46.067197884267486, "lng": 125.98962275479542}, "feature": {"sight_features": "", "sight_content": ""}}, {"title": "奇门密室", "address": "办事处七道街南馨和家园B区(馨和家园售楼处南)", "image": "", "rank": 8, "time": null, "location": {"lat": 46.07022836717752, "lng": 126.0038089768668}, "feature": {"sight_features": "", "sight_content": ""}}, {"title": "东发基督教会", "address": "绥化市肇东市", "image": "", "rank": 9, "time": 2, "location": {"lat": 46.05693828930348, "lng": 125.96853740717}, "feature": {"sight_features": "", "sight_content": ""}}, {"title": "民俗博物馆", "address": "化成街与Z706交叉口西100米", "image": "", "rank": 10, "time": 1.5, "location": {"lat": 30.69203059119649, "lng": 104.03847693502593}, "feature": {"sight_features": "", "sight_content": ""}}, {"title": "孩儿乐主题乐园", "address": "黑龙江省绥化市肇东市六法北路", "image": "", "rank": 11, "time": 2, "location": {"lat": 46.08142323916489, "lng": 125.98993457909557}, "feature": {"sight_features": "", "sight_content": ""}}, {"title": "肇东市宝贝冲冲冲儿童乐园", "address": "花园街南建委20号楼", "image": "", "rank": 12, "time": 2, "location": {"lat": 39.90172144222096, "lng": 116.43721017280865}, "feature": {"sight_features": "", "sight_content": ""}}, {"title": "肇东影剧中心", "address": "人民东路与正阳大街交叉口东南150米", "image": "", "rank": 13, "time": 2, "location": {"lat": 46.06060548581353, "lng": 125.97134557487222}, "feature": {"sight_features": "", "sight_content": ""}}, {"title": "肇东市安提阿基督教会", "address": "黑龙江省绥化市肇东市五权南路育才幼儿园附近(法源寺附近)", "image": "", "rank": 14, "time": 2, "location": {"lat": 46.0684461622346, "lng": 126.0147848697405}, "feature": {"sight_features": "", "sight_content": ""}}, {"title": "水族馆", "address": "黑龙江省绥化市肇东市花园街", "image": "", "rank": 15, "time": 2.0, "location": {"lat": 46.0591816639294, "lng": 125.9825873365328}, "feature": {"sight_features": "", "sight_content": ""}}, {"title": "普济寺", "address": "四站镇八里城遗址附近", "image": "", "rank": 16, "time": 1.5, "location": {"lat": 45.6873771969808, "lng": 125.86615626068811}, "feature": {"sight_features": "", "sight_content": ""}}, {"title": "绿马射击场", "address": "绥化市肇东市八仙北路肇岳山北1.5公里处", "image": "", "rank": 17, "time": 2, "location": {"lat": 46.078163182958676, "lng": 125.99000117946609}, "feature": {"sight_features": "", "sight_content": ""}}, {"title": "人民广场游乐园", "address": "花园街与公园东路交口南40米", "image": "", "rank": 18, "time": 2, "location": {"lat": 40.48970743819924, "lng": 115.29226135748357}, "feature": {"sight_features": "", "sight_content": ""}}, {"title": "肇东市绿园农业生态种植园(西南...", "address": "绥满公路附近", "image": "", "rank": 19, "time": 2, "location": {"lat": 44.87386566950652, "lng": 129.02537537982238}, "feature": {"sight_features": "", "sight_content": ""}}, {"title": "肇东市图书馆", "address": "五权南路与正阳大街交叉口南50米", "image": "", "rank": 20, "time": 1.5, "location": {"lat": 46.077925524833894, "lng": 125.99797717749598}, "feature": {"sight_features": "", "sight_content": ""}}, {"title": "黑龙江省四方山农场", "address": "利民大街与四尚路交叉口西100米", "image": "", "rank": 21, "time": 2, "location": {"lat": 46.26638114660263, "lng": 125.81951245404865}, "feature": {"sight_features": "", "sight_content": ""}}, {"title": "华西钓鱼场", "address": "绥满公路附近", "image": "", "rank": 22, "time": 2, "location": {"lat": 44.87386566950652, "lng": 129.02537537982238}, "feature": {"sight_features": "", "sight_content": ""}}, {"title": "大拧向", "address": "绥化市-肇东市", "image": "", "rank": 23, "time": 2, "location": {"lat": 46.05693828930348, "lng": 125.96853740717}, "feature": {"sight_features": "", "sight_content": ""}}, {"title": "大牛甲", "address": "绥化市-肇东市", "image": "", "rank": 24, "time": 2, "location": {"lat": 46.05693828930348, "lng": 125.96853740717}, "feature": {"sight_features": "", "sight_content": ""}}, {"title": "万有村", "address": "绥化市-肇东市", "image": "", "rank": 25, "time": 2, "location": {"lat": 46.05693828930348, "lng": 125.96853740717}, "feature": {"sight_features": "", "sight_content": ""}}, {"title": "张维屯", "address": "绥化市-肇东市-农丰村", "image": "", "rank": 26, "time": 2, "location": {"lat": 45.759186574367426, "lng": 125.85353999907178}, "feature": {"sight_features": "", "sight_content": ""}}]}