{"cityName": "昭平", "days": 2, "cityImage": "", "spots": [{"title": "黄姚古镇", "address": "贺州市昭平县黄姚镇", "image": "", "rank": 1, "time": 0.75, "location": {"lat": 24.253529840979265, "lng": 111.21726122360025}, "feature": {"sight_features": "特色1 近千年历史的古镇 特色2 漫步青石板路、乘游船、听《临贺长歌》，在宁静古镇中收获闲适。 特色3 黄姚地处漓江下游，素有“诗境家园”之称", "sight_content": "‍\n【诗画黄姚】\n黄姚古镇位于广西贺州昭平县东北部，距离贺州市区40公里，距桂林200公里。黄姚古镇方圆3.6公里，属喀斯特地貌。发祥于宋朝年间，有着近1000年历史。黄姚古镇自然景观有八大景二十四小景；保存有寺观庙祠20多座，亭台楼阁10多处，多为明清建筑。比较广为人知的景点有广西省工委旧址，古戏台，安乐寺等。黄姚古镇2007年被国家文物局列为第三批“中国历史文化名镇”；2009年被国家旅游局批准为4A景区。\n来到黄姚古镇，遇见美好的黄姚情诗！黄姚带着水的灵韵、山的秀挺，拥有着小桥流水的江南雅致，也不乏别样多姿的民族风情；古典而不沉闷，活泼而不喧闹；你的美，如此丰盈，一见便已倾情，眼光，再无法移开如同歌里所唱“没有一点点防备 也没有一丝顾虑，你就这样出现 在我的世界里，带给我惊喜，情不自已......你存在，我深深的脑海里，我的心里，我的梦里，我的歌声里”。\n与你并肩行走于油亮泛光的青石板路，细数千年历史留下的痕迹，静谧安宁，拥有的是无人可打扰的幸福......华灯初上，远处几簇烟花灿然，恍惚间回到“月上柳梢头，人约黄昏后”的古代……\n走过许多地方的路，行过许多地方的桥，看过许多次数的云，喝多许多种类的酒。却只爱过一个正当最好年龄的人，遇见过一个最让我幸福的黄姚古镇......爱上，只需要一眼即可；忘记，却是一辈子都做不好的功课......愿在黄姚共白首，且无岁月可回头。\n\n黄姚古镇地处桂林漓江下游，素有“诗境家园”之称。黄姚是有着近千年历史的古镇，发祥于宋朝年间，兴建于明朝万历年间，鼎盛于清朝乾隆年间。由于镇上以黄、姚两姓居多，故名“黄姚”。现已被列为省级风景名胜区。全镇方圆3.6平方公里，为典型的喀斯特地貌，既有明清时期岭南风格建筑，又有奇石古榕点缀其间，更有小桥流水人家的意境。\n相传八仙云游到黄姚，被这里美景吸引，下凡到黄姚斗酒取乐，酒意浓浓之际，玉帝急令召回，着急中，铁拐李的酒壶被遗忘在黄姚的一座山上，后人就将这座山叫酒壶山，而从此古镇就流传了斗酒取乐的节日传统。\n镇内有“六多”，山水岩洞多、亭台楼阁多、寺观庙祠多、祠堂多、古树多、楹联匾额多。有山必有水，有水必有桥，有桥必有亭，有亭必有联，有联必有匾，构成古镇独特的风景。街道全部用黑色石板镶嵌而成，镇内建筑按九宫八卦阵式布局。房屋多为两层的砖瓦结构，建筑精美，工艺高超。\n【临贺长歌】\n“千年古镇聆听临贺长歌，名家名角演绎千年传奇”\n演出时间：晚上20:00-21:00（具体演出日期详情见订票选项）\n演出地点：黄姚大剧院（黄姚古镇内吴氏宗祠旁）\n《临贺长歌》简介：本剧根据《隋书·列女传》史实改编。\n讲述南陈末期隋朝初期发生在临贺郡潇贺古道上维护民族团结、国家统一的忠烈爱国故事：岭南酋帅钟士雄在潇贺古道一带，把握重兵，忠君爱民，保护一方平安效忠朝廷；\n而临贺郡东山垌垌主陈文豪（原南朝宋临庆国王刘氏后裔）隐姓埋名十多年想分裂疆土，自立为王，故设计两道道假圣旨逼迫钟士雄一起反叛朝廷；但酋帅钟士雄聪明睿智，在母亲蒋氏和未婚妻潘蝶花的帮助下，一举消灭了叛贼陈文豪，维护了国家统一。\n贺州景区分布图："}}, {"title": "带龙桥", "address": "贺州市昭平县黄姚镇黄姚街（黄姚古镇正门对面）", "image": "", "rank": 2, "time": 0.75, "location": {"lat": 24.25455439682415, "lng": 111.21397439380817}, "feature": {"sight_features": "", "sight_content": ""}}, {"title": "世外田园", "address": "贺州市昭平县黄姚笔头村白石寨和中洞村三宝山交界处", "image": "", "rank": 3, "time": 2, "location": {"lat": 24.210922652451423, "lng": 111.21049359111075}, "feature": {"sight_features": "", "sight_content": ""}}, {"title": "龙爪榕", "address": "贺州市昭平县黄姚古镇内", "image": "", "rank": 4, "time": 2, "location": {"lat": 24.25455439682415, "lng": 111.21397439380817}, "feature": {"sight_features": "", "sight_content": ""}}, {"title": "《临贺长歌》演出", "address": "贺州市昭平县黄姚镇黄姚大剧院（黄姚古镇内吴氏宗祠旁）", "image": "", "rank": 5, "time": 2, "location": {"lat": 24.25455439682415, "lng": 111.21397439380817}, "feature": {"sight_features": "", "sight_content": ""}}, {"title": "石跳桥", "address": "贺州市昭平县黄姚古镇内", "image": "", "rank": 6, "time": 0.75, "location": {"lat": 24.25455439682415, "lng": 111.21397439380817}, "feature": {"sight_features": "", "sight_content": ""}}, {"title": "黄姚仙女湖花海", "address": "贺州市昭平县黄姚镇罗望村周家水库旁", "image": "", "rank": 7, "time": 2, "location": {"lat": 24.246535449718056, "lng": 111.17505073881941}, "feature": {"sight_features": "特色1 有心形拱门、爱心笑脸、5000多个风车", "sight_content": "黄姚仙女湖花海是以“仙女临湖，凤吟花海”为主题打造的又一个新景区，景区占地总面积400多亩。\n整体空间格局以凤为形，景区建设有人行彩带、蓝色水带，乡村度假酒店区域及绿野仙踪景观区、儿童游憩区、青年爱情区、老年怡乐区及休闲农业体验区。现已种植孔雀草、洋凤仙、三色堇、角堇、石竹等七个品种的花卉约200万株。\n姚花海二期“彩凤”五一期间将带来丰富的玫瑰、向日葵、格桑花、鸢尾花、薰衣草、百日草、百合花，巴西野牡丹、泰国黄朱瑾等花卉品种，品种更丰富、颜色更艳丽、层次感更好。\n同时，还设计有心形拱门、LOVE的立体园林小品造型、爱心笑脸、绚丽的5000多个大小风车、卡通人物、百花仙子等，让游客嗨翻天。"}}, {"title": "迎秀街", "address": "贺州昭平县黄姚古镇中心街", "image": "", "rank": 8, "time": 0.75, "location": {"lat": 24.25455439682415, "lng": 111.21397439380817}, "feature": {"sight_features": "", "sight_content": ""}}, {"title": "桂江生态旅游景区", "address": "贺州市昭平县，上起文竹镇临江村，下至昭平镇富裕村下福电站", "image": "", "rank": 9, "time": 2, "location": {"lat": 24.077842298398263, "lng": 110.82740148324837}, "feature": {"sight_features": "", "sight_content": "桂江生态旅游景区位于贺州市昭平县，上起文竹镇临江村，下至昭平镇富裕村下福电站。全长约25公里，以昭平旅游集散中心为主，在珠江上游，犹如未曾被揭开面纱的香格里拉。\n桂江生态旅游景区是国家3A级景区，景区主要浏览节点包含宝塔公园、松林峡、临江新村、翡翠湾半岛。这里江水如青罗玉带，秀美天成，两岸青山黛绿，翠竹掩映，沿途自然景观异彩纷呈，与“高峡出平湖”的壮丽景观融为一体，蔚为壮观。\n流淌千年的古航道，从秦始皇开凿灵渠，沟通长江水系与珠江水系，桂江就成为一条黄金水道，溯源千年，无数文人墨客、达官贵人、商贾名士都曾在这条航道上行船，这段姿态万千，让神仙都留恋的生态秘境，不知让多少人为此倾情陶醉，流连忘返……"}}, {"title": "仙人古井", "address": "贺州市昭平县黄姚古镇内", "image": "", "rank": 10, "time": 0.75, "location": {"lat": 24.25455439682415, "lng": 111.21397439380817}, "feature": {"sight_features": "", "sight_content": ""}}, {"title": "古戏台", "address": "贺州市昭平县黄姚古镇景区门口处", "image": "", "rank": 11, "time": 0.75, "location": {"lat": 24.254312478165122, "lng": 111.20911494008571}, "feature": {"sight_features": "", "sight_content": ""}}, {"title": "司马第", "address": "贺州市昭平县黄姚古镇龙畔街", "image": "", "rank": 12, "time": 0.6, "location": {"lat": 24.25455439682415, "lng": 111.21397439380817}, "feature": {"sight_features": "", "sight_content": ""}}, {"title": "黄花山温泉漂流旅游景区", "address": "贺州市昭平县富罗镇黄花山温泉军事漂流景区", "image": "", "rank": 13, "time": 2, "location": {"lat": 24.01055031799676, "lng": 111.1501008925764}, "feature": {"sight_features": "", "sight_content": ""}}, {"title": "郭家大院", "address": "贺州市昭平县黄姚古镇西南角（毗邻太平门）", "image": "", "rank": 14, "time": 2, "location": {"lat": 24.25455439682415, "lng": 111.21397439380817}, "feature": {"sight_features": "", "sight_content": ""}}, {"title": "周家水库", "address": "贺州市昭平县周家水库", "image": "", "rank": 15, "time": 2, "location": {"lat": 24.246535449718056, "lng": 111.17505073881941}, "feature": {"sight_features": "", "sight_content": ""}}, {"title": "黄姚石板街", "address": "贺州市昭平县黄姚古镇内", "image": "", "rank": 16, "time": 2, "location": {"lat": 24.25455439682415, "lng": 111.21397439380817}, "feature": {"sight_features": "", "sight_content": ""}}, {"title": "文明阁", "address": "位于黄姚古镇景区内", "image": "", "rank": 17, "time": 2, "location": {"lat": 24.254312478165122, "lng": 111.20911494008571}, "feature": {"sight_features": "", "sight_content": ""}}, {"title": "南蛇出洞", "address": "贺州市昭平县黄姚古镇内", "image": "", "rank": 18, "time": 2, "location": {"lat": 24.25455439682415, "lng": 111.21397439380817}, "feature": {"sight_features": "", "sight_content": ""}}, {"title": "吴氏宗祠", "address": "贺州市昭平县黄姚古镇内", "image": "", "rank": 19, "time": 0.75, "location": {"lat": 24.25455439682415, "lng": 111.21397439380817}, "feature": {"sight_features": "", "sight_content": ""}}, {"title": "守望楼", "address": "贺州市昭平县黄姚古镇内（东门楼附近）", "image": "", "rank": 20, "time": 0.75, "location": {"lat": 24.25455439682415, "lng": 111.21397439380817}, "feature": {"sight_features": "", "sight_content": ""}}, {"title": "亦孔之固", "address": "贺州市昭平县黄姚古镇安乐街", "image": "", "rank": 21, "time": null, "location": {"lat": 24.25455439682415, "lng": 111.21397439380817}, "feature": {"sight_features": "", "sight_content": ""}}, {"title": "欧阳予倩故居", "address": "贺州市昭平县黄姚古镇迎秀街38号(近黄姚中学)", "image": "", "rank": 22, "time": 0.4, "location": {"lat": 24.25357050652217, "lng": 111.20943408108414}, "feature": {"sight_features": "", "sight_content": ""}}, {"title": "黄姚大剧院", "address": "贺州市昭平县黄姚古镇内", "image": "", "rank": 23, "time": 2, "location": {"lat": 24.25455439682415, "lng": 111.21397439380817}, "feature": {"sight_features": "", "sight_content": ""}}, {"title": "郭氏宗祠", "address": "贺州市昭平县黄姚古镇郭家大院边", "image": "", "rank": 24, "time": 2, "location": {"lat": 24.25455439682415, "lng": 111.21397439380817}, "feature": {"sight_features": "", "sight_content": ""}}, {"title": "农趣园（农事作坊）", "address": "贺州市昭平县黄姚古镇内", "image": "", "rank": 25, "time": 2, "location": {"lat": 24.25455439682415, "lng": 111.21397439380817}, "feature": {"sight_features": "", "sight_content": ""}}, {"title": "兴宁庙", "address": "黄姚古镇东侧", "image": "", "rank": 26, "time": 2, "location": {"lat": 24.25455439682415, "lng": 111.21397439380817}, "feature": {"sight_features": "", "sight_content": ""}}, {"title": "孔明岩", "address": "位于黄姚古镇8公里的中洞村三宝山的半山腰上", "image": "", "rank": 27, "time": 2, "location": {"lat": 24.25455439682415, "lng": 111.21397439380817}, "feature": {"sight_features": "", "sight_content": ""}}, {"title": "永安门", "address": "贺州市昭平县黄姚古镇内", "image": "", "rank": 28, "time": 0.75, "location": {"lat": 24.25455439682415, "lng": 111.21397439380817}, "feature": {"sight_features": "", "sight_content": ""}}, {"title": "新安门", "address": "贺州市昭平县黄姚古镇内", "image": "", "rank": 29, "time": 2, "location": {"lat": 24.25455439682415, "lng": 111.21397439380817}, "feature": {"sight_features": "", "sight_content": ""}}, {"title": "昇平门", "address": "贺州市昭平县黄姚古镇内", "image": "", "rank": 30, "time": 2, "location": {"lat": 24.25455439682415, "lng": 111.21397439380817}, "feature": {"sight_features": "", "sight_content": ""}}, {"title": "昭平县图书馆", "address": "兴隆街75号", "image": "", "rank": 31, "time": 2, "location": {"lat": 39.92088291763006, "lng": 116.53464823332287}, "feature": {"sight_features": "", "sight_content": ""}}, {"title": "富罗黄花山温泉", "address": "富罗镇黄花山", "image": "", "rank": 32, "time": 2, "location": {"lat": 24.01055031799676, "lng": 111.1501008925764}, "feature": {"sight_features": "", "sight_content": ""}}, {"title": "民富农机专业合作社", "address": "黄姚镇巩桥新市场", "image": "", "rank": 33, "time": 2, "location": {"lat": 24.253529840979265, "lng": 111.21726122360025}, "feature": {"sight_features": "", "sight_content": ""}}, {"title": "见龙祠", "address": "贺州市昭平县黄姚古镇内", "image": "", "rank": 34, "time": 2, "location": {"lat": 24.25455439682415, "lng": 111.21397439380817}, "feature": {"sight_features": "", "sight_content": ""}}, {"title": "南山茶海景区", "address": "贺州市昭平县城南，距县城3公里", "image": "", "rank": 35, "time": 2, "location": {"lat": 24.17510605063606, "lng": 110.81757491927796}, "feature": {"sight_features": "", "sight_content": "南山茶海景区位于昭平县城南，距县城3公里，它以旖旎的自然风光称绝，以盛产古今名茶闻名。景区高处海拔约1200米，群山环抱，常年云雾缭绕，登到高处观景平台，可俯瞰茶园，根据时节变化伴有野花、彩叶点缀，构建成的美景宛如画卷，令人流连忘返。"}}, {"title": "将军峰", "address": "广西壮族自治区贺州市昭平县南塘街178", "image": "", "rank": 36, "time": 2.0, "location": {"lat": 24.172940326177528, "lng": 110.81838804206937}, "feature": {"sight_features": "", "sight_content": ""}}, {"title": "天后宫", "address": "平安街107", "image": "", "rank": 37, "time": 1.5, "location": {"lat": 48.37316932473383, "lng": 134.2999163777372}, "feature": {"sight_features": "", "sight_content": ""}}, {"title": "昭平县基督教会", "address": "新民街199", "image": "", "rank": 38, "time": 2, "location": {"lat": 24.183605061859325, "lng": 110.81521226170268}, "feature": {"sight_features": "", "sight_content": ""}}, {"title": "金湖度假村", "address": "同古水库", "image": "", "rank": 39, "time": 2, "location": {"lat": 24.184311182430562, "lng": 110.79993458496725}, "feature": {"sight_features": "", "sight_content": ""}}, {"title": "车站广场", "address": "河东路与穗丰路交叉口西北100米", "image": "", "rank": 40, "time": 2, "location": {"lat": 24.172586909388524, "lng": 110.82951511077361}, "feature": {"sight_features": "", "sight_content": ""}}, {"title": "河东江滨公园", "address": "贺州市昭平县", "image": "", "rank": 41, "time": 2, "location": {"lat": 24.17510605063606, "lng": 110.81757491927796}, "feature": {"sight_features": "", "sight_content": ""}}, {"title": "江滨公园", "address": "207省道附近", "image": "", "rank": 42, "time": null, "location": {"lat": 41.663861161619536, "lng": 118.91663300242887}, "feature": {"sight_features": "", "sight_content": ""}}, {"title": "广西壮族自治区昭平县档案馆", "address": "东宁南路", "image": "", "rank": 43, "time": 2, "location": {"lat": 24.17433258553093, "lng": 110.81804635090775}, "feature": {"sight_features": "", "sight_content": ""}}, {"title": "桂东书画馆", "address": "南塘街132号", "image": "", "rank": 44, "time": 1.0, "location": {"lat": 31.121661069589983, "lng": 121.7611957939976}, "feature": {"sight_features": "", "sight_content": ""}}, {"title": "下白野生葡萄种植园", "address": "黄姚镇巩桥村", "image": "", "rank": 46, "time": 2, "location": {"lat": 24.22799200456813, "lng": 111.21041703122707}, "feature": {"sight_features": "", "sight_content": ""}}, {"title": "黄姚姚江竹筏漂流", "address": "贺州市昭平县黄姚镇S327(八黄路)旁姚江漂流度假区", "image": "", "rank": 47, "time": 2, "location": {"lat": 24.253529840979265, "lng": 111.21726122360025}, "feature": {"sight_features": "特色1 来姚江，看活山", "sight_content": "竹筏游乘坐人工划动的竹筏，飘荡在水天一色的青山绿水间，体验世外桃源般的自然山水意境，观赏大自然鬼斧神工般的活山景观：如来神脚山、骆驼山等景观。而竹筏漂从诗画田园码头出发，体验5个堤坝的过坝刺激，飘荡在水天一色的青山绿水间，体验世外桃源般的自然山水意境，观赏大自然鬼斧神工般的活山景观：下水牛山、笔头山、放牛娃山、如来神脚山、骆驼山等活山景观。"}}, {"title": "宁益玉雕艺术馆", "address": "南塘街170附近", "image": "", "rank": 48, "time": 2, "location": {"lat": 31.12125677184082, "lng": 121.76155917115265}, "feature": {"sight_features": "", "sight_content": ""}}, {"title": "圣旨府", "address": "广西壮族自治区贺州市昭平县X723", "image": "", "rank": 49, "time": 2, "location": {"lat": 24.17510605063606, "lng": 110.81757491927796}, "feature": {"sight_features": "", "sight_content": ""}}, {"title": "黄姚东潭岭", "address": "广西贺州昭平县黄姚镇", "image": "", "rank": 50, "time": 2, "location": {"lat": 24.253529840979265, "lng": 111.21726122360025}, "feature": {"sight_features": "", "sight_content": ""}}, {"title": "中共广西省工委旧址", "address": "贺州市昭平县黄姚古镇景区右侧", "image": "", "rank": 51, "time": 1.5, "location": {"lat": 24.254312478165122, "lng": 111.20911494008571}, "feature": {"sight_features": "", "sight_content": ""}}]}