{"cityName": "政和", "days": 2, "cityImage": "", "spots": [{"title": "东平农场", "address": "830县道附近", "image": "", "rank": 1, "time": 3.5, "location": {"lat": 27.643229511349542, "lng": 118.89937770501493}, "feature": {"sight_features": "", "sight_content": ""}}, {"title": "南平洞宫山", "address": "福建省政和县杨源乡 353606", "image": "", "rank": 2, "time": 1.0, "location": {"lat": 27.159864065607287, "lng": 119.02699386568771}, "feature": {"sight_features": "", "sight_content": ""}}, {"title": "松溪县博物馆", "address": "福建省松溪县解放街 353500", "image": "", "rank": 3, "time": 2, "location": {"lat": 27.530815069588847, "lng": 118.79679184462319}, "feature": {"sight_features": "", "sight_content": ""}}, {"title": "鲤鱼山庄", "address": "福建省南平市政和县X202", "image": "", "rank": 4, "time": 2, "location": {"lat": 27.37174919823424, "lng": 118.86358723723711}, "feature": {"sight_features": "", "sight_content": ""}}, {"title": "政和归峰寺", "address": "北大街天堂巷10号", "image": "", "rank": 5, "time": 2, "location": {"lat": 39.94562868910554, "lng": 116.35461906591577}, "feature": {"sight_features": "", "sight_content": ""}}, {"title": "报恩寺", "address": "福建省南平市政和县南大街", "image": "", "rank": 6, "time": 2, "location": {"lat": 27.361212770234047, "lng": 118.86748789265856}, "feature": {"sight_features": "", "sight_content": ""}}, {"title": "护国禅寺", "address": "福建省南平市政和县铁山镇凤林村", "image": "", "rank": 7, "time": 2, "location": {"lat": 27.393587607541775, "lng": 118.95634860245603}, "feature": {"sight_features": "", "sight_content": ""}}, {"title": "半岭庙", "address": "南平市政和县", "image": "", "rank": 8, "time": 0.4, "location": {"lat": 27.37174919823424, "lng": 118.86358723723711}, "feature": {"sight_features": "", "sight_content": ""}}, {"title": "政和广场", "address": "胜利(万得酒店前台)", "image": "", "rank": 9, "time": 0.75, "location": {"lat": 32.18867101815543, "lng": 116.54509365703015}, "feature": {"sight_features": "", "sight_content": ""}}, {"title": "雅格音乐厅", "address": "福建省南平市政和县为民路30号", "image": "", "rank": 10, "time": 2, "location": {"lat": 27.368527725548248, "lng": 118.85879133054473}, "feature": {"sight_features": "", "sight_content": ""}}, {"title": "中国第一楠木林", "address": "东平镇凤头村", "image": "", "rank": 11, "time": 2, "location": {"lat": 27.444850697044387, "lng": 118.62745577009653}, "feature": {"sight_features": "", "sight_content": ""}}, {"title": "宝贝乐园", "address": "外洋路15号-3(大樟树靠右下行一百米)", "image": "", "rank": 12, "time": 2, "location": {"lat": 29.91474968274074, "lng": 121.84696629170408}, "feature": {"sight_features": "", "sight_content": ""}}, {"title": "南平市林业技术开发试验区政和国...", "address": "302省道附近", "image": "", "rank": 13, "time": 6.0, "location": {"lat": 40.09862711264105, "lng": 117.61062300284506}, "feature": {"sight_features": "", "sight_content": ""}}, {"title": "牡丹园建材超市", "address": "西大街8号附近", "image": "", "rank": 14, "time": 2, "location": {"lat": 38.04826494372899, "lng": 114.52748418437514}, "feature": {"sight_features": "", "sight_content": ""}}, {"title": "政和县博物馆", "address": "中元路与文明路交叉口", "image": "", "rank": 15, "time": 2, "location": {"lat": 27.36692073283378, "lng": 118.87257984940624}, "feature": {"sight_features": "", "sight_content": ""}}, {"title": "杨源村", "address": "福建省政和县杨源村", "image": "", "rank": 16, "time": 2, "location": {"lat": 27.15503043967628, "lng": 119.02530315949811}, "feature": {"sight_features": "", "sight_content": ""}}]}