{"cityName": "正阳", "days": 2, "cityImage": "", "spots": [{"title": "正阳县图书馆", "address": "西大街83附近", "image": "", "rank": 1, "time": 2, "location": {"lat": 40.99638923467066, "lng": 117.92253249559582}, "feature": {"sight_features": "", "sight_content": ""}}, {"title": "十方禅院", "address": "万和世家附近", "image": "", "rank": 2, "time": 2.0, "location": {"lat": 36.76961898774933, "lng": 114.97381253838307}, "feature": {"sight_features": "", "sight_content": ""}}, {"title": "杨台寺遗址", "address": "河南省,驻马店市,驿城区诸市乡, 463000", "image": "", "rank": 3, "time": 2, "location": {"lat": 33.06401599901395, "lng": 113.9027087289802}, "feature": {"sight_features": "", "sight_content": ""}}, {"title": "中华第一龙图腾", "address": "河南濮阳县城西南隅西水坡 457100", "image": "", "rank": 4, "time": 2, "location": {"lat": 35.717888889374784, "lng": 115.03558408559006}, "feature": {"sight_features": "", "sight_content": ""}}, {"title": "片段主题乐园", "address": "东大街52号附近", "image": "", "rank": 5, "time": 2, "location": {"lat": 22.61729942596652, "lng": 114.14733751642652}, "feature": {"sight_features": "", "sight_content": ""}}, {"title": "东鲍祠堂", "address": "驻马店市正阳县", "image": "", "rank": 6, "time": 2, "location": {"lat": 32.6116410772727, "lng": 114.39949655906064}, "feature": {"sight_features": "", "sight_content": ""}}, {"title": "蓝宝童儿童乐园", "address": "好又多后门往西走50米二楼", "image": "", "rank": 7, "time": 2, "location": {"lat": 25.120921213781227, "lng": 99.17141362011381}, "feature": {"sight_features": "", "sight_content": ""}}, {"title": "南鲍祠堂", "address": "驻马店市正阳县二一九省道", "image": "", "rank": 8, "time": 2, "location": {"lat": 32.515208860760005, "lng": 114.47801016741319}, "feature": {"sight_features": "", "sight_content": ""}}, {"title": "刘祠堂", "address": "河南省驻马店市正阳县", "image": "", "rank": 9, "time": 1.0, "location": {"lat": 32.6116410772727, "lng": 114.39949655906064}, "feature": {"sight_features": "", "sight_content": ""}}, {"title": "海龙水上乐园", "address": "河南省驻马店市正阳县交警队车管所北2.5公里", "image": "", "rank": 10, "time": 2, "location": {"lat": 32.6116410772727, "lng": 114.39949655906064}, "feature": {"sight_features": "", "sight_content": ""}}, {"title": "正阳公园", "address": "河南省驻马店市正阳县南环城路", "image": "", "rank": 11, "time": 3.0, "location": {"lat": 32.60956038209585, "lng": 114.39477174156981}, "feature": {"sight_features": "", "sight_content": ""}}, {"title": "美.摩根保罗男人海洋", "address": "南环城路北150米", "image": "", "rank": 12, "time": 7.5, "location": {"lat": 37.789204658901916, "lng": 113.66764459602959}, "feature": {"sight_features": "", "sight_content": ""}}, {"title": "正阳县正阳步行街", "address": "河南省正阳县正大路附近", "image": "", "rank": 13, "time": 2, "location": {"lat": 32.60362407604232, "lng": 114.40722617434673}, "feature": {"sight_features": "", "sight_content": ""}}]}