{"cityName": "镇宁", "days": 2, "cityImage": "", "spots": [{"title": "银链坠潭瀑布", "address": "安顺市镇宁布依族苗族自治县黄果树瀑布天星桥景区内", "image": "", "rank": 1, "time": 2.0, "location": {"lat": 25.941048805209874, "lng": 105.68468920226275}, "feature": {"sight_features": "", "sight_content": ""}}, {"title": "天星索道-出口站", "address": "安顺市关岭布依族苗族自治县镇宁布依族苗族自治县黄果树大瀑布下游6公里处天星桥景区内", "image": "", "rank": 2, "time": 2, "location": {"lat": 25.941048805209874, "lng": 105.68468920226275}, "feature": {"sight_features": "", "sight_content": ""}}, {"title": "黄果树石翁寨农家乐", "address": "黄果树瀑布景区内三岔河附近", "image": "", "rank": 3, "time": 7.5, "location": {"lat": 25.986437254896597, "lng": 105.67412118860263}, "feature": {"sight_features": "", "sight_content": ""}}, {"title": "犀牛洞", "address": "贵州省镇宁布依族苗族自治县城东约1公里的东坡山", "image": "", "rank": 4, "time": null, "location": {"lat": 26.063829083031695, "lng": 105.77658344485114}, "feature": {"sight_features": "", "sight_content": ""}}, {"title": "郎宫景区", "address": "安顺市关岭布依族苗族自治县黄果树瀑布景区内", "image": "", "rank": 5, "time": 2, "location": {"lat": 25.986437254896597, "lng": 105.67412118860263}, "feature": {"sight_features": "", "sight_content": ""}}, {"title": "通和园农家乐", "address": "黄果树镇黄果树风景名胜区", "image": "", "rank": 6, "time": 2, "location": {"lat": 25.98605277186374, "lng": 105.68166102696588}, "feature": {"sight_features": "", "sight_content": ""}}, {"title": "祥德农家乐", "address": "黄果树镇黄果树风景名胜区福缘农家乐旁", "image": "", "rank": 7, "time": 2, "location": {"lat": 25.98605277186374, "lng": 105.68166102696588}, "feature": {"sight_features": "", "sight_content": ""}}, {"title": "锦源农家乐", "address": "黄果树镇黄果树风景名胜区", "image": "", "rank": 8, "time": 2, "location": {"lat": 25.98605277186374, "lng": 105.68166102696588}, "feature": {"sight_features": "", "sight_content": ""}}, {"title": "夜郎洞景区", "address": "贵州省镇宁布依族苗族自治县普里山 561200", "image": "", "rank": 9, "time": 2, "location": {"lat": 26.063829083031695, "lng": 105.77658344485114}, "feature": {"sight_features": "", "sight_content": ""}}, {"title": "环翠公园", "address": "安顺市镇宁布依族苗族自治县红星大道56号", "image": "", "rank": 10, "time": 1.0, "location": {"lat": 26.067509216220056, "lng": 105.77343803439713}, "feature": {"sight_features": "", "sight_content": ""}}, {"title": "儿童乐园", "address": "犀牛路与黄果树大道交叉口西50米", "image": "", "rank": 11, "time": 2, "location": {"lat": 26.06219202519884, "lng": 105.77464002466064}, "feature": {"sight_features": "", "sight_content": ""}}, {"title": "钟鼓楼遗址", "address": "安顺市镇宁布依族苗族自治县", "image": "", "rank": 12, "time": 2, "location": {"lat": 26.063829083031695, "lng": 105.77658344485114}, "feature": {"sight_features": "", "sight_content": ""}}, {"title": "环翠山念佛寺", "address": "北街与红星大道交叉口东150米", "image": "", "rank": 13, "time": 2, "location": {"lat": 28.019902913851706, "lng": 120.88962862065496}, "feature": {"sight_features": "", "sight_content": ""}}, {"title": "乖比兔亲子主题乐园", "address": "黄果树大道民族文化广场2楼(民族文化广场)", "image": "", "rank": 14, "time": 2, "location": {"lat": 26.062639416844547, "lng": 105.7758133275377}, "feature": {"sight_features": "", "sight_content": ""}}, {"title": "蓝宝亲子乐园", "address": "贵州省安顺市镇宁布依族苗族自治县G320(黄果树大道)", "image": "", "rank": 15, "time": 2, "location": {"lat": 26.060904756499713, "lng": 105.774777560624}, "feature": {"sight_features": "", "sight_content": ""}}, {"title": "吉姆考拉儿童成长主题乐园", "address": "李家井路黄果树双语艺术幼儿园东20米", "image": "", "rank": 16, "time": 2, "location": {"lat": 26.059795703612224, "lng": 105.77709106292178}, "feature": {"sight_features": "", "sight_content": ""}}, {"title": "桂家湖度假村", "address": "102省道附近", "image": "", "rank": 17, "time": 2, "location": {"lat": 36.224418920426714, "lng": 113.13112600949766}, "feature": {"sight_features": "", "sight_content": ""}}, {"title": "高荡千年布依古寨文化旅游景区", "address": "安顺市镇宁布依族苗族自治县高荡村", "image": "", "rank": 18, "time": 2, "location": {"lat": 26.078501216855365, "lng": 105.69992532787684}, "feature": {"sight_features": "特色1 原汁原味的布依族村寨", "sight_content": "高荡千年布依古寨文化旅游景区是一个原汁原味的布依族村寨，位于镇宁县城西南5.5公里处，海拔1186.20米，气候凉爽、四季分明。因寨子坐落在崇山峻岭之中，犹如群峰上托着一口锅，布依语称“瓮座”； 该村四面环山，一寨端坐，北向靠山有两处水荡，山高水高，故称“高荡”，村寨故此得名。古寨现遗存古民居多建于明清时期，距今200-600年不等，均为石木结构干栏式石板房，也是目前保存颇为完好的布依族村寨之一。"}}, {"title": "宋庆龄基金会镇宁儿童图书馆", "address": "李家井路", "image": "", "rank": 19, "time": 2, "location": {"lat": 26.05969214346758, "lng": 105.77745247188935}, "feature": {"sight_features": "", "sight_content": ""}}, {"title": "刘关堡生态自摘草莓园", "address": "新车站往工业园区前行300米", "image": "", "rank": 20, "time": 2, "location": {"lat": 36.0621419276125, "lng": 103.90084932558881}, "feature": {"sight_features": "", "sight_content": ""}}, {"title": "無麈仙居", "address": "十一村代家村水库老路口", "image": "", "rank": 21, "time": 2, "location": {"lat": 39.90900005921802, "lng": 122.49809697509677}, "feature": {"sight_features": "", "sight_content": ""}}, {"title": "贵州万通马姨妈纯菜籽油生产基地...", "address": "贵黄公路附近", "image": "", "rank": 22, "time": 2, "location": {"lat": 26.408604720595424, "lng": 106.24925171074776}, "feature": {"sight_features": "", "sight_content": ""}}, {"title": "黄果树6D生态科普体验馆", "address": "黄果树陡坡塘景区内", "image": "", "rank": 23, "time": 7.5, "location": {"lat": 26.001293812891845, "lng": 105.68344030248552}, "feature": {"sight_features": "", "sight_content": ""}}, {"title": "扁担山", "address": "贵州省镇宁布依族苗族自治县扁担山乡", "image": "", "rank": 24, "time": 2, "location": {"lat": 26.042816417722477, "lng": 105.64412717097355}, "feature": {"sight_features": "", "sight_content": ""}}, {"title": "安顺石博城国际会展中心", "address": "安顺市-镇宁布依族苗族自治县", "image": "", "rank": 25, "time": 7.5, "location": {"lat": 26.063829083031695, "lng": 105.77658344485114}, "feature": {"sight_features": "", "sight_content": ""}}, {"title": "美女榕", "address": "安顺市镇宁布依族苗族自治县黄果树大瀑布天星桥景区", "image": "", "rank": 26, "time": 2, "location": {"lat": 25.941048805209874, "lng": 105.68468920226275}, "feature": {"sight_features": "", "sight_content": ""}}, {"title": "冒水潭", "address": "安顺市镇宁布依族苗族自治县黄果树大瀑布景区内", "image": "", "rank": 27, "time": 2, "location": {"lat": 25.992831989699035, "lng": 105.67416080657051}, "feature": {"sight_features": "", "sight_content": ""}}, {"title": "数生步", "address": "安顺市镇宁布依族苗族自治县黄果树瀑布", "image": "", "rank": 28, "time": 2, "location": {"lat": 25.994862344451658, "lng": 105.67644880148335}, "feature": {"sight_features": "", "sight_content": ""}}]}