{"cityName": "镇平", "days": 2, "cityImage": "", "spots": [{"title": "彭雪枫纪念馆", "address": "南阳市镇平县建设东路378号", "image": "", "rank": 1, "time": 1.0, "location": {"lat": 33.04922207843038, "lng": 112.24749833904406}, "feature": {"sight_features": "", "sight_content": ""}}, {"title": "玉雕湾自然风景区", "address": "南阳市镇平县石佛寺镇", "image": "", "rank": 2, "time": 1.0, "location": {"lat": 33.10241438908425, "lng": 112.17332645771288}, "feature": {"sight_features": "", "sight_content": ""}}, {"title": "菩提寺游览区", "address": "南阳市镇平县枫林路82号", "image": "", "rank": 3, "time": 2, "location": {"lat": 33.13550544107826, "lng": 112.2852946242239}, "feature": {"sight_features": "", "sight_content": ""}}, {"title": "国际玉城水上乐园", "address": "石佛寺国际玉城", "image": "", "rank": 4, "time": 2, "location": {"lat": 33.073585625149775, "lng": 112.1627778986517}, "feature": {"sight_features": "", "sight_content": ""}}, {"title": "王岗乡砚台村蒙古族祠堂", "address": "府前东街北50米", "image": "", "rank": 5, "time": 2, "location": {"lat": 31.752793949120182, "lng": 120.5654756028422}, "feature": {"sight_features": "", "sight_content": ""}}, {"title": "玉文化博物馆", "address": "黄金大道", "image": "", "rank": 6, "time": 2, "location": {"lat": 24.686129439131896, "lng": 118.71197576975594}, "feature": {"sight_features": "", "sight_content": ""}}, {"title": "亚洲钓鱼俱乐部", "address": "新华路79号商城北门", "image": "", "rank": 7, "time": 2, "location": {"lat": 27.731352913421585, "lng": 109.20241496541036}, "feature": {"sight_features": "", "sight_content": ""}}, {"title": "金妞妞琴舞艺术中心", "address": "健康路74号", "image": "", "rank": 8, "time": 2, "location": {"lat": 41.13361363170815, "lng": 119.75382441434155}, "feature": {"sight_features": "", "sight_content": ""}}, {"title": "桂林垂钓园", "address": "207国道与312国道交叉口向南200米路东", "image": "", "rank": 9, "time": 3.0, "location": {"lat": 22.6280325385315, "lng": 114.04309373260644}, "feature": {"sight_features": "", "sight_content": ""}}, {"title": "镇平剧院", "address": "会展中心", "image": "", "rank": 10, "time": 2, "location": {"lat": 43.833522666072035, "lng": 125.29833098944424}, "feature": {"sight_features": "", "sight_content": ""}}, {"title": "豫园苗木基地(东南门)", "address": "248省道附近", "image": "", "rank": 11, "time": 2, "location": {"lat": 39.84675612061214, "lng": 115.2872916250802}, "feature": {"sight_features": "", "sight_content": ""}}, {"title": "臻田农场办公区", "address": "潦河镇臻田农庄西180米", "image": "", "rank": 12, "time": 2, "location": {"lat": 32.91910229676709, "lng": 112.44141291565126}, "feature": {"sight_features": "", "sight_content": ""}}, {"title": "福音堂(中医诊所)", "address": "建设东路229号附近", "image": "", "rank": 13, "time": 2, "location": {"lat": 27.650794605237333, "lng": 113.86849518228533}, "feature": {"sight_features": "", "sight_content": ""}}, {"title": "科迪食文化广场", "address": "河南省南阳市镇平县工业路331号", "image": "", "rank": 14, "time": 2, "location": {"lat": 33.03840013340094, "lng": 112.22816033038153}, "feature": {"sight_features": "", "sight_content": ""}}, {"title": "圣道堂", "address": "河南省南阳市镇平县校场路", "image": "", "rank": 15, "time": 2, "location": {"lat": 33.04894994442781, "lng": 112.2390980138303}, "feature": {"sight_features": "", "sight_content": ""}}, {"title": "赵营村文化广场", "address": "河南省南阳市镇平县贾宋镇赵营村", "image": "", "rank": 16, "time": 2, "location": {"lat": 32.94178106348518, "lng": 112.0690866731145}, "feature": {"sight_features": "", "sight_content": ""}}, {"title": "娃哈哈儿童乐园", "address": "河南省南阳市镇平县杏山大道", "image": "", "rank": 17, "time": 2, "location": {"lat": 33.05455765740789, "lng": 112.2279886534189}, "feature": {"sight_features": "", "sight_content": ""}}, {"title": "阳安寺", "address": "府前东街东100米", "image": "", "rank": 18, "time": 2, "location": {"lat": 31.752410139856185, "lng": 120.56637390835218}, "feature": {"sight_features": "", "sight_content": ""}}, {"title": "中原荷花博览园", "address": "河南省南阳市镇平县207国道东100米", "image": "", "rank": 19, "time": 2, "location": {"lat": 32.96143108120928, "lng": 112.17072270571762}, "feature": {"sight_features": "", "sight_content": ""}}, {"title": "欢乐豆儿童乐园", "address": "中山西街100第三小学附近", "image": "", "rank": 20, "time": 2, "location": {"lat": 33.64474256454146, "lng": 116.98517888745565}, "feature": {"sight_features": "", "sight_content": ""}}, {"title": "迎宾广场", "address": "312国道附近", "image": "", "rank": 21, "time": 0.35, "location": {"lat": 31.33241303413939, "lng": 120.99854638594724}, "feature": {"sight_features": "", "sight_content": ""}}, {"title": "维多利亚休闲广场", "address": "镇平县健康北路60号", "image": "", "rank": 22, "time": 2.0, "location": {"lat": 33.04614222073008, "lng": 112.23503709800967}, "feature": {"sight_features": "", "sight_content": ""}}, {"title": "树袋熊儿童动漫主题乐园", "address": "石佛寺润德姆超市二楼", "image": "", "rank": 23, "time": 2, "location": {"lat": 34.761883760486015, "lng": 113.48810831897444}, "feature": {"sight_features": "", "sight_content": ""}}, {"title": "金色童年儿童乐园", "address": "察院上街26号", "image": "", "rank": 24, "time": 2, "location": {"lat": 33.04290880731338, "lng": 112.24429123206829}, "feature": {"sight_features": "", "sight_content": ""}}, {"title": "大型豪华儿童游泳馆游乐场", "address": "河南省南阳市镇平县中山大街100号", "image": "", "rank": 25, "time": 2, "location": {"lat": 33.04178869734822, "lng": 112.24247144476618}, "feature": {"sight_features": "", "sight_content": ""}}, {"title": "玉鼎广场", "address": "校场路90号", "image": "", "rank": 26, "time": 2, "location": {"lat": 33.04456493066134, "lng": 112.2388191294949}, "feature": {"sight_features": "", "sight_content": ""}}, {"title": "梁堂奶奶庙", "address": "南阳市镇平县", "image": "", "rank": 27, "time": 2, "location": {"lat": 33.0397185292249, "lng": 112.24154448331042}, "feature": {"sight_features": "", "sight_content": ""}}, {"title": "新农村图书馆", "address": "312国道", "image": "", "rank": 28, "time": 2, "location": {"lat": 31.33241303413939, "lng": 120.99854638594724}, "feature": {"sight_features": "", "sight_content": ""}}, {"title": "神奇图书馆", "address": "杏山西路", "image": "", "rank": 29, "time": 2, "location": {"lat": 33.05461447299997, "lng": 112.23182993803387}, "feature": {"sight_features": "", "sight_content": ""}}, {"title": "东方威尼斯水上乐园", "address": "工业路218号", "image": "", "rank": 30, "time": 1.5, "location": {"lat": 28.512088971797724, "lng": 121.52373882383552}, "feature": {"sight_features": "", "sight_content": ""}}, {"title": "七色花美术培训", "address": "中山西街63附近", "image": "", "rank": 31, "time": 2, "location": {"lat": 33.644603129139156, "lng": 116.98575920718797}, "feature": {"sight_features": "", "sight_content": ""}}, {"title": "美加乐儿童成长主题乐园", "address": "广场南(贾宋镇政府广场)", "image": "", "rank": 32, "time": 2, "location": {"lat": 39.448023641909764, "lng": 114.24062946624731}, "feature": {"sight_features": "", "sight_content": ""}}, {"title": "迪乐尼儿童成长主题乐园", "address": "工业园路东50米", "image": "", "rank": 33, "time": 2, "location": {"lat": 40.12397978337762, "lng": 124.31498866126313}, "feature": {"sight_features": "", "sight_content": ""}}, {"title": "李寨都市农业生态园", "address": "207国道", "image": "", "rank": 34, "time": 2, "location": {"lat": 38.67484937592033, "lng": 114.04837902844483}, "feature": {"sight_features": "", "sight_content": ""}}, {"title": "时宝升戏曲歌舞团", "address": "城皇庙下街附近", "image": "", "rank": 35, "time": 2, "location": {"lat": 33.039711506232145, "lng": 112.2426094235942}, "feature": {"sight_features": "", "sight_content": ""}}, {"title": "李金泽戏曲歌舞团", "address": "城皇庙下街", "image": "", "rank": 36, "time": 2, "location": {"lat": 33.039711506232145, "lng": 112.2426094235942}, "feature": {"sight_features": "", "sight_content": ""}}, {"title": "人民同康", "address": "石佛寺中心街1号", "image": "", "rank": 37, "time": 2, "location": {"lat": 34.05101708437307, "lng": 108.72363056621681}, "feature": {"sight_features": "", "sight_content": ""}}, {"title": "人民同康", "address": "侯集镇万家乐超市一楼", "image": "", "rank": 38, "time": 2, "location": {"lat": 32.945198668578826, "lng": 112.22774743413522}, "feature": {"sight_features": "", "sight_content": ""}}, {"title": "南阳菩提寺", "address": "河南省镇平县老庄镇", "image": "", "rank": 39, "time": 2.0, "location": {"lat": 33.1692698682771, "lng": 112.29660840124052}, "feature": {"sight_features": "", "sight_content": ""}}, {"title": "镇平县时尚女人街", "address": "河南省镇平县府前街", "image": "", "rank": 40, "time": 2, "location": {"lat": 33.07986797840694, "lng": 112.17026907311305}, "feature": {"sight_features": "", "sight_content": ""}}, {"title": "公园商业街", "address": "河南省镇平县校场南路附近", "image": "", "rank": 41, "time": 2, "location": {"lat": 33.04045321231784, "lng": 112.24009702028624}, "feature": {"sight_features": "", "sight_content": ""}}, {"title": "镇平县王府步行街", "address": "河南省镇平县207国道", "image": "", "rank": 42, "time": 2, "location": {"lat": 32.96143108120928, "lng": 112.16982440020764}, "feature": {"sight_features": "", "sight_content": ""}}, {"title": "贾宋少年宫", "address": "南阳市-镇平县", "image": "", "rank": 43, "time": 2, "location": {"lat": 33.0397185292249, "lng": 112.24154448331042}, "feature": {"sight_features": "", "sight_content": ""}}, {"title": "石佛寺", "address": "南阳镇平西北约10公里处石佛寺", "image": "", "rank": 44, "time": 1.5, "location": {"lat": 33.069593042559724, "lng": 112.17110089233732}, "feature": {"sight_features": "", "sight_content": ""}}, {"title": "鳌园寺", "address": "河南南阳镇平县遮山镇", "image": "", "rank": 45, "time": 2, "location": {"lat": 33.04146888818182, "lng": 112.2363274213493}, "feature": {"sight_features": "", "sight_content": ""}}]}