{"cityName": "正蓝旗", "days": 2, "cityImage": "", "spots": [{"title": "元上都遗址", "address": "锡林郭勒盟正蓝旗上都镇东北约20公里的闪电河北岸", "image": "", "rank": 1, "time": 2.0, "location": {"lat": 42.24618810906851, "lng": 115.99404775374008}, "feature": {"sight_features": "", "sight_content": ""}}, {"title": "金莲川", "address": "锡林郭勒盟正蓝旗", "image": "", "rank": 2, "time": 1.0, "location": {"lat": 42.24711884418806, "lng": 115.99860388382902}, "feature": {"sight_features": "", "sight_content": ""}}, {"title": "小扎格斯台淖尔", "address": "锡林郭勒盟正蓝旗", "image": "", "rank": 3, "time": 2, "location": {"lat": 42.24711884418806, "lng": 115.99860388382902}, "feature": {"sight_features": "", "sight_content": ""}}, {"title": "元上都遗址博物馆", "address": "锡林郭勒盟正蓝旗，517县道旁", "image": "", "rank": 4, "time": 2, "location": {"lat": 42.32638975959598, "lng": 116.18701879335825}, "feature": {"sight_features": "", "sight_content": ""}}, {"title": "敖包希热公园", "address": "锡林郭勒盟正蓝旗上都镇", "image": "", "rank": 5, "time": 2, "location": {"lat": 42.24618810906851, "lng": 115.99404775374008}, "feature": {"sight_features": "", "sight_content": ""}}, {"title": "正蓝旗蟹岛度假村", "address": "正蓝旗五一牧场四分场内", "image": "", "rank": 6, "time": 2, "location": {"lat": 42.24711884418806, "lng": 115.99860388382902}, "feature": {"sight_features": "", "sight_content": ""}}, {"title": "正蓝旗上都镇皇家元都牧场度假村", "address": "圣元街正蓝旗牡都蒙古包有限责任公司东北侧", "image": "", "rank": 7, "time": 2, "location": {"lat": 42.2419039059013, "lng": 115.9893722298658}, "feature": {"sight_features": "", "sight_content": ""}}, {"title": "神骏剧场", "address": "五一种蓄场六分场", "image": "", "rank": 8, "time": 2, "location": {"lat": 43.81468558016749, "lng": 122.49247606641904}, "feature": {"sight_features": "", "sight_content": ""}}, {"title": "慧温高勒", "address": "内蒙古自治区锡林郭勒盟多伦县", "image": "", "rank": 9, "time": 2, "location": {"lat": 42.20892086421072, "lng": 116.49250878203628}, "feature": {"sight_features": "", "sight_content": ""}}, {"title": "锡林郭勒游牧部落度假村", "address": "正蓝旗锡林郭勒盟正蓝旗五一总畜场北1.5公里", "image": "", "rank": 10, "time": 2, "location": {"lat": 42.24711884418806, "lng": 115.99860388382902}, "feature": {"sight_features": "", "sight_content": ""}}, {"title": "草原风情度假村", "address": "207国道附近", "image": "", "rank": 11, "time": 2, "location": {"lat": 38.67484937592033, "lng": 114.04837902844483}, "feature": {"sight_features": "", "sight_content": ""}}, {"title": "大汗故居", "address": "广场北街与腾飞路交叉口西北50米", "image": "", "rank": 12, "time": 2, "location": {"lat": 42.24565017132346, "lng": 115.99633993835054}, "feature": {"sight_features": "", "sight_content": ""}}, {"title": "巴彦门都音敖包", "address": "锡林郭勒盟正蓝旗", "image": "", "rank": 13, "time": 2, "location": {"lat": 42.24711884418806, "lng": 115.99860388382902}, "feature": {"sight_features": "", "sight_content": ""}}, {"title": "包恩罕", "address": "内蒙古自治区锡林郭勒盟正蓝旗", "image": "", "rank": 14, "time": 2, "location": {"lat": 42.24711884418806, "lng": 115.99860388382902}, "feature": {"sight_features": "", "sight_content": ""}}, {"title": "正蓝旗巴音特古日歌休闲旅游度假...", "address": "元上都遗址北15公里处五一牧畜场北7公里处路西(近308乡道)", "image": "", "rank": 15, "time": 2, "location": {"lat": 42.44835249718372, "lng": 116.19914261287697}, "feature": {"sight_features": "", "sight_content": ""}}, {"title": "蓝色的故乡度假村", "address": "正蓝旗五一种畜场卫生院北3公里处", "image": "", "rank": 16, "time": 2, "location": {"lat": 42.41873152455232, "lng": 116.22324206474259}, "feature": {"sight_features": "", "sight_content": ""}}, {"title": "元上都博物馆", "address": "上都镇忽必烈广场对面", "image": "", "rank": 17, "time": 2, "location": {"lat": 42.246687031357794, "lng": 116.00008233120684}, "feature": {"sight_features": "", "sight_content": ""}}, {"title": "华阳电玩", "address": "琉璃河镇车站前街（近火车站）", "image": "", "rank": 18, "time": 2, "location": {"lat": 39.607339201468676, "lng": 116.04835904975458}, "feature": {"sight_features": "", "sight_content": ""}}, {"title": "正蓝旗有机设施农业示范园区", "address": "S308乌兰村西南420米", "image": "", "rank": 19, "time": 2, "location": {"lat": 40.16396318858079, "lng": 109.65439653264536}, "feature": {"sight_features": "", "sight_content": ""}}, {"title": "金莲川草原", "address": "内蒙古自治区正蓝旗上都镇", "image": "", "rank": 20, "time": 3.0, "location": {"lat": 42.24618810906851, "lng": 115.99404775374008}, "feature": {"sight_features": "", "sight_content": ""}}, {"title": "哈登阿玛", "address": "锡林郭勒盟-正蓝旗", "image": "", "rank": 21, "time": 2, "location": {"lat": 42.24711884418806, "lng": 115.99860388382902}, "feature": {"sight_features": "", "sight_content": ""}}, {"title": "哈登胡舒苏木", "address": "锡林郭勒盟-正蓝旗", "image": "", "rank": 22, "time": 2, "location": {"lat": 42.24711884418806, "lng": 115.99860388382902}, "feature": {"sight_features": "", "sight_content": ""}}, {"title": "哈登胡舒", "address": "锡林郭勒盟-正蓝旗", "image": "", "rank": 23, "time": 2, "location": {"lat": 42.24711884418806, "lng": 115.99860388382902}, "feature": {"sight_features": "", "sight_content": ""}}, {"title": "蒙古汗金帐大营旅游度假村", "address": "锡林郭勒盟-正蓝旗-五一种畜场一分场额吉敖包组", "image": "", "rank": 24, "time": 2, "location": {"lat": 42.458486800797075, "lng": 116.30162237893033}, "feature": {"sight_features": "", "sight_content": ""}}, {"title": "上都湖", "address": "内蒙古锡林郭勒盟正蓝旗上都湖原生态旅游牧场", "image": "", "rank": 25, "time": 2, "location": {"lat": 42.24711884418806, "lng": 115.99860388382902}, "feature": {"sight_features": "", "sight_content": ""}}]}