{"cityName": "正安", "days": 2, "cityImage": "", "spots": [{"title": "正安水车坝水上乐园", "address": "遵义市正安县瑞溪镇水车坝", "image": "", "rank": 1, "time": 2, "location": {"lat": 28.57386876404784, "lng": 107.36555626599217}, "feature": {"sight_features": "", "sight_content": "水车坝水上乐园拥有20项老少皆宜的水上游乐设施，如人工海浪海啸池、大喇叭滑道、合家欢水寨、七彩滑梯、尖峰滑道勇士滑道、亲子戏水区、SPA水疗池等。"}}, {"title": "天楼山", "address": "遵义市正安县", "image": "", "rank": 2, "time": 2, "location": {"lat": 28.559091728779737, "lng": 107.46057489060091}, "feature": {"sight_features": "", "sight_content": ""}}, {"title": "正安桃花源记景区", "address": "遵义市正安县市坪乡龙坪村", "image": "", "rank": 3, "time": 1.0, "location": {"lat": 28.254698411853635, "lng": 107.60565642890839}, "feature": {"sight_features": "", "sight_content": ""}}, {"title": "桃花山公园", "address": "遵义市正安县珍州东路与迎宾大道交叉口西南150米", "image": "", "rank": 4, "time": 2, "location": {"lat": 28.554703346069324, "lng": 107.46231404869478}, "feature": {"sight_features": "", "sight_content": ""}}, {"title": "正安县大坎休闲山庄", "address": "207省道附近", "image": "", "rank": 5, "time": 2, "location": {"lat": 41.663861161619536, "lng": 118.91663300242887}, "feature": {"sight_features": "", "sight_content": ""}}, {"title": "小雅星秀坪烤烟专业合作社", "address": "303省道东50米", "image": "", "rank": 6, "time": 2, "location": {"lat": 38.25466494631471, "lng": 114.6677178284018}, "feature": {"sight_features": "", "sight_content": ""}}, {"title": "骆家祠堂", "address": "贵州省遵义市正安县", "image": "", "rank": 7, "time": 2, "location": {"lat": 28.559091728779737, "lng": 107.46057489060091}, "feature": {"sight_features": "", "sight_content": ""}}, {"title": "正安县档案馆", "address": "尹珍南路", "image": "", "rank": 8, "time": 2, "location": {"lat": 28.554644059583058, "lng": 107.4512088366619}, "feature": {"sight_features": "", "sight_content": ""}}, {"title": "汉风画廊", "address": "尹珍北路", "image": "", "rank": 9, "time": 2, "location": {"lat": 28.563028909060918, "lng": 107.44386924766455}, "feature": {"sight_features": "", "sight_content": ""}}, {"title": "正安县图书馆", "address": "万寿巷", "image": "", "rank": 10, "time": 2, "location": {"lat": 36.09305117190096, "lng": 111.52370082665627}, "feature": {"sight_features": "", "sight_content": ""}}, {"title": "石板渡清水鱼休闲山庄", "address": "303省道附近", "image": "", "rank": 11, "time": 2, "location": {"lat": 38.25466494631471, "lng": 114.66726867564682}, "feature": {"sight_features": "", "sight_content": ""}}, {"title": "九道水森林公园", "address": "贵州省正安县扶焉乡", "image": "", "rank": 12, "time": 2, "location": {"lat": 28.559091728779737, "lng": 107.46057489060091}, "feature": {"sight_features": "", "sight_content": ""}}, {"title": "正安新天广场", "address": "贵州省正安县珍州东路", "image": "", "rank": 13, "time": 2, "location": {"lat": 28.55582282832608, "lng": 107.45723606329268}, "feature": {"sight_features": "", "sight_content": ""}}, {"title": "蚂蟥洞", "address": "遵义市-正安县", "image": "", "rank": 14, "time": 2, "location": {"lat": 28.559091728779737, "lng": 107.46057489060091}, "feature": {"sight_features": "", "sight_content": ""}}, {"title": "蚂蟥咀", "address": "遵义市-正安县", "image": "", "rank": 15, "time": 2, "location": {"lat": 28.559091728779737, "lng": 107.46057489060091}, "feature": {"sight_features": "", "sight_content": ""}}, {"title": "马到子", "address": "遵义市-正安县", "image": "", "rank": 16, "time": 2, "location": {"lat": 28.559091728779737, "lng": 107.46057489060091}, "feature": {"sight_features": "", "sight_content": ""}}, {"title": "猴儿爬背", "address": "遵义市-正安县", "image": "", "rank": 17, "time": 2, "location": {"lat": 28.559091728779737, "lng": 107.46057489060091}, "feature": {"sight_features": "", "sight_content": ""}}, {"title": "花门矸", "address": "遵义市-正安县", "image": "", "rank": 18, "time": 2, "location": {"lat": 28.559091728779737, "lng": 107.46057489060091}, "feature": {"sight_features": "", "sight_content": ""}}, {"title": "赵家山茶旅基地", "address": "遵义市-正安县-328县道附近", "image": "", "rank": 19, "time": 2, "location": {"lat": 28.54427229932706, "lng": 107.62104603091713}, "feature": {"sight_features": "", "sight_content": ""}}]}