{"cityName": "正宁", "days": 2, "cityImage": "", "spots": [{"title": "正宁县人民广场", "address": "甘肃省庆阳市正宁县南环路", "image": "", "rank": 1, "time": 0.25, "location": {"lat": 35.49243069330503, "lng": 108.3724375330229}, "feature": {"sight_features": "", "sight_content": ""}}, {"title": "天下画廊", "address": "南二环与南环路交叉口东北200米", "image": "", "rank": 2, "time": 2, "location": {"lat": 35.49239527808657, "lng": 108.37372600585317}, "feature": {"sight_features": "", "sight_content": ""}}, {"title": "大风车儿童乐园", "address": "211国道附近", "image": "", "rank": 3, "time": 2, "location": {"lat": 37.471036550412045, "lng": 106.6767897543686}, "feature": {"sight_features": "", "sight_content": ""}}, {"title": "轩辕书画院", "address": "南环路4号", "image": "", "rank": 4, "time": 2, "location": {"lat": 42.2900991951358, "lng": 123.84058320979483}, "feature": {"sight_features": "", "sight_content": ""}}, {"title": "明赵氏石坊", "address": "甘肃省正宁县罗川乡罗川街 745304", "image": "", "rank": 5, "time": 2, "location": {"lat": 35.49821878089757, "lng": 108.36637461671222}, "feature": {"sight_features": "", "sight_content": ""}}, {"title": "双佛堂村农民文化广场", "address": "双佛堂村附近", "image": "", "rank": 6, "time": 2, "location": {"lat": 35.35994991954081, "lng": 108.38896691764405}, "feature": {"sight_features": "", "sight_content": ""}}, {"title": "黄帝冢", "address": "甘肃省庆阳市正宁县S303", "image": "", "rank": 7, "time": 2, "location": {"lat": 35.49821878089757, "lng": 108.36637461671222}, "feature": {"sight_features": "", "sight_content": ""}}, {"title": "调令关森林公园", "address": "林业总场中湾林场", "image": "", "rank": 8, "time": 2, "location": {"lat": 36.01990669853675, "lng": 106.29625741643883}, "feature": {"sight_features": "", "sight_content": ""}}, {"title": "糖果儿童乐园", "address": "甘肃省庆阳市正宁县永正路", "image": "", "rank": 9, "time": 2, "location": {"lat": 35.49365937044566, "lng": 108.37084781613478}, "feature": {"sight_features": "", "sight_content": ""}}, {"title": "宫河休闲广场", "address": "211国道康复牙科附近", "image": "", "rank": 10, "time": 2, "location": {"lat": 39.997330357615915, "lng": 112.4722926319807}, "feature": {"sight_features": "", "sight_content": ""}}, {"title": "锦照源农家乐", "address": "303省道附近", "image": "", "rank": 11, "time": 2, "location": {"lat": 38.25466494631471, "lng": 114.66726867564682}, "feature": {"sight_features": "", "sight_content": ""}}]}