{"cityName": "镇远", "days": 2, "cityImage": "", "spots": [{"title": "镇远古城", "address": "黔东南苗族侗族自治州镇远县兴隆街21号", "image": "", "rank": 1, "time": 4.0, "location": {"lat": 27.05481989859542, "lng": 108.43374597735763}, "feature": {"sight_features": "", "sight_content": ""}}, {"title": "青龙洞", "address": "黔东南苗族侗族自治州镇远县东峡街", "image": "", "rank": 2, "time": 2.5, "location": {"lat": 27.056733366719886, "lng": 108.44002067547837}, "feature": {"sight_features": "特色1 青龙洞古建筑群至今已有500多年的历史 特色2 山势挺拔，峭壁悬崖;巨岩、洞穴融为一体。 特色3 集儒、道、佛、会馆、桥梁及绎道建筑文化于一身。", "sight_content": "1981年9月16日，县人民政府公布为第一批县级文物保护单位。1982年2月23日，省人民政府公布为省级文物保护单位。1988年1月13日，国务院公布为全国重点文物保护单位。2004年7月， 联合国教科文组织将青龙洞古建筑群确定为“世界贴崖古建筑园林”。\n青龙洞古建筑群是镇远旅游观赏价值的名胜古迹，是贵州古建筑规模大、构造精巧、融佛教经殿、道教庙堂、儒家书院、会馆为一体的佛、道、儒、俗古建筑群落。它位于镇远城 东的中和山，距县城中心仅0.5公里，占地面积21200平方米，建筑面积6600平方米。它建筑在高80米、长300米的中河山悬崖地带和溶岩奇石之中，由祝圣桥、中元禅院、紫阳书院、青龙洞、 万寿宫、香炉岩等6个古建筑群、35个单体建筑组成，它既有园林韵味，又具有寺院风格。\n青龙洞古建筑群始建于明洪武二十一年（1388年），迄今已有六百多年的历史了。这片建筑群的总体特点是：依山而立,贴壁凌空。这里山势挺拔，峭壁悬崖。巨岩、洞穴合为一体。道、 儒、佛三种宗教的寺庙群生山腰。它背靠青山，面临绿水，贴壁临空，五步一楼，十步一阁，翘翼飞檐、雕梁画栋。这些古建筑依山因地，分别采用了“吊”、“借”、“附”、“嵌”、“ 筑”等多种工艺，硬是在一段悬崖上筑出中元洞、紫阳洞、青龙洞、万寿宫等一片阁楼洞天。\n它气势雄伟、构思大胆、布局精巧。使其呈现出洞中建楼、楼中藏洞，欲露先藏、欲扬先抑、底层吊脚、阁楼悬空的独特风格，同时是一处全国独有的中原建筑形式与贵州苗侗吊脚干栏式 建筑巧妙结合的建筑群。整个建筑群与石崖、洞穴、古木、藤萝融为一体,真是巧夺天工。集佛教、道教、儒家文化遗址于一山,错杂而不乱,有层次而又各自独立,是将建筑艺术、雕刻艺术与 自然风光完美结合的艺术珍品。"}}, {"title": "祝圣桥", "address": "贵州省镇远县城东中河山", "image": "", "rank": 3, "time": 0.5, "location": {"lat": 27.054820913900503, "lng": 108.43658077263082}, "feature": {"sight_features": "", "sight_content": ""}}, {"title": "和平村", "address": "黔东南苗族侗族自治州镇远县和平街", "image": "", "rank": 4, "time": 2.0, "location": {"lat": 27.05345756378207, "lng": 108.42695241438129}, "feature": {"sight_features": "", "sight_content": ""}}, {"title": "舞阳河风景名胜区", "address": "黔东南苗族侗族自治州镇远县小田溪村", "image": "", "rank": 5, "time": 3.5, "location": {"lat": 27.063721498662318, "lng": 108.40243693029294}, "feature": {"sight_features": "特色1 乘船顺流而下，峡谷中空气清新，两岸奇峰林立，令人心旷神怡。", "sight_content": "风景名胜区——舞阳河，位于历史文化名城镇远县城西17公里的群山峻岭中。由龙王峡、诸葛峡、西峡组成，有小三峡之美称， 1988年即被列入国家级风景名胜区的舞阳河风景区。\n景区以高峡平湖、瀑泉飞流、喀斯特为主体；山色水韵风光迷人。“破镜重圆”半含水中半露峥嵘；鸳鸯夫妻结队戏水，情深意浓；奇妙的三叠水、珠落玉盘直泻深潭；喊泉神灵有喊必应，呼之水出、止呼水隐；石峰神形如“孔雀开屏 ”、形态逼真；“大圣师徒”前往探幽，忙里偷闲，整个景区一湾一画，一步一景，令游人忘返流连......\n神秘的下舞阳，不是天堂胜似天堂。鲜明的个性特征之所撼动人心，主要在于下舞阳具有长江三峡之雄；蜀地蛾眉之秀；桂林漓江之美；阳朔胜景之幽而名冠天下。\n凡游览过下舞阳的客人，无不恭维赞誉其幽谷、山色、水景为天下绝色、叹为观止。清代爱国将领林则徐曾在此留下著名诗章：\n两山夹溪溪水恶，一经秋烟凿山脚。\n行人在山影在溪，此身未坠胆已破 。"}}, {"title": "铁溪自然风景区", "address": "黔东南苗族侗族自治州镇远县城北部", "image": "", "rank": 6, "time": 2.5, "location": {"lat": 27.054820913900503, "lng": 108.43658077263082}, "feature": {"sight_features": "特色1 国家重点风景名胜区舞阳河十大景区之一，被誉为 “云贵高原小九寨”。", "sight_content": "铁溪又名铁山溪，是国家重点风景名胜区氵舞阳河十大景区之一，位于镇远县城北面4—14公里，总面积50平方公里，全长21公里，其中核心景区游览线路全长12公里，整个铁溪景区分别由甘溪、马路河、龙池、龙塘河、翁仲河5个地段组成。\n景区内峡谷幽深，河床狭窄，河水湍急，岸壁陡峭，茂林覆盖，石巨、浅滩，溶洞星落棋布，还有名闻遐迩的“龙池”，龙池面积300平方米，水呈蓝色，深不可测，有绝壁奇峰崖台多处，小桥流水“桃花源”似的田园村庄显现其间，人与自然高度和谐。是具有娱乐、疗养、田园风光、农家乐等为一体的多种功能生态休闲旅游度假示范区。\n铁溪气候宜人，风景独秀，古往今来，吸引了无数达官显贵、名人雅士、学者和专家为之寻幽觅胜，吟诗记游。明弘治二年（1489年）思南知府祁顺在《铁溪游记》写道：“镇远多佳山水，其去廓而近者，铁溪为甚，士大夫南迂多游焉，或不得游而恨者矣！”\n清代著名文学家吴敬梓也被铁溪当地的苗民风俗和自然风光所吸引，将“铁溪龙神嫁妹”的故事编入到《儒林外史》第四十三回中。"}}, {"title": "镇远石屏山", "address": "黔东南苗族侗族自治州镇远县", "image": "", "rank": 7, "time": 2.5, "location": {"lat": 27.054820913900503, "lng": 108.43658077263082}, "feature": {"sight_features": "特色1 镇远古城制高点，石屏山顶可以望尽镇远古镇的全景，狭长幽深的古巷尽收眼底。", "sight_content": "石屏山位于贵州省镇远县舞阳镇舞阳河东侧，属祁连山系，重岩叠障，雄伟 险峻。东西绵延2.2公里，主峰海拔668.1米，与舞阳河面相对高差204米。\n石屏山面城一面的北山，象一个大屏风，竖立在山中。石崖绝壁高千仞，“端直苍阔如屏风”，因此得名。\n在石屏山的南麓，古色古香的明清四和院建筑群体如波叠涌，同自山顶到山脚的府城垣、四官殿、天后宫等省级重点文物保护单位、火神庙、文庙、邹公祠、苏公馆、北极宫、紫皇阁、青狮洞以及众多的古巷道、古井泉、古码头等几十个县级文物保护单位参差坐落于一起，组成一个庞大的古建筑群落。\n镇远府城垣,位于镇远县城北石屏山山顶上,建于明代初期。府城垣北跨石屏山顶几个山头,东起于石屏山东段的悬崖之顶,顺山势起伏延伸向西直至天后宫西侧下石屏山西段南麓至水北岸。南临水,以水为天然屏障。人称:“屏山为城,水为池,金汤之固,其无逾于斯乎”。专家考证后誉为“南国苗疆的塞外长城”。‍‍‍‍"}}, {"title": "贵州高过河风景名胜区", "address": "黔东南州镇远县县城以东", "image": "", "rank": 8, "time": 2.5, "location": {"lat": 27.054820913900503, "lng": 108.43658077263082}, "feature": {"sight_features": "特色1 体验刺激的高过河漂流，还可感受高过河两岸令人流连忘返、拍案叫绝的峡谷景观。", "sight_content": "高过河自然风景区是一个鲜为人知而又充满野趣神韵的旅游处女地，在贵州省黔东南苗族侗族自治州镇远县境内，位于镇远境内的西北羊场镇与尚寨乡交界处的洞塘，风景区所处条件优越，距国家历史文化名城镇远县城30公里。这里没有现代都市的喧嚣，也没有令人生厌的工业污染，而是一处纯粹自然成就的幽地，是一块难得净土。\n\n\n高过河自然风景区是由峻岭险峰、急流险滩、流泉飞瀑、岩溶穿洞、原始森林、寺店遗址等45个景点集中组成的风景名胜区，形成了险、峻、奇、幽的景观特色。高过河风景区是一个天然植物园，保存着大量的原生常绿阔叶林。同时拥有亚热带植物区系成份和暖温带植物区系成份，是多种植物区系成份交叉荟萃的场所。这里的植物种类有400多种，有落叶的，也有常绿的。它们共处一地，济济一处，相辅相成，有花有果，五颜六色，组成了一幅壮丽幽雅的立体画面，令人迷醉，素有“森林王国”和“天然植物园”的美称，被誉为“一条会唱歌的河”。\n在三寨村一般不放言喝酒！你要知道，这三寨村是青酒集团办的，这些村民都是用青酒洗澡洗出来的，个个身怀绝技，尤其是女生，一碗高度白酒只是脖子抬一抬就没了。各位驴友练练嗓子是可以的，千万别玩真的，三寨村村姑饮酒那是当真了得！小坝三寨村距离镇上三公里，分为侗寨，苗寨、土家寨。进到三寨村，每当夜幕降临，就有篝火晚会、独特的水幕表演和浓郁的少数民族歌舞表演。"}}, {"title": "古巷道", "address": "贵州省黔东南苗族侗族自治州镇远县", "image": "", "rank": 9, "time": 2, "location": {"lat": 27.054820913900503, "lng": 108.43658077263082}, "feature": {"sight_features": "", "sight_content": ""}}, {"title": "镇远展览馆", "address": "黔东南苗族侗族自治州镇远县舞阳镇顺城街，县政府办公楼旁", "image": "", "rank": 10, "time": 1.0, "location": {"lat": 27.056451036461265, "lng": 108.43777102743114}, "feature": {"sight_features": "", "sight_content": ""}}, {"title": "镇远府城垣", "address": "黔东南苗族侗族自治州镇远县城北石屏山山顶", "image": "", "rank": 11, "time": 0.75, "location": {"lat": 27.054820913900503, "lng": 108.43658077263082}, "feature": {"sight_features": "", "sight_content": ""}}, {"title": "龙潭", "address": "黔东南苗族侗族自治州镇远县铁溪景区内", "image": "", "rank": 12, "time": 0.25, "location": {"lat": 27.056699489906492, "lng": 108.43748599509291}, "feature": {"sight_features": "", "sight_content": ""}}, {"title": "下舞阳河景区", "address": "黔东南苗族侗族自治州镇远县", "image": "", "rank": 13, "time": 2, "location": {"lat": 27.054820913900503, "lng": 108.43658077263082}, "feature": {"sight_features": "", "sight_content": ""}}, {"title": "镇远古城水上游", "address": "黔东南苗族侗族自治州镇远县步行街县委对面禹门码头", "image": "", "rank": 14, "time": 1.0, "location": {"lat": 27.054457118705596, "lng": 108.43481450816819}, "feature": {"sight_features": "特色1 乘画舫，观古城", "sight_content": "镇远县位于贵州东部，属黔东南苗族侗族自治州。从地图上看，东邻的湖南湘西中部有一凸出部分，恰像一个楔子，插入贵州东部凹处。\n镇远县就处在这个凸凹结合部上。不知哪朝哪代哪位先生称镇远为\"湘黔门户\"，确是慧眼独具。全县东西长85公里，南北宽60公里，东部狭长而西部较宽，略呈三角状，总幅员面积为1878平方公里（合285万亩），东面与湖南新晃接壤；东北部与本省玉屏县相连；西邻旋秉；南界剑河、三穗；北连岑巩、石阡。地形为南北高中间低、由西北向东南倾斜，属贵州高原向湘西丘陵过渡的斜坡地带。\n古老而美丽的舞阳河像\"太极图\"旋绕在府卫两城中间，两座大石拱桥像两条纽带横架河上，连结两城。镇远自古为由湘楚人夜郎舍舟登陆要冲，也是京城与西南边陲以及安南、缅甸、暹罗、印度等国礼物献赠和信使往还的捷径和必经之地，有\"南方丝绸之路\"要津之美称。"}}, {"title": "中共镇远支部旧址", "address": "镇远卫城西门街“周公馆”内", "image": "", "rank": 15, "time": 2, "location": {"lat": 27.05050126635605, "lng": 108.42400393944416}, "feature": {"sight_features": "", "sight_content": ""}}, {"title": "周达文故居", "address": "镇远县古城南门街，南门沟农贸市场旁边", "image": "", "rank": 16, "time": 1.5, "location": {"lat": 27.054305096214346, "lng": 108.43067710882119}, "feature": {"sight_features": "", "sight_content": ""}}, {"title": "镇江阁", "address": "黔东南苗族侗族自治州镇远县", "image": "", "rank": 17, "time": 0.15000000000000002, "location": {"lat": 27.054820913900503, "lng": 108.43658077263082}, "feature": {"sight_features": "", "sight_content": ""}}, {"title": "玉屏山", "address": "黔东南苗族侗族自治州镇远县", "image": "", "rank": 18, "time": 3.5, "location": {"lat": 27.054820913900503, "lng": 108.43658077263082}, "feature": {"sight_features": "", "sight_content": ""}}, {"title": "镇远天后宫", "address": "贵州省镇远县新中街", "image": "", "rank": 19, "time": 0.75, "location": {"lat": 27.056241215364288, "lng": 108.42980900703766}, "feature": {"sight_features": "", "sight_content": ""}}, {"title": "高过河漂流", "address": "黔东南苗族侗族自治州镇远县高过河风景名胜区", "image": "", "rank": 20, "time": 2, "location": {"lat": 27.054820913900503, "lng": 108.43658077263082}, "feature": {"sight_features": "", "sight_content": "在高过河原始森林峡谷中漂流，别有一番独特的情韵; 两岸气势磅礴、雄伟壮观的原始森林，把游人的心带入一种透满绿意清新的宁静，掩映在浓荫中的河水水色碧绿清澄，水面风平浪静，似乎坠落深谷中的一颗蓝色宝石，绚丽夺目，清冽逼人。河流沿途，不时有从山峰上一倾而下的瀑布，如碎玉飞花般撒落，令人赞叹不已。峡中河流，时而水平如镜, 晶莹剔透，清澈见底;时而湍浪流急, 水雾氤氲，飞沫如雪,你可观赏两岸古木蔽天闭日的浓荫，倾听山上河面偶尔传来的三两声清悦的野鸟啼鸣，追踪林间不时闪动过顽猴嬉戏的身影，也可体验的迎面扑来的刀削般的夹峙险峰，穿越在如雪漫卷的急流浪花，快乐刺激，有惊无险。"}}, {"title": "镇远邮驿", "address": "黔东南苗族侗族自治州镇远县新中街67号附近", "image": "", "rank": 21, "time": 4.0, "location": {"lat": 27.05484882412952, "lng": 108.43265966908106}, "feature": {"sight_features": "", "sight_content": ""}}, {"title": "付家大院", "address": "黔东南苗族侗族自治州镇远县镇远古城兴隆街复兴巷", "image": "", "rank": 22, "time": 2, "location": {"lat": 27.050283599281492, "lng": 108.4257814704545}, "feature": {"sight_features": "", "sight_content": ""}}, {"title": "云龙洞", "address": "黔东南苗族侗族自治州镇远县小田溪村", "image": "", "rank": 23, "time": 1.0, "location": {"lat": 27.063721498662318, "lng": 108.40243693029294}, "feature": {"sight_features": "特色1 云龙洞就在镇远县武部旁边，舞阳镇政府办公楼正对面，出口处位于小田溪主干道旁，是一个不可多得的风景胜地，也是镇远旅游发展的一个新景点。 特色2 “古城云龙洞，美景似仙宫”，“水从天上来，悄然去无踪”。是天然独特喀斯特地貌，洞内空气清新，清凉湿润。小溪流水，水流湍急，流水声余音回荡，八音齐奏，清脆悦耳，令人称绝。 特色3 墙壁花纹奇观千姿百态，形状独特，原生态、洞穴未开发处女地。经考察洞内空气流通，气温、湿度较稳定，盛夏可千人纳凉消暑，颇有入洞一生凉之感。", "sight_content": "云龙洞就在镇远县武部旁边，离火车站2公里，舞阳镇政府办公楼正对面，出口处位于小田溪主干道旁，是一个不可多得的风景胜地，也是镇远旅游发展的一个新景点。\n“古城云龙洞，美景似仙宫”，“水从天上来，悄然去无踪”。是天然独特喀斯特地貌，洞深8 00米，洞内空气清新，清凉湿润。小溪流水，水流湍急，流水声余音回荡，八音齐奏，清脆悦耳，令人称绝。小洞进去是皇帝的议事大厅，头顶上镂纹刻花，千姿百态，瑰丽雄伟，乳石林立，洞内有仙女洗澡池。小洞到大洞险象又生，洞中瀑布高1 0米，流水不止，人在空中观看洞下龙潭戏水一幅大自然的画卷，争奇斗胜。"}}, {"title": "复兴巷", "address": "贵州省黔东南苗族侗族自治州镇远县", "image": "", "rank": 24, "time": 2, "location": {"lat": 27.054820913900503, "lng": 108.43658077263082}, "feature": {"sight_features": "", "sight_content": ""}}, {"title": "四官殿", "address": "黔东南苗族侗族自治州镇远县石屏山上", "image": "", "rank": 25, "time": 0.25, "location": {"lat": 27.054820913900503, "lng": 108.43658077263082}, "feature": {"sight_features": "", "sight_content": ""}}, {"title": "中元禅院", "address": "黔东南苗族侗族自治州镇远县青龙洞景区内", "image": "", "rank": 26, "time": 0.25, "location": {"lat": 27.055483444459725, "lng": 108.4399220577029}, "feature": {"sight_features": "", "sight_content": ""}}, {"title": "兴龙园魅力镇远篝火晚会", "address": "贵州黔东南镇远县步行街四方井左侧20米", "image": "", "rank": 27, "time": 2, "location": {"lat": 27.055468413561066, "lng": 108.43502326628388}, "feature": {"sight_features": "", "sight_content": ""}}, {"title": "《古韵镇远》 舞蹈演出", "address": "黔东南镇远县镇远剧场", "image": "", "rank": 28, "time": 2, "location": {"lat": 27.054033629484255, "lng": 108.4303107268343}, "feature": {"sight_features": "", "sight_content": ""}}, {"title": "烟雨城古文化城", "address": "镇远县舞阳镇联合街", "image": "", "rank": 29, "time": 2, "location": {"lat": 27.053559377572988, "lng": 108.43185948638049}, "feature": {"sight_features": "", "sight_content": ""}}, {"title": "炎帝宫", "address": "黔东南苗族侗族自治州镇远县兴隆路、顺城路附近", "image": "", "rank": 30, "time": 0.25, "location": {"lat": 27.056161979360724, "lng": 108.43792646033518}, "feature": {"sight_features": "", "sight_content": ""}}, {"title": "四方井巷", "address": "镇远古镇顺城街", "image": "", "rank": 31, "time": 2.0, "location": {"lat": 27.056451036461265, "lng": 108.43777102743114}, "feature": {"sight_features": "", "sight_content": ""}}, {"title": "中国名酒收藏博览馆", "address": "黔东南苗族侗族自治州镇远县镇远古城冲子口巷12号", "image": "", "rank": 32, "time": 2, "location": {"lat": 27.05489897493264, "lng": 108.43508364858363}, "feature": {"sight_features": "", "sight_content": ""}}, {"title": "新大桥", "address": "黔东南苗族侗族自治州镇远县镇远古城内", "image": "", "rank": 33, "time": 0.5, "location": {"lat": 27.050283599281492, "lng": 108.4257814704545}, "feature": {"sight_features": "", "sight_content": ""}}, {"title": "金奇谷亲子水上乐园", "address": "黔东南苗族侗族自治州镇远县青溪镇河东村", "image": "", "rank": 34, "time": 2, "location": {"lat": 27.12603052472412, "lng": 108.75410987680124}, "feature": {"sight_features": "", "sight_content": ""}}, {"title": "万寿宫", "address": "黔东南苗族侗族自治州镇远县顺城路青龙洞景区内", "image": "", "rank": 35, "time": 1.0, "location": {"lat": 27.055483444459725, "lng": 108.4399220577029}, "feature": {"sight_features": "", "sight_content": ""}}, {"title": "藏经楼", "address": "黔东南苗族侗族自治州镇远县东峡街青龙洞内", "image": "", "rank": 36, "time": 0.75, "location": {"lat": 27.0570376033466, "lng": 108.44596398061182}, "feature": {"sight_features": "", "sight_content": ""}}, {"title": "卫城垣", "address": "舞阳河畔盘龙大桥(近新大桥)", "image": "", "rank": 37, "time": 2, "location": {"lat": 33.443577799934204, "lng": 113.61549000488345}, "feature": {"sight_features": "", "sight_content": ""}}, {"title": "魁星楼", "address": "镇远古镇祝圣桥上", "image": "", "rank": 38, "time": 0.75, "location": {"lat": 27.05642078848313, "lng": 108.43874432438307}, "feature": {"sight_features": "", "sight_content": ""}}, {"title": "大河关码头", "address": "镇远古城内", "image": "", "rank": 39, "time": 7.5, "location": {"lat": 27.050283599281492, "lng": 108.4257814704545}, "feature": {"sight_features": "", "sight_content": ""}}, {"title": "吉祥寺", "address": "黔东南苗族侗族自治州镇远县周大街7号", "image": "", "rank": 40, "time": 2, "location": {"lat": 27.05357252263681, "lng": 108.43411643046508}, "feature": {"sight_features": "", "sight_content": ""}}, {"title": "镇远天主堂", "address": "贵州省黔东南苗族侗族自治州镇远县", "image": "", "rank": 41, "time": 2, "location": {"lat": 27.054820913900503, "lng": 108.43658077263082}, "feature": {"sight_features": "", "sight_content": ""}}, {"title": "大型舞蹈史诗《古韵镇远》", "address": "苗族侗族自治州镇远县镇远剧场", "image": "", "rank": 42, "time": 2, "location": {"lat": 27.054033629484255, "lng": 108.4303107268343}, "feature": {"sight_features": "", "sight_content": ""}}, {"title": "镇远县图书馆", "address": "平冒街大菜园休闲广场靠河边", "image": "", "rank": 43, "time": 2, "location": {"lat": 27.047401647899, "lng": 108.41553381499676}, "feature": {"sight_features": "", "sight_content": ""}}, {"title": "镇远基督教堂", "address": "镇远文德", "image": "", "rank": 44, "time": 4.0, "location": {"lat": 27.05893836640166, "lng": 108.40147773494088}, "feature": {"sight_features": "", "sight_content": ""}}, {"title": "滴水观音", "address": "黔东南苗族侗族自治州镇远县舞阳河国家级风景名胜区下舞阳景区内", "image": "", "rank": 45, "time": 2.5, "location": {"lat": 27.064590915164437, "lng": 108.32572978290558}, "feature": {"sight_features": "", "sight_content": ""}}, {"title": "刘氏民宅", "address": "黔东南苗族侗族自治州镇远县镇远古城内", "image": "", "rank": 46, "time": 2, "location": {"lat": 27.050283599281492, "lng": 108.4257814704545}, "feature": {"sight_features": "", "sight_content": ""}}, {"title": "镇远县基督教会", "address": "民生街与盘龙街交叉口西150米", "image": "", "rank": 47, "time": 2, "location": {"lat": 27.05574143644425, "lng": 108.42213226781303}, "feature": {"sight_features": "", "sight_content": ""}}, {"title": "大菜园休闲广场", "address": "平冒街镇远鼎豪实业发展有限公司附近", "image": "", "rank": 48, "time": 2, "location": {"lat": 27.04615529301261, "lng": 108.41668240728586}, "feature": {"sight_features": "", "sight_content": ""}}, {"title": "竹喧山庄", "address": "顺城路", "image": "", "rank": 49, "time": 2, "location": {"lat": 38.4402276438861, "lng": 114.55768520484092}, "feature": {"sight_features": "", "sight_content": ""}}, {"title": "呜啦啦糖果主题儿童乐园", "address": "老汽车站佳慧超市一楼", "image": "", "rank": 50, "time": 2, "location": {"lat": 40.67199704116878, "lng": 109.86822925259649}, "feature": {"sight_features": "", "sight_content": ""}}, {"title": "镇远县林业局果园场", "address": "306省道西50米", "image": "", "rank": 51, "time": 2, "location": {"lat": 44.29269479672118, "lng": 120.43459468370047}, "feature": {"sight_features": "", "sight_content": ""}}, {"title": "岑巩县图书馆", "address": "大园南路附近(岑巩县审计局附近)", "image": "", "rank": 52, "time": 2, "location": {"lat": 27.17990241739444, "lng": 108.82248096195714}, "feature": {"sight_features": "", "sight_content": ""}}, {"title": "铁溪 Tiexi River", "address": "贵州省镇远县城北部", "image": "", "rank": 53, "time": 2, "location": {"lat": 27.054820913900503, "lng": 108.43658077263082}, "feature": {"sight_features": "", "sight_content": ""}}, {"title": "青龙洞古建群", "address": "贵州省镇远县舞阳河边", "image": "", "rank": 54, "time": 2, "location": {"lat": 27.054820913900503, "lng": 108.43658077263082}, "feature": {"sight_features": "", "sight_content": ""}}, {"title": "舞阳河", "address": "贵州省镇远县境内", "image": "", "rank": 55, "time": 3.0, "location": {"lat": 27.054820913900503, "lng": 108.43658077263082}, "feature": {"sight_features": "", "sight_content": ""}}, {"title": "青溪五里牌步行街", "address": "贵州省镇远县320国道", "image": "", "rank": 56, "time": 2, "location": {"lat": 27.10153674508118, "lng": 108.76613672513449}, "feature": {"sight_features": "", "sight_content": ""}}, {"title": "河滨文化商业步行街", "address": "贵州省镇远县联合街", "image": "", "rank": 57, "time": 2, "location": {"lat": 27.053559377572988, "lng": 108.43185948638049}, "feature": {"sight_features": "", "sight_content": ""}}, {"title": "塘头哨村", "address": "黔东南苗族侗族自治州-镇远县", "image": "", "rank": 58, "time": 2, "location": {"lat": 27.054820913900503, "lng": 108.43658077263082}, "feature": {"sight_features": "", "sight_content": ""}}]}