{"cityName": "镇赉", "days": 2, "cityImage": "", "spots": [{"title": "中国莫莫格湿地博物馆", "address": "103县道", "image": "", "rank": 1, "time": 2, "location": {"lat": 46.25424613801592, "lng": 123.67756811420162}, "feature": {"sight_features": "", "sight_content": ""}}, {"title": "湖北中烟·镇赉基地单元-六合村...", "address": "220省道附近", "image": "", "rank": 2, "time": 2, "location": {"lat": 40.38775563397051, "lng": 115.90384459998963}, "feature": {"sight_features": "", "sight_content": ""}}, {"title": "到保农场二站", "address": "一零二县道(西满斗豪心)", "image": "", "rank": 3, "time": 2, "location": {"lat": 45.6339878914555, "lng": 123.21867312725908}, "feature": {"sight_features": "", "sight_content": ""}}, {"title": "军丰植保统防统治农民专业合作社", "address": "嫩江东路与新兴南街交叉口西50米", "image": "", "rank": 4, "time": 2, "location": {"lat": 45.851843914273786, "lng": 123.21518284384415}, "feature": {"sight_features": "", "sight_content": ""}}, {"title": "新天地运动休闲广场", "address": "步行街镇赉县印刷一厂附近", "image": "", "rank": 5, "time": 2, "location": {"lat": 45.85625115800474, "lng": 123.21140522573388}, "feature": {"sight_features": "", "sight_content": ""}}, {"title": "镇赉团结基督教会", "address": "吉林省白城市镇赉县庆余南街75号", "image": "", "rank": 6, "time": null, "location": {"lat": 45.85515062381127, "lng": 123.20379517095107}, "feature": {"sight_features": "", "sight_content": ""}}, {"title": "慧缘寺", "address": "吉林省白城市镇赉县镇赉镇团结社区3组", "image": "", "rank": 7, "time": 2, "location": {"lat": 45.850767454207265, "lng": 123.19911402225449}, "feature": {"sight_features": "", "sight_content": ""}}, {"title": "镇赉县基督教", "address": "088乡道附近", "image": "", "rank": 8, "time": 2, "location": {"lat": 45.8538992940418, "lng": 123.24095920752069}, "feature": {"sight_features": "", "sight_content": ""}}, {"title": "南湖生态园", "address": "长青西路与南湖街交汇民处", "image": "", "rank": 9, "time": 2, "location": {"lat": 45.83989060932196, "lng": 123.202825747859}, "feature": {"sight_features": "", "sight_content": ""}}, {"title": "奥体公园", "address": "镇赉县建设局南200米", "image": "", "rank": 10, "time": 2, "location": {"lat": 46.212062410479476, "lng": 123.75592162744496}, "feature": {"sight_features": "", "sight_content": ""}}, {"title": "镇赉县嫩江基督教会", "address": "正阳南街1234号附近", "image": "", "rank": 11, "time": 2, "location": {"lat": 37.72719529762428, "lng": 112.60541589774321}, "feature": {"sight_features": "", "sight_content": ""}}, {"title": "镇赉博物馆", "address": "团结东路1488号", "image": "", "rank": 12, "time": 2.5, "location": {"lat": 45.85870498187726, "lng": 123.23047328730266}, "feature": {"sight_features": "", "sight_content": ""}}, {"title": "镇赉站站前广场", "address": "吉林省白城市镇赉县广通西路与站前街交叉口北50米", "image": "", "rank": 13, "time": 2, "location": {"lat": 45.863699894340805, "lng": 123.20253737562079}, "feature": {"sight_features": "", "sight_content": ""}}, {"title": "开心乐园中老年娱乐中心", "address": "正阳南街", "image": "", "rank": 14, "time": 2, "location": {"lat": 37.72719529762428, "lng": 112.60541589774321}, "feature": {"sight_features": "", "sight_content": ""}}, {"title": "吉林省镇赉县博物馆", "address": "庆余南街230号", "image": "", "rank": 15, "time": null, "location": {"lat": 45.85495737027458, "lng": 123.2041122857392}, "feature": {"sight_features": "", "sight_content": ""}}, {"title": "艺林美术培训基地", "address": "凌云西路213号附近", "image": "", "rank": 16, "time": 2, "location": {"lat": 45.85533173853186, "lng": 123.20866217683974}, "feature": {"sight_features": "", "sight_content": ""}}, {"title": "绘艺画苑", "address": "凌云西路909附近", "image": "", "rank": 17, "time": 2, "location": {"lat": 45.85459942591745, "lng": 123.19999355497592}, "feature": {"sight_features": "", "sight_content": ""}}, {"title": "到保滑雪场", "address": "双龙村", "image": "", "rank": 18, "time": 2, "location": {"lat": 46.12550353058621, "lng": 128.74978757970104}, "feature": {"sight_features": "", "sight_content": ""}}, {"title": "x·man真人密室逃脱", "address": "庆余南街51号附近", "image": "", "rank": 19, "time": null, "location": {"lat": 45.85492550081755, "lng": 123.20384072263985}, "feature": {"sight_features": "", "sight_content": ""}}, {"title": "镇赉图书馆", "address": "团结东路镇赉体育场附近", "image": "", "rank": 20, "time": 1.5, "location": {"lat": 45.8592285944351, "lng": 123.22961356401433}, "feature": {"sight_features": "", "sight_content": ""}}, {"title": "白城哈尔挠水库", "address": "吉林省镇赉县境内", "image": "", "rank": 21, "time": 3.5, "location": {"lat": 45.8531166353894, "lng": 123.2065757556511}, "feature": {"sight_features": "", "sight_content": ""}}, {"title": "到保农场一站", "address": "白城市-镇赉县", "image": "", "rank": 22, "time": 2, "location": {"lat": 45.8531166353894, "lng": 123.2065757556511}, "feature": {"sight_features": "", "sight_content": ""}}, {"title": "龙风山", "address": "白城市-镇赉县", "image": "", "rank": 23, "time": 2, "location": {"lat": 45.8531166353894, "lng": 123.2065757556511}, "feature": {"sight_features": "", "sight_content": ""}}, {"title": "三家子马场", "address": "白城市-镇赉县", "image": "", "rank": 24, "time": 2, "location": {"lat": 45.8531166353894, "lng": 123.2065757556511}, "feature": {"sight_features": "", "sight_content": ""}}]}