{"cityName": "志丹", "days": 2, "cityImage": "", "spots": [{"title": "卧龙湾农家院", "address": "303省道", "image": "", "rank": 1, "time": 2, "location": {"lat": 38.25466494631471, "lng": 114.66726867564682}, "feature": {"sight_features": "", "sight_content": ""}}, {"title": "刘志丹烈士陵园", "address": "红都街", "image": "", "rank": 2, "time": 1.0, "location": {"lat": 36.83014645967095, "lng": 108.77513734434442}, "feature": {"sight_features": "", "sight_content": ""}}, {"title": "保安革命旧址纪念馆", "address": "红都街050号", "image": "", "rank": 3, "time": 2, "location": {"lat": 36.83023424709739, "lng": 108.77529802425099}, "feature": {"sight_features": "", "sight_content": ""}}, {"title": "娘娘庙", "address": "西阳沟路与303省道交叉口西南100米", "image": "", "rank": 4, "time": 1.5, "location": {"lat": 31.909199228140412, "lng": 121.30903625505988}, "feature": {"sight_features": "", "sight_content": ""}}, {"title": "儿童乐园", "address": "延定公路与长盛街交叉口西北150米", "image": "", "rank": 5, "time": 2, "location": {"lat": 36.826231341880174, "lng": 108.775536607008}, "feature": {"sight_features": "", "sight_content": ""}}, {"title": "大型儿童游乐园", "address": "延安市志丹县", "image": "", "rank": 6, "time": 2, "location": {"lat": 36.82802113586365, "lng": 108.7755774799087}, "feature": {"sight_features": "", "sight_content": ""}}, {"title": "保安王稼祥旧居", "address": "红都街050附近", "image": "", "rank": 7, "time": 2, "location": {"lat": 36.83023424709739, "lng": 108.77529802425099}, "feature": {"sight_features": "", "sight_content": ""}}, {"title": "双拥文化广场", "address": "河滨路与爱民路交叉口西北200米", "image": "", "rank": 8, "time": 2, "location": {"lat": 36.67092753480367, "lng": 108.50621164448334}, "feature": {"sight_features": "", "sight_content": ""}}, {"title": "将军广场", "address": "陕西省延安市志丹县S303", "image": "", "rank": 9, "time": 2, "location": {"lat": 36.82802113586365, "lng": 108.7755774799087}, "feature": {"sight_features": "", "sight_content": ""}}, {"title": "陵园法制文化广场", "address": "福乐巷与红都街交叉口西50米", "image": "", "rank": 10, "time": 2, "location": {"lat": 36.83206106473544, "lng": 108.77231123478629}, "feature": {"sight_features": "", "sight_content": ""}}, {"title": "志丹县文化图书馆", "address": "保安街", "image": "", "rank": 11, "time": 2, "location": {"lat": 40.15542354691735, "lng": 117.12950290723214}, "feature": {"sight_features": "", "sight_content": ""}}, {"title": "沙道子科普图书室", "address": "303省道", "image": "", "rank": 12, "time": 2, "location": {"lat": 38.25466494631471, "lng": 114.66726867564682}, "feature": {"sight_features": "", "sight_content": ""}}, {"title": "保安革命旧址 Bao'an Revolution...", "address": "陕西省志丹县志丹县城北炮楼山", "image": "", "rank": 13, "time": 2, "location": {"lat": 36.82802113586365, "lng": 108.7755774799087}, "feature": {"sight_features": "", "sight_content": ""}}, {"title": "延安保安革命旧址 Yan'an Bao'an...", "address": "陕西省志丹县红都街50号", "image": "", "rank": 14, "time": 2.5, "location": {"lat": 36.83023424709739, "lng": 108.77529802425099}, "feature": {"sight_features": "", "sight_content": ""}}, {"title": "侯市商贸街", "address": "陕西省志丹县王南沟村", "image": "", "rank": 15, "time": 2, "location": {"lat": 36.86197135065338, "lng": 108.98887112582497}, "feature": {"sight_features": "", "sight_content": ""}}, {"title": "永宁山古寨", "address": "延安市志丹县", "image": "", "rank": 16, "time": 2, "location": {"lat": 36.82802113586365, "lng": 108.7755774799087}, "feature": {"sight_features": "", "sight_content": ""}}]}