{"cityName": "芷江", "days": 2, "cityImage": "", "spots": [{"title": "中国人民抗日战争胜利受降纪念馆", "address": "怀化市芷江侗族自治县七里桥村320国道旁", "image": "", "rank": 1, "time": 2.5, "location": {"lat": 27.475304900120328, "lng": 109.77873103972648}, "feature": {"sight_features": "", "sight_content": ""}}, {"title": "龙津风雨桥", "address": "怀化市芷江侗族自治县步行街", "image": "", "rank": 2, "time": 2.5, "location": {"lat": 27.449513277764982, "lng": 109.69140226960282}, "feature": {"sight_features": "", "sight_content": ""}}, {"title": "飞虎队纪念馆", "address": "怀化市芷江侗族自治县芷江机场内", "image": "", "rank": 3, "time": 4.5, "location": {"lat": 27.44981620800888, "lng": 109.71291640898329}, "feature": {"sight_features": "特色1 目前国内唯一一家全面反映陈纳德及所率领的飞虎队援华抗战的专题性纪念馆！ 特色2 馆内真实的再现了当年日机轰炸芷江及飞虎队员英勇抗击日寇的辉煌战绩！ 特色3 飞虎队纪念馆的材质是砖木结构，水泥地面，胶泥敷墙如峰窝，造型坚实美观！", "sight_content": "飞虎队纪念馆占地63亩，2005年建成并对外开放。原中美空军联队俱乐部、供电房、总机房和中美空军联队指挥塔等二战遗址至今保存完好。完整、详实的飞虎队援华作战文献资料、历史照片、实物真实再现了飞虎队在中国抗战期间的英雄事迹和生活场景，成为维系中美友谊，推动国际和平的桥梁和纽带。2014年9月被国务院公布为首批抗战纪念设施、遗址， 2016年被列入全国红色旅游经典景区。\n从1938年冬到1945年10月，先后有苏联志愿空军中队（1941—1942）、美国陆军第十四航空队、中国空军第五大队等空军部队进驻芷江机场，芷江机场成为二战时期国民政府的前进机场，远东盟军重要的战略空军基地之一，面积之大成为远东盟军第二大军用机场，驻美飞虎队员6062人，停驻各型飞机达400多架，担负着掩护从机场起飞的重型轰炸机实施对日军驻地及日本本土的战略轰炸，切断日军后勤补给线，封锁长沙、湘江和京广铁路运输，阻止日军进攻大西南等重要军事任务，为中国的抗日战争和世界反法西斯战争胜利作出了巨大贡献。\n经国家发改委批准，2017年3月启动飞虎队纪念馆改扩建工程， 2017年9月完工并对外开放。馆名由陈纳德将军夫人陈香梅女士亲笔题写，主题展览《虎啸长空》全面反映飞虎队从创建到发展、结束整个过程，是目前中国国内规模最大、资料最多、内容最丰富、文物最多的飞虎队专题纪念馆。\n展览囊括了东方主战场、“飞虎”将军来华、“飞虎”展翅翱翔、“飞虎”长空制胜、英烈墙、“飞虎”彪炳史册六部分，馆内首次面向全球公布882名中国籍航空烈士名单，将其与2193名牺牲的美籍飞虎队员名单一同镌刻在英烈墙上，供世人瞻仰缅怀。目前中国国内规模大、资料多、内容丰富、文物多的飞虎队专题纪念馆。"}}, {"title": "中国侗文化城", "address": "怀化市芷江侗族自治县", "image": "", "rank": 4, "time": 3.0, "location": {"lat": 27.449513277764982, "lng": 109.69140226960282}, "feature": {"sight_features": "", "sight_content": ""}}, {"title": "天后宫", "address": "怀化市芷江县西街29号", "image": "", "rank": 5, "time": 1.5, "location": {"lat": 27.449513277764982, "lng": 109.69140226960282}, "feature": {"sight_features": "", "sight_content": ""}}, {"title": "万和鼓楼", "address": "怀化市芷江侗族自治县龙津路", "image": "", "rank": 6, "time": 2, "location": {"lat": 27.440764446977774, "lng": 109.69322996289112}, "feature": {"sight_features": "", "sight_content": ""}}, {"title": "芷江佰瀑峡", "address": "怀化市芷江县三道坑镇小渔溪村", "image": "", "rank": 7, "time": 2.5, "location": {"lat": 27.49083973823713, "lng": 109.60702803977509}, "feature": {"sight_features": "", "sight_content": ""}}, {"title": "语婷避暑山庄", "address": "三道坑镇小渔溪村老阳坡组", "image": "", "rank": 8, "time": 2, "location": {"lat": 27.49083973823713, "lng": 109.60702803977509}, "feature": {"sight_features": "", "sight_content": ""}}, {"title": "大树坳漂流", "address": "大树坳乡", "image": "", "rank": 9, "time": 2, "location": {"lat": 27.52312118082567, "lng": 109.45604516696413}, "feature": {"sight_features": "", "sight_content": ""}}, {"title": "温泉电热水器(芷江总代理)", "address": "明山路附近", "image": "", "rank": 10, "time": 2, "location": {"lat": 31.283693570057114, "lng": 121.66323187442089}, "feature": {"sight_features": "", "sight_content": ""}}, {"title": "芷江玫瑰庄园", "address": "中洋溪", "image": "", "rank": 11, "time": 4.0, "location": {"lat": 22.835207002568552, "lng": 115.36616263423517}, "feature": {"sight_features": "", "sight_content": ""}}, {"title": "新华温泉", "address": "湖南省绥宁县金屋塘镇新华村 422608", "image": "", "rank": 12, "time": 2, "location": {"lat": 27.065447433652555, "lng": 110.35089934465681}, "feature": {"sight_features": "", "sight_content": ""}}, {"title": "茅丛河漂流", "address": "湖南怀化芷江县细米溪村", "image": "", "rank": 13, "time": 2, "location": {"lat": 27.45490069011732, "lng": 109.49171939400901}, "feature": {"sight_features": "", "sight_content": ""}}, {"title": "五溪民俗风情园", "address": "湖南省芷江侗族自治县芷江镇七里桥五溪民俗博物馆", "image": "", "rank": 14, "time": 2, "location": {"lat": 27.44784503093368, "lng": 109.72692491388106}, "feature": {"sight_features": "", "sight_content": ""}}, {"title": "何应钦办公室旧址", "address": "怀化市芷江侗族自治县中国人民抗日战争胜利受降旧址内", "image": "", "rank": 15, "time": 2, "location": {"lat": 27.455469967235363, "lng": 109.72793692330895}, "feature": {"sight_features": "", "sight_content": ""}}, {"title": "太和塔", "address": "320国道西50米", "image": "", "rank": 16, "time": 2, "location": {"lat": 27.256565251327487, "lng": 111.28113249254281}, "feature": {"sight_features": "", "sight_content": ""}}, {"title": "湖南抗日战争纪念馆", "address": "飞虎路8-9号", "image": "", "rank": 17, "time": 2, "location": {"lat": 27.441004114809314, "lng": 109.70184953483295}, "feature": {"sight_features": "", "sight_content": ""}}, {"title": "大风车儿童乐园", "address": "湖南省怀化市芷江侗族自治县芷江镇解放路紫东花园附近", "image": "", "rank": 18, "time": 2, "location": {"lat": 27.44638309187143, "lng": 109.70282294766628}, "feature": {"sight_features": "", "sight_content": ""}}, {"title": "碧云寺", "address": "罗旧镇小学西北800米(039县道北)", "image": "", "rank": 19, "time": 1.0, "location": {"lat": 27.523510750860943, "lng": 109.79205483819868}, "feature": {"sight_features": "", "sight_content": ""}}, {"title": "甫宽侗寨", "address": "湖南省怀化市芷江侗族自治县双江镇芋头村", "image": "", "rank": 20, "time": 2, "location": {"lat": 27.449513277764982, "lng": 109.69140226960282}, "feature": {"sight_features": "", "sight_content": ""}}, {"title": "芷江碧涌休闲度假村", "address": "芷江怀化芷江侗族自治县碧涌度假村（加油站斜对面）", "image": "", "rank": 21, "time": 2.5, "location": {"lat": 27.183247120692016, "lng": 109.51669285490722}, "feature": {"sight_features": "", "sight_content": ""}}, {"title": "芷江天主堂", "address": "湖南省怀化市芷江侗族自治县芷江镇西街天主堂(汇丰宾馆旁)", "image": "", "rank": 22, "time": 0.75, "location": {"lat": 27.44541384853932, "lng": 109.6920128730103}, "feature": {"sight_features": "", "sight_content": ""}}, {"title": "怀化市中国侗文化城粟裕纪念馆", "address": "侗文化城怀化市象狮坡省级森林公园附近", "image": "", "rank": 23, "time": 3.5, "location": {"lat": 27.54485511275346, "lng": 109.88652237842808}, "feature": {"sight_features": "", "sight_content": ""}}, {"title": "五溪源民俗博物馆", "address": "320国道", "image": "", "rank": 24, "time": 2, "location": {"lat": 27.256565251327487, "lng": 111.28158164529765}, "feature": {"sight_features": "", "sight_content": ""}}, {"title": "华融冰淇淋批发", "address": "凯旋路与解放路交叉口东北150米", "image": "", "rank": 25, "time": 2, "location": {"lat": 27.442967159912804, "lng": 109.69704982291842}, "feature": {"sight_features": "", "sight_content": ""}}, {"title": "花山寨景区", "address": "湖南省芷江侗族自治县罗旧镇", "image": "", "rank": 26, "time": 2, "location": {"lat": 27.5091580297172, "lng": 109.79152461696481}, "feature": {"sight_features": "", "sight_content": ""}}, {"title": "水佛洞", "address": "湖南省洪江市嵩云路", "image": "", "rank": 27, "time": 2, "location": {"lat": 27.116001214506362, "lng": 110.00439905147674}, "feature": {"sight_features": "", "sight_content": ""}}, {"title": "五朗溪林场", "address": "湖南省芷江侗族自治县五郎溪乡五郎溪村", "image": "", "rank": 28, "time": 2, "location": {"lat": 27.563614024699564, "lng": 109.59189499292161}, "feature": {"sight_features": "", "sight_content": ""}}, {"title": "象狮坡", "address": "湖南省芷江侗族自治县象狮坡省级森林公园", "image": "", "rank": 29, "time": 2, "location": {"lat": 27.544535365586565, "lng": 109.88652761105767}, "feature": {"sight_features": "", "sight_content": ""}}, {"title": "剿匪烈士纪念塔", "address": "湖南省芷江侗族自治县县城体育场北端", "image": "", "rank": 30, "time": 2, "location": {"lat": 27.449513277764982, "lng": 109.69140226960282}, "feature": {"sight_features": "", "sight_content": ""}}, {"title": "汉泥垅", "address": "怀化市-芷江侗族自治县-零三九县道", "image": "", "rank": 31, "time": 2, "location": {"lat": 27.449513277764982, "lng": 109.69140226960282}, "feature": {"sight_features": "", "sight_content": ""}}, {"title": "塘家塆", "address": "怀化市-芷江侗族自治县", "image": "", "rank": 32, "time": 2, "location": {"lat": 27.449513277764982, "lng": 109.69140226960282}, "feature": {"sight_features": "", "sight_content": ""}}, {"title": "天后宫石坊", "address": "湖南省怀化市芷江侗族自治县芷江镇江西街", "image": "", "rank": 33, "time": 2, "location": {"lat": 27.439582948263755, "lng": 109.68897602906527}, "feature": {"sight_features": "", "sight_content": ""}}, {"title": "三道坑景区", "address": "湖南省芷江侗族自治县五郎溪乡", "image": "", "rank": 34, "time": 2, "location": {"lat": 27.56508188346972, "lng": 109.62326495677786}, "feature": {"sight_features": "", "sight_content": ""}}]}