{"cityName": "钟祥", "days": 2, "cityImage": "", "spots": [{"title": "明显陵", "address": "荆门市钟祥市显陵路", "image": "", "rank": 1, "time": 4.5, "location": {"lat": 31.200745724550657, "lng": 112.64188214909004}, "feature": {"sight_features": "特色1 由王墓改造而来的一座明代帝陵", "sight_content": "显陵始建于明正德十四年（1519年），迄于明嘉靖三十八年（1559年），历时40年建成。陵园由30余处规模宏大的建筑群组成，依山间台地渐次布列有纯德山碑、敕谕碑、外明塘、下马碑、新旧红门、御碑楼、石像生、棂星门、九曲御河、内明塘、方城、明楼、前后茔城等，建筑掩映于山环水抱之中，是建筑艺术与环境美学相结合的天才杰作显陵是明嘉靖初期重大历史事件“大礼议”的产物，规划布局和建筑手法独特，在明代帝陵规制中具有承上启下的作用。\n其陵寝建筑中金瓶形的外罗城、九曲御河、龙鳞神道、琼花双龙琉璃影壁和内外明塘等都是明陵中仅见的孤例，尤其是“一陵两冢”的陵寝结构为历代帝王陵墓中绝无仅有，由瑶台相连而成哑铃状的两座隐密的地下玄宫神密莫测，一直为世人称奇。瑶台与双茔城：在明代帝陵中，前后两个茔城的建置可谓绝无仅有。"}}, {"title": "莫愁湖", "address": "荆门市钟祥郢中镇", "image": "", "rank": 2, "time": 1.5, "location": {"lat": 31.17615601107119, "lng": 112.57651001463627}, "feature": {"sight_features": "", "sight_content": ""}}, {"title": "彭墩乡村世界", "address": "荆门市钟祥市石牌镇彭墩村", "image": "", "rank": 3, "time": 2, "location": {"lat": 31.0006727641468, "lng": 112.34652246573282}, "feature": {"sight_features": "", "sight_content": ""}}, {"title": "大口国家森林公园", "address": "大洪山名胜风景区南麓,距钟祥市郢中30公里", "image": "", "rank": 4, "time": 2, "location": {"lat": 31.174029854963006, "lng": 112.59447102156223}, "feature": {"sight_features": "特色1 总面积1590公顷，森林覆盖率超90%", "sight_content": "大口国家森林公园位于湖北省钟祥市，地处大洪山风景区南麓，距钟祥郢中城区30公里；东邻太子山，南接屈家岭，北连皂当线，西望汉水；总面积1590公顷，森林覆盖率超90%\n大口森林公园始建于1992年，1995年7月经原国家林业部批准成立大口国家级森林公园。公园属亚热带季风气候，园内小气候独特，冬无严寒，夏无酷暑，雨量充沛，年平均气温15.9℃，园区以低山地貌为主，平均海拔350米，主要植被为落叶阔叶林和针阔混交林。\n大口国家森林公园分为九级天溪、大小天池、乌龙洞、楠竹林、乌龙洞、龙溪谷等景区、云台观景区、鹰子洞景区、柳门口景区；园区内有一些佛寺禅院、道观仙宫遗址。"}}, {"title": "万紫千红植物园", "address": "荆门市钟祥市罗汉寺种畜场肖家湾019乡道万紫千红植物园景区", "image": "", "rank": 5, "time": 2, "location": {"lat": 31.150706087166384, "lng": 112.73907129453728}, "feature": {"sight_features": "", "sight_content": ""}}, {"title": "钟祥博物馆", "address": "湖北省荆门市钟祥市元佑路48号", "image": "", "rank": 6, "time": 2.5, "location": {"lat": 31.167307211479823, "lng": 112.60086462119894}, "feature": {"sight_features": "", "sight_content": ""}}, {"title": "莫愁湖游乐城", "address": "体育馆北行200米", "image": "", "rank": 7, "time": 4.5, "location": {"lat": 41.829963796421254, "lng": 123.4196110729932}, "feature": {"sight_features": "", "sight_content": ""}}, {"title": "大口度假新村", "address": "大口国家森林公园大门旁", "image": "", "rank": 8, "time": 2, "location": {"lat": 31.10906980723517, "lng": 112.81926486175287}, "feature": {"sight_features": "", "sight_content": ""}}, {"title": "买鱼,垂钓都可以", "address": "长寿镇", "image": "", "rank": 9, "time": 2, "location": {"lat": 31.81398440826684, "lng": 120.38814743978145}, "feature": {"sight_features": "", "sight_content": ""}}, {"title": "皇珠生态葡萄园", "address": "207国道西50米", "image": "", "rank": 10, "time": 2, "location": {"lat": 38.67484937592033, "lng": 114.04792987568985}, "feature": {"sight_features": "", "sight_content": ""}}, {"title": "中冠农业生态园", "address": "207国道附近", "image": "", "rank": 11, "time": 2, "location": {"lat": 38.67484937592033, "lng": 114.04837902844483}, "feature": {"sight_features": "", "sight_content": ""}}, {"title": "卢三漂流饭庄", "address": "011乡道与012乡道交叉口西南150米", "image": "", "rank": 12, "time": 2, "location": {"lat": 27.163617156293792, "lng": 115.04813986627188}, "feature": {"sight_features": "", "sight_content": ""}}, {"title": "湖北省钟祥市图书馆", "address": "阳春大街5号", "image": "", "rank": 13, "time": null, "location": {"lat": 31.17281236666335, "lng": 112.59433054364827}, "feature": {"sight_features": "", "sight_content": ""}}, {"title": "红黄蓝美术馆", "address": "文峰路与襄汉路交叉口东150米", "image": "", "rank": 14, "time": 2, "location": {"lat": 31.166124423243303, "lng": 112.59328882276532}, "feature": {"sight_features": "", "sight_content": ""}}, {"title": "显陵", "address": "湖北省钟祥市城东北 431900", "image": "", "rank": 15, "time": 2.0, "location": {"lat": 31.174029854963006, "lng": 112.59447102156223}, "feature": {"sight_features": "", "sight_content": ""}}, {"title": "冷水影剧院", "address": "湖北省荆门市钟祥市冷水镇共兴黄金一路中国邮政北50米", "image": "", "rank": 16, "time": 2, "location": {"lat": 31.11204375205525, "lng": 112.45075786210879}, "feature": {"sight_features": "", "sight_content": ""}}, {"title": "胡集影剧院", "address": "胡集镇民生广场A区3层", "image": "", "rank": 17, "time": 2, "location": {"lat": 39.8196913271992, "lng": 110.00959925219499}, "feature": {"sight_features": "", "sight_content": ""}}, {"title": "钟祥市青少年科技活动中心", "address": "湖北省钟祥市横埂北街", "image": "", "rank": 18, "time": 4.5, "location": {"lat": 31.178648031853726, "lng": 112.60983089146026}, "feature": {"sight_features": "", "sight_content": ""}}, {"title": "友元花卉观赏园", "address": "旧口镇东风二组57号", "image": "", "rank": 19, "time": 2, "location": {"lat": 46.828385151991114, "lng": 130.41056077772154}, "feature": {"sight_features": "", "sight_content": ""}}, {"title": "龟鹤池", "address": "元佑路与金福祥大道交叉口西150米", "image": "", "rank": 20, "time": 2, "location": {"lat": 31.168251909871184, "lng": 112.60108330469228}, "feature": {"sight_features": "", "sight_content": ""}}, {"title": "袋乐儿儿童乐园", "address": "阳春大街68号附近", "image": "", "rank": 21, "time": 2, "location": {"lat": 31.18078400235848, "lng": 112.59618453775046}, "feature": {"sight_features": "", "sight_content": ""}}, {"title": "申家祠堂", "address": "湖北省荆门市钟祥市三一一省道", "image": "", "rank": 22, "time": 2, "location": {"lat": 31.186802862795314, "lng": 112.75976489472286}, "feature": {"sight_features": "", "sight_content": ""}}, {"title": "陈家祠堂", "address": "荆门市钟祥市客黄路", "image": "", "rank": 23, "time": 1.5, "location": {"lat": 31.174029854963006, "lng": 112.59447102156223}, "feature": {"sight_features": "", "sight_content": ""}}, {"title": "葛文化公园", "address": "坪客线东50米", "image": "", "rank": 24, "time": 2, "location": {"lat": 31.389724526233255, "lng": 113.02416065369384}, "feature": {"sight_features": "", "sight_content": ""}}, {"title": "贝乐家儿童乐园", "address": "王府大道新中百广场四楼", "image": "", "rank": 25, "time": 2, "location": {"lat": 31.18201315659116, "lng": 112.59500581247639}, "feature": {"sight_features": "", "sight_content": ""}}, {"title": "皇家迪智尼", "address": "中百广场三楼", "image": "", "rank": 26, "time": 2, "location": {"lat": 30.370536605870104, "lng": 114.32793157289568}, "feature": {"sight_features": "", "sight_content": ""}}, {"title": "迷你屋儿童乐园", "address": "湖北省荆门市钟祥市丰乐镇建设街89号(卫生院旁)", "image": "", "rank": 27, "time": 2, "location": {"lat": 31.46829760926826, "lng": 112.48971746011047}, "feature": {"sight_features": "", "sight_content": ""}}, {"title": "奥斯汀水上乐园(胡集店)", "address": "胡集镇民生广场", "image": "", "rank": 28, "time": 2, "location": {"lat": 39.72137724595233, "lng": 119.17293002698985}, "feature": {"sight_features": "", "sight_content": ""}}, {"title": "芭蕉祠堂", "address": "荆门市钟祥市", "image": "", "rank": 29, "time": 2, "location": {"lat": 31.174029854963006, "lng": 112.59447102156223}, "feature": {"sight_features": "", "sight_content": ""}}, {"title": "大栎树山庄", "address": "湖北省荆门市钟祥市客店镇东星国际大酒店东250米", "image": "", "rank": 30, "time": 2, "location": {"lat": 31.37640034017685, "lng": 112.85174381880545}, "feature": {"sight_features": "", "sight_content": ""}}, {"title": "大栎树山庄", "address": "湖北省荆门市钟祥市客店镇东星国际大酒店东250米", "image": "", "rank": 31, "time": 2, "location": {"lat": 31.37640034017685, "lng": 112.85174381880545}, "feature": {"sight_features": "", "sight_content": ""}}, {"title": "和沐申福休闲广场", "address": "湖北省荆门市钟祥市莫愁大道74-2", "image": "", "rank": 32, "time": 2, "location": {"lat": 31.181498492918916, "lng": 112.58475780757443}, "feature": {"sight_features": "", "sight_content": ""}}, {"title": "郢中镇图书馆", "address": "皇庄街97号附近", "image": "", "rank": 33, "time": 2, "location": {"lat": 31.19978355411499, "lng": 112.5841615285464}, "feature": {"sight_features": "", "sight_content": ""}}, {"title": "阳春白雪书画社", "address": "石城大道中路20号", "image": "", "rank": 34, "time": 2, "location": {"lat": 31.174135685509505, "lng": 112.59765997647857}, "feature": {"sight_features": "", "sight_content": ""}}, {"title": "怡乐园", "address": "阳春大街48号", "image": "", "rank": 35, "time": 2, "location": {"lat": 31.16901886177955, "lng": 112.5968865408243}, "feature": {"sight_features": "", "sight_content": ""}}, {"title": "红颜草莓", "address": "皇庄润德职业学校内8号棚", "image": "", "rank": 36, "time": 2, "location": {"lat": 40.020845187627636, "lng": 116.32423189588728}, "feature": {"sight_features": "", "sight_content": ""}}, {"title": "Iplay 爱玩亲子欢乐园", "address": "王府大道新中百四楼", "image": "", "rank": 37, "time": 2, "location": {"lat": 31.878398304851668, "lng": 120.55174017832329}, "feature": {"sight_features": "", "sight_content": ""}}, {"title": "乐淘淘欢乐园", "address": "阳春地下商场周六福入口", "image": "", "rank": 38, "time": 2, "location": {"lat": 22.17539287349243, "lng": 111.79100311364782}, "feature": {"sight_features": "", "sight_content": ""}}, {"title": "莫愁小湖农家乐", "address": "郢中街道莫愁湖博物馆旁", "image": "", "rank": 39, "time": 2, "location": {"lat": 31.19098759231629, "lng": 112.61863692647624}, "feature": {"sight_features": "", "sight_content": ""}}, {"title": "鼎泰丰农庄", "address": "东桥镇311省道", "image": "", "rank": 40, "time": null, "location": {"lat": 31.186802862795314, "lng": 112.75976489472286}, "feature": {"sight_features": "", "sight_content": ""}}, {"title": "稻草人蜡像馆", "address": "彭墩乡村世界", "image": "", "rank": 41, "time": 2, "location": {"lat": 21.78694894998324, "lng": 109.62232243577267}, "feature": {"sight_features": "", "sight_content": ""}}, {"title": "钟祥盆景园", "address": "金福祥大道北50米", "image": "", "rank": 42, "time": 2, "location": {"lat": 31.16560770404837, "lng": 112.61792762354726}, "feature": {"sight_features": "", "sight_content": ""}}, {"title": "泡沫剧场", "address": "石城大道中路20号", "image": "", "rank": 43, "time": 2, "location": {"lat": 31.174135685509505, "lng": 112.59765997647857}, "feature": {"sight_features": "", "sight_content": ""}}, {"title": "荆门大柴湖宏强休闲农业有限公司", "address": "柴湖镇红卫村", "image": "", "rank": 44, "time": 4.5, "location": {"lat": 31.063351867776337, "lng": 112.64878887251201}, "feature": {"sight_features": "", "sight_content": ""}}, {"title": "百年好合爱情花谷", "address": "柴湖镇红卫村", "image": "", "rank": 45, "time": 2, "location": {"lat": 31.063351867776337, "lng": 112.64878887251201}, "feature": {"sight_features": "", "sight_content": ""}}, {"title": "永鸿基生态园", "address": "207国道东50米", "image": "", "rank": 46, "time": 2, "location": {"lat": 38.67484937592033, "lng": 114.04882818119982}, "feature": {"sight_features": "", "sight_content": ""}}, {"title": "董舞乐队", "address": "张前路附近S216", "image": "", "rank": 47, "time": 2, "location": {"lat": 31.728114777869397, "lng": 118.64950002392489}, "feature": {"sight_features": "", "sight_content": ""}}, {"title": "文学艺术界联合会(城南联络处)", "address": "曙光村委会附近", "image": "", "rank": 48, "time": 2, "location": {"lat": 43.23924801751701, "lng": 123.70051704494914}, "feature": {"sight_features": "", "sight_content": ""}}, {"title": "钟祥红丹牡丹园", "address": "罗城小学西南1500米处", "image": "", "rank": 49, "time": 4.5, "location": {"lat": 31.036922033920725, "lng": 112.64643905351834}, "feature": {"sight_features": "", "sight_content": ""}}, {"title": "明显陵旅游景区", "address": "湖北省荆门市钟祥市", "image": "", "rank": 50, "time": 2, "location": {"lat": 31.174029854963006, "lng": 112.59447102156223}, "feature": {"sight_features": "", "sight_content": ""}}, {"title": "兴源阁足浴停车住宿棋牌", "address": "荆门市-钟祥市-G207(锡海线)", "image": "", "rank": 51, "time": 2, "location": {"lat": 31.174029854963006, "lng": 112.59447102156223}, "feature": {"sight_features": "", "sight_content": ""}}, {"title": "枯岗岭", "address": "荆门市-钟祥市", "image": "", "rank": 52, "time": 2, "location": {"lat": 31.174029854963006, "lng": 112.59447102156223}, "feature": {"sight_features": "", "sight_content": ""}}, {"title": "洪山寺水库", "address": "荆门市-钟祥市", "image": "", "rank": 53, "time": 2, "location": {"lat": 31.174029854963006, "lng": 112.59447102156223}, "feature": {"sight_features": "", "sight_content": ""}}, {"title": "大洪山革命历史纪念馆", "address": "荆门市-钟祥市-明清街东1号", "image": "", "rank": 54, "time": 2, "location": {"lat": 31.17188989354655, "lng": 112.58979929213042}, "feature": {"sight_features": "", "sight_content": ""}}, {"title": "元佑宫", "address": "荆门市钟祥市元佑路5号", "image": "", "rank": 55, "time": 2, "location": {"lat": 31.167252070138474, "lng": 112.6006628788492}, "feature": {"sight_features": "", "sight_content": ""}}, {"title": "大口弥陀寺", "address": "湖北省荆门市钟祥市大口国家森林公园弥陀寺", "image": "", "rank": 56, "time": 2, "location": {"lat": 31.10906980723517, "lng": 112.81926486175287}, "feature": {"sight_features": "", "sight_content": ""}}]}