{"cityName": "中江", "days": null, "cityImage": "", "spots": [{"title": "黄继光纪念馆", "address": "德阳市中江县凯江镇东河路下段1号", "image": "", "rank": 1, "time": 2, "location": {"lat": 31.041061110149883, "lng": 104.68956912438692}, "feature": {"sight_features": "", "sight_content": ""}}, {"title": "白塔寺", "address": "德阳市中江县东北镇仿古街169号", "image": "", "rank": 2, "time": 1.0, "location": {"lat": 31.055665191268975, "lng": 104.68393610744923}, "feature": {"sight_features": "", "sight_content": ""}}, {"title": "中江博物馆", "address": "德阳市中江县二环路附近", "image": "", "rank": 3, "time": 2.5, "location": {"lat": 31.033376799052935, "lng": 104.66409690629521}, "feature": {"sight_features": "", "sight_content": ""}}, {"title": "芍药谷滑翔伞体验", "address": "德阳市中江县集凤镇银冯村1组", "image": "", "rank": 4, "time": 2, "location": {"lat": 31.030622660858775, "lng": 104.57685960430464}, "feature": {"sight_features": "", "sight_content": ""}}, {"title": "欢乐6+1", "address": "滨河路14", "image": "", "rank": 5, "time": 2, "location": {"lat": 42.0145963177645, "lng": 121.66966697936537}, "feature": {"sight_features": "", "sight_content": ""}}, {"title": "芍药谷", "address": "集凤镇石垭子村", "image": "", "rank": 6, "time": 2, "location": {"lat": 31.01489088480317, "lng": 104.6032102636766}, "feature": {"sight_features": "", "sight_content": ""}}, {"title": "中江县原野野鸡专业合作社", "address": "兴青村4组", "image": "", "rank": 7, "time": 2, "location": {"lat": 30.87137421731089, "lng": 104.68685617078066}, "feature": {"sight_features": "", "sight_content": ""}}, {"title": "庆丰生态园", "address": "农夫果园附近", "image": "", "rank": 8, "time": 2, "location": {"lat": 39.885467624650865, "lng": 116.46827567758197}, "feature": {"sight_features": "", "sight_content": ""}}, {"title": "继光水库", "address": "四川省中江县继光镇 618104", "image": "", "rank": 9, "time": 2, "location": {"lat": 30.825506520690325, "lng": 104.88601576551474}, "feature": {"sight_features": "", "sight_content": ""}}, {"title": "巍螺山", "address": "四川省中江县会棚乡 618100", "image": "", "rank": 10, "time": 2, "location": {"lat": 31.077263843813423, "lng": 104.57170816535763}, "feature": {"sight_features": "", "sight_content": ""}}, {"title": "邓家祠堂", "address": "德阳市中江县冯广路", "image": "", "rank": 11, "time": 2, "location": {"lat": 30.651759858546473, "lng": 104.89301672567626}, "feature": {"sight_features": "", "sight_content": ""}}, {"title": "阮家祠堂", "address": "德阳市中江县积淮路", "image": "", "rank": 12, "time": 1.5, "location": {"lat": 30.72714222528665, "lng": 104.84723476232642}, "feature": {"sight_features": "", "sight_content": ""}}, {"title": "钟家祠堂", "address": "德阳市中江县玉兴--辑庆公路", "image": "", "rank": 13, "time": 2, "location": {"lat": 30.941514859542515, "lng": 104.73741807344403}, "feature": {"sight_features": "", "sight_content": ""}}, {"title": "玄武观", "address": "东河路下段附近", "image": "", "rank": 14, "time": 2, "location": {"lat": 31.03564820790366, "lng": 104.68668745283638}, "feature": {"sight_features": "", "sight_content": ""}}, {"title": "乐呗公园", "address": "一环路东段555号华诚广场", "image": "", "rank": 15, "time": 2, "location": {"lat": 31.03851096016773, "lng": 104.70148900879217}, "feature": {"sight_features": "", "sight_content": ""}}, {"title": "黄家祠堂", "address": "凯江镇多伦多庄园前行500米", "image": "", "rank": 16, "time": 2, "location": {"lat": 31.037672327369354, "lng": 104.69474487866749}, "feature": {"sight_features": "", "sight_content": ""}}, {"title": "龙池寺", "address": "四川省德阳市中江县桃园路", "image": "", "rank": 17, "time": 2, "location": {"lat": 31.076332343366595, "lng": 104.76575503092575}, "feature": {"sight_features": "", "sight_content": ""}}, {"title": "尹氏宗祠", "address": "四川省德阳市中江县芦德路", "image": "", "rank": 18, "time": 2, "location": {"lat": 31.15217115526885, "lng": 104.65145400992058}, "feature": {"sight_features": "", "sight_content": ""}}, {"title": "锦上花庄园度假村", "address": "德阳中江县二环路与坭金路交界处（近张家垭口）", "image": "", "rank": 19, "time": 2, "location": {"lat": 31.062412989354485, "lng": 104.70115144354763}, "feature": {"sight_features": "", "sight_content": ""}}, {"title": "北塔游乐园", "address": "伍城北路313号", "image": "", "rank": 20, "time": 2, "location": {"lat": 31.05343337329788, "lng": 104.68735236330367}, "feature": {"sight_features": "", "sight_content": ""}}, {"title": "市外桃源休闲山庄", "address": "朝阳东路附近", "image": "", "rank": 21, "time": 2, "location": {"lat": 42.74045077827467, "lng": 123.36891542431738}, "feature": {"sight_features": "", "sight_content": ""}}, {"title": "鸿林夜啤酒广场", "address": "凯江湖南路与琪达巷交叉口东50米", "image": "", "rank": 22, "time": 2, "location": {"lat": 31.032548058003407, "lng": 104.68315220653578}, "feature": {"sight_features": "", "sight_content": ""}}, {"title": "黑慕尼原浆啤酒广场", "address": "荷花街实验中学西侧200米路北", "image": "", "rank": 23, "time": 2, "location": {"lat": 26.428930743366777, "lng": 112.83891877932115}, "feature": {"sight_features": "", "sight_content": ""}}, {"title": "财神殿", "address": "人民西路137号", "image": "", "rank": 24, "time": 2, "location": {"lat": 31.054168563426604, "lng": 121.758595313631}, "feature": {"sight_features": "", "sight_content": ""}}, {"title": "田家祠堂", "address": "德阳市中江县仓山--谭受路", "image": "", "rank": 25, "time": 2, "location": {"lat": 31.038953695301622, "lng": 104.6855301505767}, "feature": {"sight_features": "", "sight_content": ""}}, {"title": "儿童乐园", "address": "仓永路127号附近", "image": "", "rank": 26, "time": 2, "location": {"lat": 30.631167962262023, "lng": 105.06071635331453}, "feature": {"sight_features": "", "sight_content": ""}}, {"title": "张家祠堂", "address": "德阳市中江县继广路", "image": "", "rank": 27, "time": 2, "location": {"lat": 30.788854964254096, "lng": 104.92581708296572}, "feature": {"sight_features": "", "sight_content": ""}}, {"title": "罗家祠堂", "address": "德阳市中江县", "image": "", "rank": 28, "time": 2, "location": {"lat": 31.038953695301622, "lng": 104.6855301505767}, "feature": {"sight_features": "", "sight_content": ""}}, {"title": "镇江寺", "address": "四川省德阳市中江县玄武西路", "image": "", "rank": 29, "time": 1.0, "location": {"lat": 31.03815813061817, "lng": 104.68523948765943}, "feature": {"sight_features": "", "sight_content": ""}}, {"title": "黄家祠堂", "address": "德阳市中江县集三路", "image": "", "rank": 30, "time": 2, "location": {"lat": 31.026149762692498, "lng": 104.58090852415349}, "feature": {"sight_features": "", "sight_content": ""}}, {"title": "嘉杰欢乐城(洋洋百货店)", "address": "伍城南路88号（洋洋百货3楼）", "image": "", "rank": 31, "time": 2, "location": {"lat": 31.038560352395034, "lng": 104.68406133123732}, "feature": {"sight_features": "", "sight_content": ""}}, {"title": "石笋像馆", "address": "兴笋街96号附近", "image": "", "rank": 32, "time": 2, "location": {"lat": 30.789809697061173, "lng": 104.72793457234464}, "feature": {"sight_features": "", "sight_content": ""}}, {"title": "玄武公园", "address": "四川省德阳市中江县凯江镇继光大道中段894号", "image": "", "rank": 33, "time": 2, "location": {"lat": 31.03644083631303, "lng": 104.69183697390113}, "feature": {"sight_features": "", "sight_content": ""}}, {"title": "寿宁寺由此上山", "address": "四川省德阳市中江县S106(西江北路)", "image": "", "rank": 34, "time": 2, "location": {"lat": 31.045099690053025, "lng": 104.67551627732793}, "feature": {"sight_features": "", "sight_content": ""}}, {"title": "泰江中央公园", "address": "四川省德阳市中江县", "image": "", "rank": 35, "time": 2, "location": {"lat": 31.038953695301622, "lng": 104.6855301505767}, "feature": {"sight_features": "", "sight_content": ""}}, {"title": "中江古店石林", "address": "中江古店乡", "image": "", "rank": 36, "time": 2, "location": {"lat": 31.005814822286762, "lng": 104.51436337517835}, "feature": {"sight_features": "", "sight_content": ""}}, {"title": "中江图书馆", "address": "东河路2号", "image": "", "rank": 37, "time": 1.5, "location": {"lat": 29.895159547486724, "lng": 121.81394584914926}, "feature": {"sight_features": "", "sight_content": ""}}, {"title": "金银山游乐园", "address": "南华镇回归路106号", "image": "", "rank": 38, "time": 2, "location": {"lat": 31.027269519935835, "lng": 104.67956347512512}, "feature": {"sight_features": "", "sight_content": ""}}, {"title": "中江书画院", "address": "东河路下段1号", "image": "", "rank": 39, "time": 1.0, "location": {"lat": 31.041061110149883, "lng": 104.68956912438692}, "feature": {"sight_features": "", "sight_content": ""}}, {"title": "涌泉草莓采摘园", "address": "桐山大道星源驾校东北150米", "image": "", "rank": 40, "time": 2, "location": {"lat": 26.908203406758396, "lng": 112.53150185625621}, "feature": {"sight_features": "", "sight_content": ""}}, {"title": "无公害草莓采摘园(中江店)", "address": "东北镇堡家村三社1号", "image": "", "rank": 41, "time": 2, "location": {"lat": 31.08171681552733, "lng": 104.71073691939021}, "feature": {"sight_features": "", "sight_content": ""}}, {"title": "尖寨荷塘农业观光园", "address": "合兴乡尖寨村(合兴水库旁)", "image": "", "rank": 42, "time": 2, "location": {"lat": 30.96455547801502, "lng": 104.61321457356489}, "feature": {"sight_features": "", "sight_content": ""}}, {"title": "中江秋和文化传媒部", "address": "飞龙路219号", "image": "", "rank": 43, "time": 2, "location": {"lat": 27.56610777482663, "lng": 119.72470059920421}, "feature": {"sight_features": "", "sight_content": ""}}, {"title": "北塔寺", "address": "四川省中江县凯江镇", "image": "", "rank": 44, "time": 2, "location": {"lat": 31.03762633108081, "lng": 104.68285883971895}, "feature": {"sight_features": "", "sight_content": ""}}, {"title": "万花园商业步行街", "address": "四川省中江县公园街", "image": "", "rank": 45, "time": 2, "location": {"lat": 31.03992865564685, "lng": 104.6858806891494}, "feature": {"sight_features": "", "sight_content": ""}}, {"title": "泰和名居商业街", "address": "四川省中江县下南街", "image": "", "rank": 46, "time": 2, "location": {"lat": 31.036723158296535, "lng": 104.68295025218595}, "feature": {"sight_features": "", "sight_content": ""}}, {"title": "中江黄鹿水库", "address": "四川省德阳市中江县黄鹿水库", "image": "", "rank": 47, "time": 2, "location": {"lat": 31.038953695301622, "lng": 104.6855301505767}, "feature": {"sight_features": "", "sight_content": ""}}]}