{"cityName": "中阳", "days": 2, "cityImage": "", "spots": [{"title": "柏窳山", "address": "山西省中阳县县城东五公里处 033400", "image": "", "rank": 1, "time": 2, "location": {"lat": 37.362872792380124, "lng": 111.18562956482637}, "feature": {"sight_features": "", "sight_content": ""}}, {"title": "图书馆", "address": "南正街", "image": "", "rank": 2, "time": 1.0, "location": {"lat": 32.997564602082136, "lng": 110.43256172858283}, "feature": {"sight_features": "", "sight_content": ""}}, {"title": "涓瑞儿童乐园", "address": "西街环线滨河小区前门50米", "image": "", "rank": 3, "time": 2, "location": {"lat": 37.35509175789842, "lng": 111.19205252378208}, "feature": {"sight_features": "", "sight_content": ""}}, {"title": "中阳森源花卉基地", "address": "340省道附近", "image": "", "rank": 4, "time": 2, "location": {"lat": 37.49955179371298, "lng": 111.09129760491808}, "feature": {"sight_features": "", "sight_content": ""}}, {"title": "刘毅渔乐场", "address": "宁乡镇后沟村", "image": "", "rank": 5, "time": 2, "location": {"lat": 37.39131513586219, "lng": 111.18550644397148}, "feature": {"sight_features": "", "sight_content": ""}}, {"title": "贺龙庙", "address": "吕梁市中阳县", "image": "", "rank": 6, "time": 2, "location": {"lat": 37.362872792380124, "lng": 111.18562956482637}, "feature": {"sight_features": "", "sight_content": ""}}, {"title": "紫金山公园", "address": "紫金路附近", "image": "", "rank": 7, "time": 2, "location": {"lat": 37.09185352618218, "lng": 114.46050242478653}, "feature": {"sight_features": "", "sight_content": ""}}, {"title": "广场植物园", "address": "千禧路附近", "image": "", "rank": 8, "time": 2, "location": {"lat": 39.51863593648475, "lng": 118.68057578195729}, "feature": {"sight_features": "", "sight_content": ""}}, {"title": "艺林美术馆", "address": "南正街龙兴苑小区", "image": "", "rank": 9, "time": 2, "location": {"lat": 41.742030873297246, "lng": 86.18681669265098}, "feature": {"sight_features": "", "sight_content": ""}}]}