{"cityName": "中牟", "days": 2, "cityImage": "", "spots": [{"title": "沙窝森林公园", "address": "郑州市中牟县雁鸣湖镇朱固村南（沙窝森林公园）", "image": "", "rank": 1, "time": 2.0, "location": {"lat": 34.86537191401085, "lng": 114.1251766064766}, "feature": {"sight_features": "特色1 一体的生态农林业观光园，更是一个亲子郊游的好去处！", "sight_content": "沙窝森林公园位于中牟国家农业公园南万亩生态槐林核心区域，滨临雁鸣湖，占地面积1000余亩。\n是一个以休闲、度假、聚会、亲子娱乐体验为一体的生态农林业观光园，更是一个亲子郊游的好去处。"}}, {"title": "雁鸣蟹岛滑雪场", "address": "郑州市中牟县东漳乡境内(雁鸣大道与橡树路交叉口)", "image": "", "rank": 2, "time": 2, "location": {"lat": 34.85792775733023, "lng": 114.07881147037611}, "feature": {"sight_features": "", "sight_content": ""}}, {"title": "雁鸣湖生态园区", "address": "002县道西50米", "image": "", "rank": 3, "time": 2, "location": {"lat": 34.850886824260115, "lng": 114.07352780984108}, "feature": {"sight_features": "", "sight_content": ""}}, {"title": "官渡古战场", "address": "河南省郑州市中牟县城官渡桥村", "image": "", "rank": 4, "time": 2, "location": {"lat": 34.72501084892361, "lng": 113.98248490572702}, "feature": {"sight_features": "", "sight_content": ""}}, {"title": "每日鲜草莓", "address": "郑开大道东湖站", "image": "", "rank": 5, "time": 2, "location": {"lat": 34.80883637923844, "lng": 114.25393601815644}, "feature": {"sight_features": "", "sight_content": ""}}, {"title": "中牟二高足球场", "address": "青年路街道荟萃路与泰安街交叉口", "image": "", "rank": 6, "time": 2, "location": {"lat": 34.73696438613171, "lng": 114.01111797434889}, "feature": {"sight_features": "", "sight_content": ""}}, {"title": "潘安故里游乐园", "address": "建设南路20号", "image": "", "rank": 7, "time": 2, "location": {"lat": 38.0361858340522, "lng": 114.15259765525353}, "feature": {"sight_features": "", "sight_content": ""}}, {"title": "康清池水上乐园", "address": "220国道", "image": "", "rank": 8, "time": 2, "location": {"lat": 37.17596288433241, "lng": 117.3770162573979}, "feature": {"sight_features": "", "sight_content": ""}}, {"title": "郑州工商学院图书馆", "address": "刘集镇", "image": "", "rank": 9, "time": 3.5, "location": {"lat": 34.361514737053966, "lng": 117.06893202439011}, "feature": {"sight_features": "", "sight_content": ""}}, {"title": "丽都温泉", "address": "郑州市中牟县官渡大街东段，城东路官渡大街交叉口向东300米路北", "image": "", "rank": 10, "time": 2, "location": {"lat": 34.73101975670795, "lng": 114.02713572008379}, "feature": {"sight_features": "", "sight_content": ""}}, {"title": "新世纪温泉洗浴", "address": "郑州市中牟县商都大街北侧", "image": "", "rank": 11, "time": 2, "location": {"lat": 34.73968630880243, "lng": 113.88558163612697}, "feature": {"sight_features": "特色1 放松自我，健康养生", "sight_content": "新世纪温泉位于新世纪温泉酒店内，干净、整洁、宽敞明亮、舒适的温泉环境，配套设施齐全，服务周到。"}}, {"title": "中国厨房文化博物馆", "address": "新安路东段10号", "image": "", "rank": 12, "time": 2, "location": {"lat": 34.70497156790385, "lng": 113.91190019095829}, "feature": {"sight_features": "", "sight_content": ""}}, {"title": "黄河春天·十方缘“活”葡萄生态...", "address": "官渡镇许村", "image": "", "rank": 13, "time": 2, "location": {"lat": 34.7616303347787, "lng": 114.10123031659873}, "feature": {"sight_features": "", "sight_content": ""}}, {"title": "中牟县图书馆", "address": "青年路(中牟县民政局西北)", "image": "", "rank": 14, "time": 2, "location": {"lat": 34.74579254357391, "lng": 113.89077955160445}, "feature": {"sight_features": "", "sight_content": ""}}, {"title": "小超农家乐", "address": "刘集镇木楼农场", "image": "", "rank": 15, "time": 2, "location": {"lat": 34.361514737053966, "lng": 117.06893202439011}, "feature": {"sight_features": "", "sight_content": ""}}, {"title": "丽水金沙温泉", "address": "白沙镇恒通路6号", "image": "", "rank": 16, "time": 1.5, "location": {"lat": 34.74749613620696, "lng": 113.90258669417666}, "feature": {"sight_features": "", "sight_content": ""}}, {"title": "槐林农庄垂钓中心", "address": "雁鸣大道附近", "image": "", "rank": 17, "time": 2, "location": {"lat": 24.434290169626667, "lng": 116.38756167860231}, "feature": {"sight_features": "", "sight_content": ""}}, {"title": "桂园生态农庄", "address": "019乡道附近", "image": "", "rank": 18, "time": 2, "location": {"lat": 32.89884991969997, "lng": 117.44678438461058}, "feature": {"sight_features": "", "sight_content": ""}}, {"title": "东波蔬菜种植农民专业合作社(东...", "address": "220国道附近", "image": "", "rank": 19, "time": 2, "location": {"lat": 37.17596288433241, "lng": 117.3770162573979}, "feature": {"sight_features": "", "sight_content": ""}}, {"title": "中牟县鑫源蔬菜专业合作社", "address": "017县道附近", "image": "", "rank": 20, "time": 2, "location": {"lat": 40.244784912173685, "lng": 116.54008088591148}, "feature": {"sight_features": "", "sight_content": ""}}, {"title": "上海芷尘农业", "address": "万洪路", "image": "", "rank": 21, "time": 2.0, "location": {"lat": 34.69816139324877, "lng": 114.00398186142849}, "feature": {"sight_features": "", "sight_content": ""}}, {"title": "碧海湾水上乐园", "address": "郑港七路郑港七街交叉口向南400米路西", "image": "", "rank": 22, "time": 2, "location": {"lat": 34.56933743289, "lng": 113.8695473957063}, "feature": {"sight_features": "", "sight_content": ""}}, {"title": "生命之光", "address": "郑开大道与人文路交汇口向南2公里方特欢乐世界内(绿博园正对面)", "image": "", "rank": 23, "time": 0.3, "location": {"lat": 34.76938927428727, "lng": 113.93541892514224}, "feature": {"sight_features": "", "sight_content": ""}}, {"title": "月亮湾旅游休闲农庄", "address": "雁鸣大道芦岗学校东北侧", "image": "", "rank": 24, "time": 2, "location": {"lat": 34.84379013576931, "lng": 114.03906134645786}, "feature": {"sight_features": "", "sight_content": ""}}, {"title": "飞翔之歌", "address": "郑开大道与人文路交汇口向南2公里方特欢乐世界内(绿博园正对面)", "image": "", "rank": 25, "time": 2, "location": {"lat": 34.76938927428727, "lng": 113.93541892514224}, "feature": {"sight_features": "", "sight_content": ""}}, {"title": "西瓜葡萄采摘生态园", "address": "万滩镇县直第五小学西侧", "image": "", "rank": 26, "time": 2, "location": {"lat": 34.87609413153997, "lng": 114.00091392443383}, "feature": {"sight_features": "", "sight_content": ""}}, {"title": "雁鸣蟹岛沙滩浴场水上乐园", "address": "雁鸣湖镇小店村南", "image": "", "rank": 27, "time": 2, "location": {"lat": 34.83570842568197, "lng": 114.09555443072549}, "feature": {"sight_features": "", "sight_content": ""}}, {"title": "中牟沙窝大丰收农家饭果蔬采摘园", "address": "沙窝深林公园", "image": "", "rank": 28, "time": 2, "location": {"lat": 28.281491755104902, "lng": 116.39967643780766}, "feature": {"sight_features": "", "sight_content": ""}}, {"title": "波浪翻滚", "address": "郑州市中牟县郑开大道与人文路交汇口向南2公里(绿博园正对面)方特欢乐世界内", "image": "", "rank": 29, "time": 0.1, "location": {"lat": 34.76938927428727, "lng": 113.93541892514224}, "feature": {"sight_features": "", "sight_content": ""}}, {"title": "金科伟业(西坛巷)", "address": "西坛巷与青年西路交叉口北150米", "image": "", "rank": 30, "time": 2, "location": {"lat": 34.733901655935654, "lng": 114.01854852037478}, "feature": {"sight_features": "", "sight_content": ""}}, {"title": "雁鸣蟹岛", "address": "郑州市中牟县雁鸣湖镇小店村境内", "image": "", "rank": 31, "time": 2, "location": {"lat": 34.83570842568197, "lng": 114.09555443072549}, "feature": {"sight_features": "", "sight_content": "雁鸣蟹岛景区位于雁鸣湖镇小店村境内，景区占地3000亩，水域面积1000亩，林地面积1000亩，含沙滩浴场，沙滩摩托、射击运动、趣味活动、滑雪场、水上划船、生态住房等，是集生态观光、休闲度假、森林人家、森林穿越、拓展训练于一体的原生态旅游风景区。"}}, {"title": "樱桃园啤酒广场", "address": "近郊保税北路", "image": "", "rank": 32, "time": 2, "location": {"lat": 39.43462606351774, "lng": 117.06664583686722}, "feature": {"sight_features": "", "sight_content": ""}}, {"title": "港区之夜啤酒广场", "address": "郑港四街附近", "image": "", "rank": 33, "time": 2, "location": {"lat": 34.57278636701506, "lng": 113.86604659133727}, "feature": {"sight_features": "", "sight_content": ""}}, {"title": "福晋园", "address": "成才路和平巷向西200米", "image": "", "rank": 34, "time": 2, "location": {"lat": 34.728168992515634, "lng": 114.00015695112636}, "feature": {"sight_features": "", "sight_content": ""}}, {"title": "金星啤酒广场", "address": "郑州市中牟县", "image": "", "rank": 35, "time": null, "location": {"lat": 34.72501084892361, "lng": 113.98248490572702}, "feature": {"sight_features": "", "sight_content": ""}}, {"title": "儿童亲子乐园", "address": "西城巷与青年西路交叉口中牟大厦3楼6楼", "image": "", "rank": 36, "time": 2, "location": {"lat": 34.73086127574718, "lng": 114.03102536317927}, "feature": {"sight_features": "", "sight_content": ""}}, {"title": "壹号公园", "address": "中牟县商都大道与新圃街交叉口路南", "image": "", "rank": 37, "time": 2, "location": {"lat": 34.72374900461499, "lng": 113.99240042530211}, "feature": {"sight_features": "", "sight_content": ""}}, {"title": "城市庆典广场", "address": "商都大道与新圃街交汇处路南", "image": "", "rank": 38, "time": 2, "location": {"lat": 21.61293072722965, "lng": 110.28820210352386}, "feature": {"sight_features": "", "sight_content": ""}}, {"title": "十字路文化广场", "address": "十字路 附近", "image": "", "rank": 39, "time": 2, "location": {"lat": 31.171381859588287, "lng": 121.27676159513791}, "feature": {"sight_features": "", "sight_content": ""}}, {"title": "开心哈乐 儿童主题亲子乐园", "address": "郑州市中牟县郑港七路山顶·福都时代广场B1层", "image": "", "rank": 40, "time": 2, "location": {"lat": 34.569244337440296, "lng": 113.86875703238302}, "feature": {"sight_features": "", "sight_content": ""}}, {"title": "中牟县慈胜寺", "address": "河南省郑州市中牟县宏业路", "image": "", "rank": 41, "time": 2, "location": {"lat": 34.62201119490927, "lng": 113.95615478251733}, "feature": {"sight_features": "", "sight_content": ""}}, {"title": "岳圣寺", "address": "郑州市中牟县郑庵镇十里头正中大道", "image": "", "rank": 42, "time": 2, "location": {"lat": 34.67808324846976, "lng": 113.94798656148123}, "feature": {"sight_features": "", "sight_content": ""}}, {"title": "卡奇乐园", "address": "河南省郑州市中牟县g220", "image": "", "rank": 43, "time": 2, "location": {"lat": 34.72501084892361, "lng": 113.98248490572702}, "feature": {"sight_features": "", "sight_content": ""}}, {"title": "壹号公园(西区)", "address": "商都大道附近", "image": "", "rank": 44, "time": 2, "location": {"lat": 34.73049284118248, "lng": 113.93230206732783}, "feature": {"sight_features": "", "sight_content": ""}}, {"title": "四牟园", "address": "河南省郑州市中牟县广惠街街道文通路东方润景西150米", "image": "", "rank": 45, "time": 2, "location": {"lat": 34.725370793034955, "lng": 113.9628773434284}, "feature": {"sight_features": "", "sight_content": ""}}, {"title": "跃动畅想景观区", "address": "郑州市中牟县文博路", "image": "", "rank": 46, "time": 2, "location": {"lat": 34.71823381827072, "lng": 113.9713469953699}, "feature": {"sight_features": "", "sight_content": ""}}, {"title": "河南秀园景区", "address": "雁鸣湖镇东漳东村", "image": "", "rank": 47, "time": 2, "location": {"lat": 23.149717139070862, "lng": 113.31250087075172}, "feature": {"sight_features": "", "sight_content": ""}}, {"title": "七吉寺", "address": "河南省郑州市中牟县白沙镇雁鸣路七言寺(星联湾北)", "image": "", "rank": 48, "time": 2, "location": {"lat": 34.77734056526862, "lng": 113.90980537035651}, "feature": {"sight_features": "", "sight_content": ""}}, {"title": "树袋熊森林儿童乐园", "address": "中牟县办事处宇通和谐家园生活广场三楼", "image": "", "rank": 49, "time": 2, "location": {"lat": 34.69066733832068, "lng": 113.87482884371487}, "feature": {"sight_features": "", "sight_content": ""}}, {"title": "基督教会", "address": "小河刘村附近", "image": "", "rank": 50, "time": 2, "location": {"lat": 34.57957985871932, "lng": 113.87763930119779}, "feature": {"sight_features": "", "sight_content": ""}}, {"title": "中牟县基督教会", "address": "河南省郑州市中牟县永福街", "image": "", "rank": 51, "time": 2, "location": {"lat": 34.724227946720426, "lng": 113.9878488675882}, "feature": {"sight_features": "", "sight_content": ""}}, {"title": "跨世纪·儿童之家", "address": "西环路银榕花园小区附近", "image": "", "rank": 52, "time": 2, "location": {"lat": 34.728923746476546, "lng": 114.01598124587136}, "feature": {"sight_features": "", "sight_content": ""}}, {"title": "清凉一夏水上乐园", "address": "河南省郑州市中牟县新安路10号", "image": "", "rank": 53, "time": 2, "location": {"lat": 34.70493638293373, "lng": 113.87224920583273}, "feature": {"sight_features": "", "sight_content": ""}}, {"title": "卡莱贝儿童乐园", "address": "中兴路与官渡西路交叉口东北200米", "image": "", "rank": 54, "time": 2, "location": {"lat": 34.72860295708085, "lng": 114.01676801507432}, "feature": {"sight_features": "", "sight_content": ""}}, {"title": "梦之旅中牟文化展览馆", "address": "河南省郑州市中牟县学苑路与映旭街交叉口西南50米", "image": "", "rank": 55, "time": 2, "location": {"lat": 34.72168587297365, "lng": 113.96728688173609}, "feature": {"sight_features": "", "sight_content": ""}}, {"title": "芭贝乐儿童乐园", "address": "河南省郑州市中牟县", "image": "", "rank": 56, "time": 2, "location": {"lat": 34.72501084892361, "lng": 113.98248490572702}, "feature": {"sight_features": "", "sight_content": ""}}, {"title": "儿童乐园", "address": "郑州市中牟县解放路泰安购物广场2层", "image": "", "rank": 57, "time": 2, "location": {"lat": 34.73710094901345, "lng": 114.03716213277914}, "feature": {"sight_features": "", "sight_content": ""}}, {"title": "郑信公园", "address": "河南省郑州市金水区郑信路(东西两侧)", "image": "", "rank": 58, "time": 2, "location": {"lat": 34.80607044566173, "lng": 113.66644773239523}, "feature": {"sight_features": "", "sight_content": ""}}, {"title": "基督教会(中牟县卫生监督所北)", "address": "220国道附近", "image": "", "rank": 59, "time": 2, "location": {"lat": 37.17596288433241, "lng": 117.3770162573979}, "feature": {"sight_features": "", "sight_content": ""}}, {"title": "象湖生态湿地公园", "address": "河南省郑州市中牟县郑开大道前程路交叉口向北50米路西", "image": "", "rank": 60, "time": 2, "location": {"lat": 34.78754796838118, "lng": 113.95942598987938}, "feature": {"sight_features": "", "sight_content": ""}}]}