{"cityName": "仲巴", "days": 2, "cityImage": "", "spots": [{"title": "帕羊", "address": "日喀则市仲巴县帕羊镇", "image": "", "rank": 1, "time": 1.5, "location": {"lat": 30.04071327670969, "lng": 83.4736522276689}, "feature": {"sight_features": "", "sight_content": ""}}, {"title": "杰玛央宗冰川", "address": "日喀则市仲巴县和阿里地区普兰县交界处", "image": "", "rank": 2, "time": 2, "location": {"lat": 30.30016259107777, "lng": 81.18309473197418}, "feature": {"sight_features": "", "sight_content": ""}}, {"title": "仁青休布错", "address": "日喀则市仲巴县仁多乡", "image": "", "rank": 3, "time": 1.0, "location": {"lat": 31.305455551798765, "lng": 83.55864408415415}, "feature": {"sight_features": "", "sight_content": ""}}, {"title": "帕羊草原", "address": "日喀则市仲巴县帕羊镇", "image": "", "rank": 4, "time": 4.0, "location": {"lat": 30.04071327670969, "lng": 83.4736522276689}, "feature": {"sight_features": "", "sight_content": ""}}, {"title": "五彩沙漠", "address": "日喀则市仲巴县城至帕羊镇的途中新藏公路219国道旁", "image": "", "rank": 5, "time": 0.4, "location": {"lat": 30.04071327670969, "lng": 83.4736522276689}, "feature": {"sight_features": "", "sight_content": ""}}, {"title": "隆格尔寺", "address": "日喀则地区仲巴县", "image": "", "rank": 6, "time": 2, "location": {"lat": 29.775982232026415, "lng": 84.0381168769166}, "feature": {"sight_features": "", "sight_content": ""}}, {"title": "仁多乡", "address": "西藏自治区日喀则仲巴县仁多乡", "image": "", "rank": 7, "time": 2, "location": {"lat": 31.305455551798765, "lng": 83.55864408415415}, "feature": {"sight_features": "", "sight_content": ""}}, {"title": "塔若错", "address": "日喀则市仲巴县塔若错", "image": "", "rank": 8, "time": 1.5, "location": {"lat": 29.775982232026415, "lng": 84.0381168769166}, "feature": {"sight_features": "", "sight_content": ""}}, {"title": "冈仁波齐", "address": "阿里地区普兰县", "image": "", "rank": 9, "time": 4.5, "location": {"lat": 30.30016259107777, "lng": 81.18309473197418}, "feature": {"sight_features": "", "sight_content": ""}}]}