{"cityName": "钟山", "days": 2, "cityImage": "", "spots": [{"title": "广西省工委历史博物馆", "address": "贺州市钟山县清塘镇英家革命老区", "image": "", "rank": 1, "time": 2, "location": {"lat": 24.390607148684254, "lng": 111.0784374943716}, "feature": {"sight_features": "", "sight_content": ""}}, {"title": "十里画廊", "address": "幼儿园后门", "image": "", "rank": 2, "time": 2.0, "location": {"lat": 30.415661267023374, "lng": 103.80952516471449}, "feature": {"sight_features": "", "sight_content": ""}}, {"title": "钟山县图书馆", "address": "钟山南路21号", "image": "", "rank": 3, "time": 2, "location": {"lat": 24.536824947748375, "lng": 111.30784185966895}, "feature": {"sight_features": "", "sight_content": ""}}, {"title": "钟山县档案馆", "address": "广场路17号", "image": "", "rank": 4, "time": 2, "location": {"lat": 43.86495488150506, "lng": 126.51239825228464}, "feature": {"sight_features": "", "sight_content": ""}}, {"title": "钟山县红花镇桃加村廉政文化书屋", "address": "707县道西50米", "image": "", "rank": 5, "time": 2, "location": {"lat": 24.6272803970945, "lng": 111.18670153580528}, "feature": {"sight_features": "", "sight_content": ""}}, {"title": "大田戏台", "address": "广西壮族自治区钟山县公安镇大田村 542612", "image": "", "rank": 6, "time": 0.75, "location": {"lat": 24.47557061557999, "lng": 111.24776634292874}, "feature": {"sight_features": "", "sight_content": ""}}, {"title": "花山水库", "address": "广西壮族自治区钟山县花山瑶族乡 542616", "image": "", "rank": 7, "time": 2.5, "location": {"lat": 24.54884043100533, "lng": 111.13492093800583}, "feature": {"sight_features": "", "sight_content": ""}}, {"title": "三圣宫", "address": "广西壮族自治区贺州市钟山县清塘镇新竹村委岭脚村X723", "image": "", "rank": 8, "time": 2.0, "location": {"lat": 24.359901227569754, "lng": 111.11472385104501}, "feature": {"sight_features": "", "sight_content": ""}}, {"title": "梦幻成真儿童游乐园", "address": "兴钟中路16", "image": "", "rank": 9, "time": 2, "location": {"lat": 24.535480657201695, "lng": 111.30885300313032}, "feature": {"sight_features": "", "sight_content": ""}}, {"title": "军冲", "address": "贺州市钟山县", "image": "", "rank": 10, "time": 2, "location": {"lat": 24.53167310793877, "lng": 111.3095857401549}, "feature": {"sight_features": "", "sight_content": ""}}, {"title": "钟山公园", "address": "钟山东路61号", "image": "", "rank": 11, "time": 3.0, "location": {"lat": 29.994169376307404, "lng": 121.24951541672672}, "feature": {"sight_features": "", "sight_content": ""}}, {"title": "滨江公园", "address": "广西壮族自治区贺州市钟山县钟山中路60号", "image": "", "rank": 12, "time": 3.5, "location": {"lat": 24.53606343646958, "lng": 111.3166330699462}, "feature": {"sight_features": "", "sight_content": ""}}, {"title": "新世纪广场", "address": "钟山县兴钟中路10号", "image": "", "rank": 13, "time": 1.0, "location": {"lat": 24.534247951949, "lng": 111.30910978016703}, "feature": {"sight_features": "", "sight_content": ""}}, {"title": "日胜水族馆", "address": "钟山镇兴中路54号", "image": "", "rank": 14, "time": 2, "location": {"lat": 34.57218255537121, "lng": 117.74261175007052}, "feature": {"sight_features": "", "sight_content": ""}}, {"title": "寒三书画轩", "address": "塘桥路84附近", "image": "", "rank": 15, "time": 2, "location": {"lat": 31.22134021078449, "lng": 121.52013547835543}, "feature": {"sight_features": "", "sight_content": ""}}, {"title": "钟山县清塘镇寿乡宾原生态瑶鸡养...", "address": "X723清塘镇岭脚凤凰山凤凰泉(老水井路旁)", "image": "", "rank": 16, "time": 2, "location": {"lat": 25.540051603539908, "lng": 111.42182528113018}, "feature": {"sight_features": "", "sight_content": ""}}]}