{"cityName": "中宁", "days": 2, "cityImage": "", "spots": [{"title": "车门沟国盛旅游生态园", "address": "中卫市中宁县恩和镇红梧山幸福一村", "image": "", "rank": 1, "time": 2, "location": {"lat": 37.49960354032492, "lng": 105.77378407999622}, "feature": {"sight_features": "特色1 古色古乡古生态，好山好水好风光", "sight_content": "车门沟旅游区是宁夏中宁县国盛置业投资有限公司倾力打造集旅游、购物、休闲、游乐、度假为一体的综合性旅游景区，总投资3千余万元。\n自筹建以来，国盛人始终坚持“诚信、和谐、创新、共赢”的原则，以满足客户需求为己任，以实现“共赢”为目标。旅游区内餐饮、商业区既紧密结合、相互呼应，又各有分区，有条不紊，各分区内设不同的休闲娱乐项目和服务功能，种类丰富多样，能够满足不同年龄段的人群玩乐，在室外休闲区的中心，建有高档会所、餐厅、酒吧、健身房、住宿等娱乐休憩场所，形成完整、丰富而又有条理的室外休闲环境。\n在这里可以闲庭信步，可以垂钓、品茶，可以观湖、看山、赏花，玩惊险刺激的游乐项目，在这里淳朴好客的主人还为您准备了独具特色的农家美食、民间特色小吃，民族民俗工艺品、手工坊等特色，温馨舒适的住宿环境、精彩纷呈的演绎节目，再加上家人般热情周到的服务，一定会让您高兴而来满意而归。"}}, {"title": "清水河万亩出口枸杞示范基地", "address": "109国道东50米", "image": "", "rank": 2, "time": 2, "location": {"lat": 39.790711104970946, "lng": 109.9967802529065}, "feature": {"sight_features": "", "sight_content": ""}}, {"title": "双井子生态园", "address": "中卫市中宁县", "image": "", "rank": 3, "time": 2, "location": {"lat": 37.497420805578884, "lng": 105.69153719119848}, "feature": {"sight_features": "", "sight_content": ""}}, {"title": "凤鸣山庄", "address": "109国道附近", "image": "", "rank": 4, "time": 2, "location": {"lat": 39.790711104970946, "lng": 109.99633110015151}, "feature": {"sight_features": "", "sight_content": ""}}, {"title": "石空寺石窟", "address": "宁夏回族自治区中宁县石空镇 755103", "image": "", "rank": 5, "time": 1.0, "location": {"lat": 37.628637960610185, "lng": 105.73198086805525}, "feature": {"sight_features": "", "sight_content": ""}}, {"title": "为民·城市广场", "address": "宁安北街原城镇中学", "image": "", "rank": 6, "time": 2, "location": {"lat": 37.50573807387176, "lng": 105.67802294656394}, "feature": {"sight_features": "", "sight_content": ""}}, {"title": "跃进村清真大寺", "address": "宁夏回族自治区吴忠市青铜峡市白新路峡口镇跃进村村民委员会", "image": "", "rank": 7, "time": 2, "location": {"lat": 37.760383411752336, "lng": 105.97117763035196}, "feature": {"sight_features": "", "sight_content": ""}}, {"title": "清真寺", "address": "宁夏回族自治区中卫市沙坡头区", "image": "", "rank": 8, "time": 1.0, "location": {"lat": 37.50570141870293, "lng": 105.20357090088713}, "feature": {"sight_features": "", "sight_content": ""}}, {"title": "中卫市体育休闲公园", "address": "109国道东侧", "image": "", "rank": 9, "time": 4.5, "location": {"lat": 39.790711104970946, "lng": 109.99633110015151}, "feature": {"sight_features": "", "sight_content": ""}}, {"title": "中宁县枸杞博物馆", "address": "宁夏回族自治区中卫市中宁县滨河南路", "image": "", "rank": 10, "time": 2, "location": {"lat": 37.50056288729877, "lng": 105.51461436963471}, "feature": {"sight_features": "", "sight_content": ""}}, {"title": "高山寺", "address": "109国道东100米", "image": "", "rank": 11, "time": 2.0, "location": {"lat": 39.790711104970946, "lng": 109.99722940566149}, "feature": {"sight_features": "", "sight_content": ""}}, {"title": "卡奇乐儿童乐园", "address": "元丰路14-12", "image": "", "rank": 12, "time": 2, "location": {"lat": 37.500218921823965, "lng": 105.68407391361474}, "feature": {"sight_features": "", "sight_content": ""}}, {"title": "煜园", "address": "滨河路与老南路交叉口北50米", "image": "", "rank": 13, "time": 2, "location": {"lat": 37.48904091042993, "lng": 105.69817459095061}, "feature": {"sight_features": "", "sight_content": ""}}, {"title": "宁舟宝塔", "address": "宁舟线北50米", "image": "", "rank": 14, "time": 2, "location": {"lat": 37.48734655134011, "lng": 105.61532554012206}, "feature": {"sight_features": "", "sight_content": ""}}, {"title": "光明寺", "address": "中卫市中宁县", "image": "", "rank": 15, "time": 2, "location": {"lat": 37.497420805578884, "lng": 105.69153719119848}, "feature": {"sight_features": "", "sight_content": ""}}, {"title": "烈士纪念碑", "address": "滨河路北200米", "image": "", "rank": 16, "time": 2, "location": {"lat": 22.535934361525495, "lng": 114.07505832799819}, "feature": {"sight_features": "", "sight_content": ""}}, {"title": "富康广场", "address": "宁安南街与富民创业步行街交叉口东北100米", "image": "", "rank": 17, "time": 2, "location": {"lat": 25.228085092194785, "lng": 102.50447319700842}, "feature": {"sight_features": "", "sight_content": ""}}, {"title": "人民广场", "address": "团结路与平安东街交叉口西北150米", "image": "", "rank": 18, "time": 1.5, "location": {"lat": 37.496097465076964, "lng": 105.69240810198363}, "feature": {"sight_features": "", "sight_content": ""}}, {"title": "大佛殿", "address": "宁夏回族自治区中卫市中宁县裕民东街", "image": "", "rank": 19, "time": 2, "location": {"lat": 37.502065507570926, "lng": 105.68605252222932}, "feature": {"sight_features": "", "sight_content": ""}}, {"title": "白马清真寺", "address": "101省道附近", "image": "", "rank": 20, "time": 2, "location": {"lat": 41.03241923348195, "lng": 111.82384508727836}, "feature": {"sight_features": "", "sight_content": ""}}, {"title": "亲水湾农家乐", "address": "北街新枸杞市场往西2公里", "image": "", "rank": 21, "time": 2, "location": {"lat": 44.549006642451346, "lng": 82.62760026491442}, "feature": {"sight_features": "", "sight_content": ""}}, {"title": "中宁图书馆", "address": "宁安北街019号附近", "image": "", "rank": 22, "time": 1.5, "location": {"lat": 37.49638792169871, "lng": 105.68149880139575}, "feature": {"sight_features": "", "sight_content": ""}}, {"title": "中宁县红梧山大地生态枸杞种植基...", "address": "黄红路", "image": "", "rank": 23, "time": null, "location": {"lat": 33.9340329065026, "lng": 119.32146699270977}, "feature": {"sight_features": "", "sight_content": ""}}, {"title": "富民创业步行街", "address": "宁夏回族自治区中宁县中安南街", "image": "", "rank": 24, "time": 2, "location": {"lat": 37.497420805578884, "lng": 105.69153719119848}, "feature": {"sight_features": "", "sight_content": ""}}, {"title": "宁夏中卫市中宁县步行街", "address": "宁夏回族自治区中宁县宁安西街", "image": "", "rank": 25, "time": 2, "location": {"lat": 37.49473793507511, "lng": 105.67646806596349}, "feature": {"sight_features": "", "sight_content": ""}}, {"title": "大石头井", "address": "中卫市-中宁县-\"中卫市中宁县\"", "image": "", "rank": 26, "time": 2, "location": {"lat": 37.497420805578884, "lng": 105.69153719119848}, "feature": {"sight_features": "", "sight_content": ""}}, {"title": "中宁浆鳞鱼", "address": "宁夏回族自治区中宁县牛首山石峡沟 755100", "image": "", "rank": 27, "time": 2, "location": {"lat": 37.131513832007975, "lng": 105.55581148047523}, "feature": {"sight_features": "", "sight_content": ""}}, {"title": "双龙石窟", "address": "中卫市中宁县石空大佛寺内", "image": "", "rank": 28, "time": 2, "location": {"lat": 37.53673202676218, "lng": 105.57760451138465}, "feature": {"sight_features": "", "sight_content": ""}}]}