{"cityName": "中方", "days": 2, "cityImage": "", "spots": [{"title": "荆坪古村", "address": "怀化市中方县荆坪村(滨江大道荆坪大桥南边)", "image": "", "rank": 1, "time": 3.5, "location": {"lat": 27.430536404134763, "lng": 109.94947640647912}, "feature": {"sight_features": "", "sight_content": ""}}, {"title": "中国南方葡萄沟", "address": "湖南省怀化市中方县桐木镇大松坡村", "image": "", "rank": 2, "time": 2, "location": {"lat": 27.320895929033306, "lng": 109.86005335653427}, "feature": {"sight_features": "", "sight_content": ""}}, {"title": "毛田洲油菜花海", "address": "怀化市中方县", "image": "", "rank": 3, "time": 1.5, "location": {"lat": 27.446081174059824, "lng": 109.95146189431664}, "feature": {"sight_features": "", "sight_content": ""}}, {"title": "丽山源农家乐", "address": "向阳村附近", "image": "", "rank": 4, "time": null, "location": {"lat": 36.84226045379237, "lng": 112.86727707424318}, "feature": {"sight_features": "", "sight_content": ""}}, {"title": "桐木村药场", "address": "零四七县道", "image": "", "rank": 5, "time": 2, "location": {"lat": 37.10493695313129, "lng": 122.0012787490528}, "feature": {"sight_features": "", "sight_content": ""}}, {"title": "七彩金童亲子游乐园", "address": "桃园路与玫瑰路交叉口西50米", "image": "", "rank": 6, "time": null, "location": {"lat": 27.444224017371038, "lng": 109.95025062006569}, "feature": {"sight_features": "", "sight_content": ""}}, {"title": "黄溪瀑布", "address": "湖南省中方县铜湾镇黄溪村 418000", "image": "", "rank": 7, "time": 2, "location": {"lat": 27.572570148721915, "lng": 110.25388216725521}, "feature": {"sight_features": "", "sight_content": ""}}, {"title": "泉水湾度假村", "address": "怀化市中方县炉亭坳乡(原往安江方向320国道入口往里1200米)", "image": "", "rank": 8, "time": 2, "location": {"lat": 27.364772280542184, "lng": 110.00347980197408}, "feature": {"sight_features": "", "sight_content": ""}}, {"title": "莲华寺", "address": "湖南省怀化市中方县滨江大道", "image": "", "rank": 9, "time": 2, "location": {"lat": 27.425088135907398, "lng": 109.94758419419419}, "feature": {"sight_features": "", "sight_content": ""}}, {"title": "快乐宝贝游乐园", "address": "209国道附近", "image": "", "rank": 10, "time": 2, "location": {"lat": 29.50537463467816, "lng": 109.42537798613527}, "feature": {"sight_features": "", "sight_content": ""}}, {"title": "黄岩福音堂", "address": "怀化市中方县", "image": "", "rank": 11, "time": 0.25, "location": {"lat": 27.446081174059824, "lng": 109.95146189431664}, "feature": {"sight_features": "", "sight_content": ""}}, {"title": "横板桥度假村", "address": "312省道附近", "image": "", "rank": 12, "time": 2, "location": {"lat": 36.622905905946894, "lng": 114.42321002791304}, "feature": {"sight_features": "", "sight_content": ""}}, {"title": "黄岩旅游度假区", "address": "湖南省怀化市鹤城区黄岩乡大坪村", "image": "", "rank": 13, "time": 3.0, "location": {"lat": 27.47212191598852, "lng": 110.1007159143945}, "feature": {"sight_features": "", "sight_content": ""}}, {"title": "岩门溪水口山农家乐", "address": "312省道", "image": "", "rank": 14, "time": 2, "location": {"lat": 36.622905905946894, "lng": 114.42321002791304}, "feature": {"sight_features": "", "sight_content": ""}}, {"title": "提香庄园", "address": "泸阳镇加油站往花桥方向走2公里右转下坪村400米", "image": "", "rank": 15, "time": 2, "location": {"lat": 27.632996468257456, "lng": 110.14186614625008}, "feature": {"sight_features": "", "sight_content": ""}}, {"title": "寻味农庄", "address": "排楼镇陈家湾村三星桥东北100米", "image": "", "rank": 16, "time": 2, "location": {"lat": 27.320052483608265, "lng": 109.92142228858124}, "feature": {"sight_features": "", "sight_content": ""}}, {"title": "康龙自然保护区", "address": "湖南省中方县新建乡", "image": "", "rank": 17, "time": 2, "location": {"lat": 27.524625266667385, "lng": 110.19429516342404}, "feature": {"sight_features": "", "sight_content": ""}}, {"title": "仙人谷", "address": "湖南省中方县下坪乡", "image": "", "rank": 18, "time": 2, "location": {"lat": 27.61931726756327, "lng": 110.14141128386542}, "feature": {"sight_features": "", "sight_content": ""}}, {"title": "中方新石器遗址", "address": "湖南省中方县新建乡牛眠口村", "image": "", "rank": 19, "time": 3.5, "location": {"lat": 27.514812823579078, "lng": 110.19194988626379}, "feature": {"sight_features": "", "sight_content": ""}}, {"title": "地卢回龙观", "address": "湖南省中方县下坪乡", "image": "", "rank": 20, "time": 2, "location": {"lat": 27.61931726756327, "lng": 110.14141128386542}, "feature": {"sight_features": "", "sight_content": ""}}, {"title": "悬崖无边界游泳池", "address": "怀化市-中方县-黄岩度假区李木塘", "image": "", "rank": 21, "time": 2, "location": {"lat": 27.463191410350593, "lng": 110.07678449597226}, "feature": {"sight_features": "", "sight_content": ""}}, {"title": "泸阳林场", "address": "湖南省怀化市鹤城区石门乡", "image": "", "rank": 22, "time": 2, "location": {"lat": 27.583666027749118, "lng": 110.03287924825412}, "feature": {"sight_features": "", "sight_content": ""}}]}