{"cityName": "舟曲", "days": 2, "cityImage": "", "spots": [{"title": "拉尕山", "address": "甘南州舟曲县立节乡东南部的白龙江南岸", "image": "", "rank": 1, "time": 2.5, "location": {"lat": 33.901548861503244, "lng": 104.07605200528747}, "feature": {"sight_features": "", "sight_content": ""}}, {"title": "舟曲县拉尕山谈军军农家乐（集吃...", "address": "舟曲县拉尕山拉尕村12号", "image": "", "rank": 2, "time": 2, "location": {"lat": 33.790814973644174, "lng": 104.37748996238638}, "feature": {"sight_features": "", "sight_content": ""}}, {"title": "青松山庄", "address": "立节乡拉尕山东500米", "image": "", "rank": 3, "time": 2, "location": {"lat": 33.901548861503244, "lng": 104.07605200528747}, "feature": {"sight_features": "", "sight_content": ""}}, {"title": "岭草湿地公园", "address": "峰迭新区", "image": "", "rank": 4, "time": 2, "location": {"lat": 33.83648902568633, "lng": 104.22470113073847}, "feature": {"sight_features": "", "sight_content": ""}}, {"title": "纪念馆", "address": "甘南藏族自治州舟曲县城关镇88", "image": "", "rank": 5, "time": 1.5, "location": {"lat": 33.77705955162326, "lng": 104.32818393574122}, "feature": {"sight_features": "", "sight_content": ""}}, {"title": "占单寺", "address": "甘南藏族自治州舟曲县", "image": "", "rank": 6, "time": 2, "location": {"lat": 33.790814973644174, "lng": 104.37748996238638}, "feature": {"sight_features": "", "sight_content": ""}}, {"title": "春江广场", "address": "城关南街与城关西街交叉口东北50米", "image": "", "rank": 7, "time": 2, "location": {"lat": 29.65833125291544, "lng": 91.14510035237143}, "feature": {"sight_features": "", "sight_content": ""}}, {"title": "滨江农家乐园", "address": "西二街与313省道交叉口西南150米", "image": "", "rank": 8, "time": 2, "location": {"lat": 31.909199228140412, "lng": 121.30903625505988}, "feature": {"sight_features": "", "sight_content": ""}}, {"title": "锦仕来生态园", "address": "313省道南150米", "image": "", "rank": 9, "time": 2, "location": {"lat": 40.472603111787855, "lng": 116.99325005466613}, "feature": {"sight_features": "", "sight_content": ""}}, {"title": "好地坪村", "address": "甘南藏族自治州-舟曲县", "image": "", "rank": 10, "time": 2, "location": {"lat": 33.790814973644174, "lng": 104.37748996238638}, "feature": {"sight_features": "", "sight_content": ""}}, {"title": "赛尔布风景区", "address": "甘南州舟曲县憨班乡北侧的黑峪村", "image": "", "rank": 11, "time": 2, "location": {"lat": 33.93449798814401, "lng": 104.1829801398025}, "feature": {"sight_features": "", "sight_content": ""}}]}