{"cityName": "周至", "days": 2, "cityImage": "", "spots": [{"title": "楼观台国家森林公园", "address": "西安市周至县宗圣宫向南1公里", "image": "", "rank": 1, "time": 4.0, "location": {"lat": 34.06969172766998, "lng": 108.33436484732242}, "feature": {"sight_features": "", "sight_content": ""}}, {"title": "黑河国家森林公园", "address": "西安市周至县后林场（108国道398公里处）", "image": "", "rank": 2, "time": 3.0, "location": {"lat": 33.91656773759864, "lng": 108.12762746979783}, "feature": {"sight_features": "特色1 被誉为“北方的香格里拉” 特色2 大熊猫、金丝猴、羚牛等珍稀野生动物倘佯其间 特色3 春之山花烂漫，夏之密林蔽日、秋之红叶满山，冬之白雪皑皑", "sight_content": "陕西黑河国家森林公园位于秦岭腹地，黑河源头的西安市周至县境内，面积7462公顷，森林覆盖率达94%，108国道纵横相连，交通十分便捷。公园有黑河、大蟒河、厚畛子、大树沟四大景区，100多个景点。园区内森林茂密，奇峰若雕，怪石嶙峋，山水如画。大熊猫、金丝猴、羚牛等珍稀野生动物倘佯其间，傥骆道、营盘梁、钓鱼台、大蟒河、三义庙等历史人文景观，凸现着深沉厚重的文化积淀。春之山花烂漫，夏之密林蔽日，秋之红叶满山，冬之白雪皑皑，被誉为“北方的香格里拉”。\n黑河国家森林公园现已建成水苑山庄、铁甲山庄、熊猫山庄，集吃、住、行、游、购、娱为一体，日可接待游客3000余人。公园现已晋升为秦岭终南山世界地质公园核心景区、世界自然基金会生态旅游示范区、国家级森林公园、国家AAA级旅游景区。"}}, {"title": "沙河湿地公园", "address": "西安市周至县城南108国道旁", "image": "", "rank": 3, "time": 1.5, "location": {"lat": 33.91656773759864, "lng": 108.12762746979783}, "feature": {"sight_features": "", "sight_content": ""}}, {"title": "赵公明财神庙", "address": "西安市周至县赵公明财神庙", "image": "", "rank": 4, "time": 1.5, "location": {"lat": 34.08165083335479, "lng": 108.34863228609316}, "feature": {"sight_features": "特色1 寻根朝拜，祈福求财 特色2 财神赵公明演绎陕西新传奇", "sight_content": "赵公明财神庙 位于田峪河东岸，占地约531亩，开发以财神故里、众神传说、集贤鼓乐为代表的民俗文化旅游，打造祈福娱乐一体化的华夏文化寻根朝拜旅游项目，并将中国传统的道教文化和现代生活有机融合，给游客以深切的历史体验。\n赵公明财神庙景区演出包括财神文化和民俗文化两个部分，财神文化演出包括五路财神、财神祭拜仪式、财神巡游、财神赐福等民俗文化演出包括：集贤古乐、牛斗虎、道情、秦腔、跑竹马等陕西本土民俗内容。\n终南山古楼观景区是西安楼观中国道文化展示区的核心引擎，也是陕西省委、省政府实施“文化强”战略，西安市委、市政府全面贯彻落实《关中—天水经济区发展规划》的重要举措。景区开放于2012年3月1日，是我国著名的道教圣地之一，有“天下第一福地”“道教祖庭”“道源仙都”之美誉。\n景区建筑为明清风格依山而建，充分结合地形南高北低特点，坐南朝北依序展开；以太清门、上清门、玉清门三段划分轴线，形成道教“三清圣境”;以中轴大殿为节点形成九进院落空间，来表达道教对于世界的认知及其深厚的哲学思想。各大殿内集中供奉了道教三清尊神、四御尊神、民俗众神及道教宗师等各路福神，形成全球规模最大的道教宫观，充分彰显了“道源仙都”的大道气魄。\n延生观 位于西安市周至县楼观台西约3.5公里就峪口，始建于唐，曾称玉真观、玉真祠、升天台，为玉真公主修道的场所。景区规模宏大，占地面积114亩，素有“关中三观之首”的美誉。\n据碑石记载，唐景云年间，玄宗之妹玉真公主曾在京城入观修道，于楼观修建别馆，道号“延生”，敕赐馆名为“延生观”。玉真公主是唐睿宗之女，唐玄宗胞妹，少年时即与金仙公主一起奉唐睿宗之命入道，师从道士史崇玄。延生观为玉真公主纪念母亲而修建，寓意天下所有人长生不老。延生观宋代曾整修扩建，至明代仍很兴盛。建观以来，历代许多文人学士曾来此游览，李白、苏轼等在此留下许多诗篇、故事和轶闻。\n化女泉 位于道教圣地周至县楼观台的说经台以西1000米处。整个景区占地面积104亩。传说，老子有一天拄着拐杖来到这里，把拐杖插在地上，用吉祥草化作一个美女，借以考验弟子徐甲学道是否心诚，而后拔出拐杖，成为一眼汪泉。因此得名化女泉。\n化女泉的特色景点有品泉阁，圣母殿和仙姑殿。其中品泉阁位于园区的中心地段，圣母殿主要供奉的是九天圣母、骊山老母和无极老母。仙姑殿主要供奉的是何仙姑、虞仙姑和孙不二。殿内的壁画为仙姑施药图和孙不二升仙图。此处三景，乃游览化女泉的必经之地。"}}, {"title": "曲江薰衣草庄园", "address": "西安市周至县楼管道文化展示区延生观路1号", "image": "", "rank": 5, "time": 1.5, "location": {"lat": 34.07604758888938, "lng": 108.30326164426006}, "feature": {"sight_features": "", "sight_content": ""}}, {"title": "终南山古楼观景区", "address": "西安市周至县终南山楼观台", "image": "", "rank": 6, "time": 2.0, "location": {"lat": 34.06494599795831, "lng": 108.3353888679936}, "feature": {"sight_features": "", "sight_content": ""}}, {"title": "化女泉", "address": "西安市周至县楼观台的说经台以西1000米处", "image": "", "rank": 7, "time": 2, "location": {"lat": 34.06494599795831, "lng": 108.3353888679936}, "feature": {"sight_features": "", "sight_content": ""}}, {"title": "周至老县城", "address": "西安市周至县老县城村", "image": "", "rank": 8, "time": 3.0, "location": {"lat": 33.803449320418615, "lng": 107.7597497502313}, "feature": {"sight_features": "", "sight_content": ""}}, {"title": "翠峰山森林公园", "address": "西安市周至县翠峰乡南约8公里处", "image": "", "rank": 9, "time": 2.5, "location": {"lat": 34.133551516746856, "lng": 108.08423994247975}, "feature": {"sight_features": "", "sight_content": ""}}, {"title": "大秦漂流", "address": "西安市周至县九峰镇耿峪", "image": "", "rank": 10, "time": 2, "location": {"lat": 34.067414809763875, "lng": 108.43294166008756}, "feature": {"sight_features": "", "sight_content": ""}}, {"title": "楼观台秦岭动物园", "address": "西安市周至县楼观台国家森林公园旁", "image": "", "rank": 11, "time": 1.0, "location": {"lat": 34.059523855119096, "lng": 108.33727074707087}, "feature": {"sight_features": "", "sight_content": ""}}, {"title": "仙游寺法王塔", "address": "西安市周至县城南17公里的黑水峪口", "image": "", "rank": 12, "time": 0.4, "location": {"lat": 34.16938526961624, "lng": 108.22842183954491}, "feature": {"sight_features": "", "sight_content": ""}}, {"title": "秦岭国家植物园", "address": "集贤镇秦岭", "image": "", "rank": 13, "time": 2, "location": {"lat": 33.85737837712904, "lng": 108.36610889794237}, "feature": {"sight_features": "特色1 国家级植物园。 特色2 自然风貌的植物园。", "sight_content": "秦岭国家植物园是由陕西省人民政府、国家林业局、中国科学院、西安市人民政府联合共建的国家级特大型综合植物园。\n\n\n秦岭国家植物园位于陕西省西安市周至县境内，距市中心60千米， 总面积639平方千米。地理区位为东经108°13′-108°29′、北纬33°43′-34°04′之间，属暖温带大陆性山地气候。年平均降水800-900毫米，年平均温度8℃-10℃。兼具物种保育、科学研究、公众教育、生态旅游四项功能。\n落差2000多米的秦岭国家植物园，是世界上面积最大、植被分带最清晰、最具自然风貌的植物园，也是中国第一个国家级植物园。"}}, {"title": "大秦寺塔", "address": "西安市周至县楼观镇塔峪村南二百米山麓，化女泉西500米处", "image": "", "rank": 14, "time": 0.3, "location": {"lat": 34.06507345563576, "lng": 108.31598395174008}, "feature": {"sight_features": "", "sight_content": ""}}, {"title": "亭子头剧场", "address": "尚九路附近", "image": "", "rank": 15, "time": 2, "location": {"lat": 34.10176158104482, "lng": 108.43546169719573}, "feature": {"sight_features": "", "sight_content": ""}}, {"title": "财神庙", "address": "陕西省西安市周至县楼观台镇", "image": "", "rank": 16, "time": 1.5, "location": {"lat": 34.06494599795831, "lng": 108.3353888679936}, "feature": {"sight_features": "", "sight_content": ""}}, {"title": "西楼观台", "address": "陕西省西安市周至县", "image": "", "rank": 17, "time": 2, "location": {"lat": 34.16938526961624, "lng": 108.22842183954491}, "feature": {"sight_features": "", "sight_content": ""}}, {"title": "香山寺", "address": "陕西省西安市周至县", "image": "", "rank": 18, "time": 1.0, "location": {"lat": 34.16938526961624, "lng": 108.22842183954491}, "feature": {"sight_features": "", "sight_content": ""}}, {"title": "陕西周至老县城自然保护区", "address": "陕西省周至县厚畛子镇", "image": "", "rank": 19, "time": 2, "location": {"lat": 33.85719555722922, "lng": 107.84879079578755}, "feature": {"sight_features": "", "sight_content": ""}}, {"title": "老兵休闲山庄", "address": "西楼观就峪沟", "image": "", "rank": 20, "time": 2, "location": {"lat": 39.57825967605123, "lng": 117.1719970301951}, "feature": {"sight_features": "", "sight_content": ""}}, {"title": "海蓝蓝欢乐水世界", "address": "司竹镇黑河大桥西河堤路向南200米", "image": "", "rank": 21, "time": 2, "location": {"lat": 36.08533189217745, "lng": 111.72210273572661}, "feature": {"sight_features": "", "sight_content": ""}}, {"title": "周至温泉洗娱中心", "address": "温泉路", "image": "", "rank": 22, "time": 1.0, "location": {"lat": 40.18833394336146, "lng": 116.40660396265952}, "feature": {"sight_features": "", "sight_content": ""}}, {"title": "西部围墙生态园", "address": "108国道", "image": "", "rank": 23, "time": 2, "location": {"lat": 36.13357010619177, "lng": 111.55186297208911}, "feature": {"sight_features": "", "sight_content": ""}}, {"title": "仙游寺博物馆", "address": "东窑附近", "image": "", "rank": 24, "time": 2, "location": {"lat": 40.83810973697996, "lng": 116.38453853946864}, "feature": {"sight_features": "", "sight_content": ""}}, {"title": "凯歌书画社", "address": "北新街40号", "image": "", "rank": 25, "time": 2, "location": {"lat": 45.79915446994321, "lng": 126.66678513009475}, "feature": {"sight_features": "", "sight_content": ""}}, {"title": "海子沟垂钓园", "address": "海子沟大桥东头", "image": "", "rank": 26, "time": 2, "location": {"lat": 29.988949314390766, "lng": 102.4548527850105}, "feature": {"sight_features": "", "sight_content": ""}}, {"title": "大秦峡谷漂流", "address": "关中环线与尚九路十字", "image": "", "rank": 27, "time": 2, "location": {"lat": 34.10176158104482, "lng": 108.43546169719573}, "feature": {"sight_features": "", "sight_content": ""}}, {"title": "柞水老林峡谷漂流", "address": "西安市周至县商洛市柞水县三道井生态旅游区", "image": "", "rank": 28, "time": 3.0, "location": {"lat": 34.16938526961624, "lng": 108.22842183954491}, "feature": {"sight_features": "", "sight_content": ""}}, {"title": "独立营赛车场", "address": "陕西省西安市周至县中二路", "image": "", "rank": 29, "time": 2, "location": {"lat": 34.14050566407498, "lng": 108.3516922479315}, "feature": {"sight_features": "", "sight_content": ""}}, {"title": "西会教堂", "address": "陕西省西安市周至县八姚路", "image": "", "rank": 30, "time": 2, "location": {"lat": 34.0988319250024, "lng": 108.28728624644353}, "feature": {"sight_features": "", "sight_content": ""}}, {"title": "505生态园", "address": "临桥村", "image": "", "rank": 31, "time": 2, "location": {"lat": 29.904649071252404, "lng": 106.87004437664551}, "feature": {"sight_features": "", "sight_content": ""}}, {"title": "金丝猴自然保护区", "address": "Z301", "image": "", "rank": 32, "time": 1.0, "location": {"lat": 33.88907755614959, "lng": 108.3481480527114}, "feature": {"sight_features": "", "sight_content": ""}}, {"title": "西安市朝阳艺术团", "address": "县政府后北环路公园旁北泉巷", "image": "", "rank": 33, "time": 3.0, "location": {"lat": 26.49609019601593, "lng": 119.55704549408495}, "feature": {"sight_features": "", "sight_content": ""}}, {"title": "陕西务本堂园林景观有限公司观众...", "address": "108国道南50米", "image": "", "rank": 34, "time": 2, "location": {"lat": 36.133205737047284, "lng": 111.55186297208911}, "feature": {"sight_features": "", "sight_content": ""}}, {"title": "赵公明财神故里祖庙", "address": "赵大村", "image": "", "rank": 35, "time": 1.0, "location": {"lat": 32.93562596920902, "lng": 115.8561540823804}, "feature": {"sight_features": "", "sight_content": ""}}, {"title": "佛坪厅故城", "address": "西安市周至县", "image": "", "rank": 36, "time": 2, "location": {"lat": 34.16938526961624, "lng": 108.22842183954491}, "feature": {"sight_features": "", "sight_content": ""}}, {"title": "大元重建文始殿记碑", "address": "西安市周至县楼观派出所斜对面宗圣宫内", "image": "", "rank": 37, "time": 2, "location": {"lat": 34.08051323940398, "lng": 108.33307793484882}, "feature": {"sight_features": "", "sight_content": ""}}, {"title": "李颙墓", "address": "农商西街与太白南路交叉口西150米", "image": "", "rank": 38, "time": 2, "location": {"lat": 34.16450825262043, "lng": 108.21179472018257}, "feature": {"sight_features": "", "sight_content": ""}}, {"title": "乐天公园", "address": "北泉巷北侧", "image": "", "rank": 39, "time": 2, "location": {"lat": 38.30995409395724, "lng": 109.75364102086216}, "feature": {"sight_features": "", "sight_content": ""}}, {"title": "欢乐熊儿童乐园", "address": "二曲镇金钟环广场内", "image": "", "rank": 40, "time": 2, "location": {"lat": 34.16574685563042, "lng": 108.22734746615498}, "feature": {"sight_features": "", "sight_content": ""}}, {"title": "松润园度假山庄", "address": "陕西省西安市周至县四零一乡道最南端", "image": "", "rank": 41, "time": null, "location": {"lat": 34.16938526961624, "lng": 108.22842183954491}, "feature": {"sight_features": "", "sight_content": ""}}, {"title": "耿峪桥头农家乐", "address": "陕西省西安市周至县", "image": "", "rank": 42, "time": 2, "location": {"lat": 34.16938526961624, "lng": 108.22842183954491}, "feature": {"sight_features": "", "sight_content": ""}}, {"title": "圆觉寺", "address": "马广路附近", "image": "", "rank": 43, "time": 1.5, "location": {"lat": 34.10355575526149, "lng": 108.15409226517296}, "feature": {"sight_features": "", "sight_content": ""}}, {"title": "遇仙宫", "address": "官农路", "image": "", "rank": 44, "time": 2, "location": {"lat": 34.10037927868402, "lng": 108.05711315882515}, "feature": {"sight_features": "", "sight_content": ""}}, {"title": "秦岭国家植物园楼观庄园一期", "address": "楼观大道南100米", "image": "", "rank": 45, "time": 2, "location": {"lat": 34.07982688149521, "lng": 108.34055911296647}, "feature": {"sight_features": "", "sight_content": ""}}, {"title": "厚畛子太白山庄", "address": "周至县厚畛子汽车站附近", "image": "", "rank": 46, "time": 2, "location": {"lat": 33.85740607223957, "lng": 107.85155797470763}, "feature": {"sight_features": "", "sight_content": ""}}, {"title": "伏羲女娲", "address": "西安市周至县近郊楼观台国家森林公园景区终南山古楼观内", "image": "", "rank": 47, "time": 2, "location": {"lat": 34.06932136054708, "lng": 108.33389927713593}, "feature": {"sight_features": "", "sight_content": ""}}, {"title": "药王庙", "address": "陕西省西安市周至县瑞光路90号附近", "image": "", "rank": 48, "time": 0.75, "location": {"lat": 34.16861951703276, "lng": 108.21107106861969}, "feature": {"sight_features": "", "sight_content": ""}}, {"title": "下三屯牡丹园", "address": "下三屯村", "image": "", "rank": 49, "time": 2, "location": {"lat": 34.18556366212232, "lng": 108.16785059648238}, "feature": {"sight_features": "", "sight_content": ""}}, {"title": "玉宇宫", "address": "石桥路东200米", "image": "", "rank": 50, "time": 2, "location": {"lat": 37.68887101385077, "lng": 116.27058113918547}, "feature": {"sight_features": "", "sight_content": ""}}, {"title": "黑河旅游景区", "address": "陕西省西安市周至县108国道附近", "image": "", "rank": 51, "time": 4.5, "location": {"lat": 33.91656773759864, "lng": 108.12762746979783}, "feature": {"sight_features": "", "sight_content": ""}}, {"title": "北司竹火神庙", "address": "陕西省西安市周至县G108(京昆线)", "image": "", "rank": 52, "time": 2, "location": {"lat": 34.16938526961624, "lng": 108.22842183954491}, "feature": {"sight_features": "", "sight_content": ""}}, {"title": "西楼观道院", "address": "就峪西楼村", "image": "", "rank": 53, "time": 2, "location": {"lat": 34.06653799958496, "lng": 108.30402610584228}, "feature": {"sight_features": "", "sight_content": ""}}, {"title": "西门桥三官庙", "address": "云塔北街与城河商业西街交叉口东北50米", "image": "", "rank": 54, "time": 2, "location": {"lat": 34.16854027113394, "lng": 108.21903022881104}, "feature": {"sight_features": "", "sight_content": ""}}, {"title": "地母庙", "address": "北门上巷27号附近", "image": "", "rank": 55, "time": 2, "location": {"lat": 34.16863221118442, "lng": 108.2235968609897}, "feature": {"sight_features": "", "sight_content": ""}}, {"title": "菩萨庙", "address": "南新街12号附近", "image": "", "rank": 56, "time": 2, "location": {"lat": 39.42757026949843, "lng": 118.9187559678406}, "feature": {"sight_features": "", "sight_content": ""}}, {"title": "白马寺", "address": "陕西省西安市周至县豆村北二街西", "image": "", "rank": 57, "time": 1.5, "location": {"lat": 34.13180729511897, "lng": 108.50185426269186}, "feature": {"sight_features": "", "sight_content": ""}}, {"title": "黑河源山庄", "address": "陕西省西安市周至县厚畛子镇政府西南100米", "image": "", "rank": 58, "time": 4.5, "location": {"lat": 33.85644606944207, "lng": 107.84879079578755}, "feature": {"sight_features": "", "sight_content": ""}}, {"title": "周至厚畛子古镇溪水农家乐", "address": "西安市周至县西安周至厚畛子", "image": "", "rank": 59, "time": 2, "location": {"lat": 34.16938526961624, "lng": 108.22842183954491}, "feature": {"sight_features": "", "sight_content": ""}}, {"title": "永阳坊的院子", "address": "四零一乡道最南端", "image": "", "rank": 60, "time": 2, "location": {"lat": 26.35481608259538, "lng": 102.33200975988375}, "feature": {"sight_features": "", "sight_content": ""}}]}