{"cityName": "周宁", "days": 2, "cityImage": "", "spots": [{"title": "鲤鱼溪", "address": "宁德市周宁县浦源村", "image": "", "rank": 1, "time": 1.5, "location": {"lat": 27.12504021416015, "lng": 119.3057355213406}, "feature": {"sight_features": "", "sight_content": ""}}, {"title": "九龙漈瀑布", "address": "宁德市周宁县七步乡东南", "image": "", "rank": 2, "time": 1.5, "location": {"lat": 27.11023928044784, "lng": 119.3455671296402}, "feature": {"sight_features": "", "sight_content": ""}}, {"title": "陈峭景区", "address": "周宁县礼门乡陈峭村", "image": "", "rank": 3, "time": 2, "location": {"lat": 27.04989211358728, "lng": 119.14184220623603}, "feature": {"sight_features": "", "sight_content": ""}}, {"title": "方广禅寺", "address": "福建省宁德周宁县", "image": "", "rank": 4, "time": 2, "location": {"lat": 27.11023928044784, "lng": 119.3455671296402}, "feature": {"sight_features": "", "sight_content": ""}}, {"title": "溪口漂流", "address": "宁德市周宁县泗桥乡溪口村", "image": "", "rank": 5, "time": 2, "location": {"lat": 27.16890577667079, "lng": 119.22629646520333}, "feature": {"sight_features": "", "sight_content": ""}}, {"title": "超大现代农业集团周宁基地", "address": "浦源学校上洋小学附近", "image": "", "rank": 6, "time": 2, "location": {"lat": 27.13745080994354, "lng": 119.30143499689949}, "feature": {"sight_features": "", "sight_content": ""}}, {"title": "雷达山", "address": "东市路49号", "image": "", "rank": 7, "time": 2, "location": {"lat": 27.24298928502262, "lng": 108.92411266361616}, "feature": {"sight_features": "", "sight_content": ""}}, {"title": "底庵", "address": "宁德市周宁县", "image": "", "rank": 8, "time": 2, "location": {"lat": 27.11023928044784, "lng": 119.3455671296402}, "feature": {"sight_features": "", "sight_content": ""}}, {"title": "玉泉庵", "address": "福建省宁德市周宁县", "image": "", "rank": 9, "time": 2, "location": {"lat": 27.11023928044784, "lng": 119.3455671296402}, "feature": {"sight_features": "", "sight_content": ""}}, {"title": "慧日禅寺", "address": "福建省宁德市周宁县咸村镇虎头山", "image": "", "rank": 10, "time": 1.0, "location": {"lat": 26.952070867970473, "lng": 119.34776690286724}, "feature": {"sight_features": "", "sight_content": ""}}, {"title": "林公庙", "address": "玛坑乡杉洋村南洋12号", "image": "", "rank": 11, "time": 2, "location": {"lat": 26.986110204985255, "lng": 119.46876375476474}, "feature": {"sight_features": "", "sight_content": ""}}, {"title": "周宁县体育广场", "address": "狮城镇桥南街36号", "image": "", "rank": 12, "time": 2, "location": {"lat": 27.10544326679691, "lng": 119.34583913654853}, "feature": {"sight_features": "", "sight_content": ""}}, {"title": "林公宫", "address": "红亭路附近", "image": "", "rank": 13, "time": 2, "location": {"lat": 30.90699207562813, "lng": 121.325048644199}, "feature": {"sight_features": "", "sight_content": ""}}, {"title": "亨中堂", "address": "兴业街166-170附近", "image": "", "rank": 14, "time": 2, "location": {"lat": 45.79203654332468, "lng": 126.66183887131264}, "feature": {"sight_features": "", "sight_content": ""}}, {"title": "宁德九龙祭瀑布群 Ningde Jiulon...", "address": "福建省周宁县七步乡", "image": "", "rank": 15, "time": 4.5, "location": {"lat": 27.11023928044784, "lng": 119.3455671296402}, "feature": {"sight_features": "", "sight_content": ""}}, {"title": "福建省宁德市周宁县步行街", "address": "福建省周宁县中兴街", "image": "", "rank": 16, "time": 2, "location": {"lat": 27.108947990526584, "lng": 119.34224447632269}, "feature": {"sight_features": "", "sight_content": ""}}]}