{"cityName": "庄河", "days": 2, "cityImage": "", "spots": [{"title": "冰峪沟", "address": "大连庄市河市仙人洞镇冰峪国家地质公园内", "image": "", "rank": 1, "time": 1.0, "location": {"lat": 35.718970650344815, "lng": 109.44514291245508}, "feature": {"sight_features": "", "sight_content": ""}}, {"title": "大连天门山国家森林公园", "address": "大连市庄河市仙人洞镇天门山村", "image": "", "rank": 2, "time": 3.0, "location": {"lat": 40.11920020087508, "lng": 122.91867055620125}, "feature": {"sight_features": "", "sight_content": ""}}, {"title": "天门峡漂流", "address": "大连市庄河市仙人洞镇天门山", "image": "", "rank": 3, "time": 2, "location": {"lat": 39.97200557236671, "lng": 122.98137536737545}, "feature": {"sight_features": "", "sight_content": ""}}, {"title": "大连步云山温泉", "address": "大连市庄河市步云山乡", "image": "", "rank": 4, "time": 1.5, "location": {"lat": 40.03030629106829, "lng": 122.71819405277598}, "feature": {"sight_features": "特色1 历史悠久，资源丰富", "sight_content": "步云山位于庄河市西北46公里处，这里山势险峻，层峦叠障，怪石嶙峋，千姿百态。西北有海拔1130米的辽南第一峰步云山，东南有海拔1080米的辽南第二峰老黑山，两峰峨挺拔，遥相对峙。山上林木茂密，景观奇特。步云山地下热水资源丰富，已查明的两处地热田，可打10眼泉井，日出热水4000余吨，水温可达55摄氏度，初步查明含有26种对人体有益的徽量元素。奇特的山川地貌，秀美的自然风光，茂密的森林植被，丰富的地热资源，形成了一个集游览、度假、疗养、娱乐为一体的温泉疗养区。\n步云山的温泉历史悠久，资源丰富。位于辽南步云山下的大连步云山温泉生态度假区，现已建成温泉供水站7座，最高水温为61℃。经专家鉴定，属于低矿化度、碳酸钠型水，弱碱性。水中含有26种对人体有益的微量元素，定名为“中低温医疗矿泉热水”。可广泛用于沐浴、理疗、保健、桑拿等。风侣浴场将具有南国风情的淋浴竹楼置于绿荫葱郁的松杨林间，竹亭、竹廊，竹屏交错，形成修竹茂林映带之境。场内总是暖烟初生，池水澄澄人影浮，梦里江南难辨，贤人雅士毕至，均能享受到无限的温情与柔媚。"}}, {"title": "青堆子古镇", "address": "大连市庄河市青堆镇", "image": "", "rank": 5, "time": 3.0, "location": {"lat": 39.870514148271205, "lng": 123.21910571509665}, "feature": {"sight_features": "", "sight_content": ""}}, {"title": "银石滩森林公园", "address": "大连市庄河市大营镇四家村靴子沟", "image": "", "rank": 6, "time": 4.5, "location": {"lat": 39.89288205686648, "lng": 123.04466119177383}, "feature": {"sight_features": "", "sight_content": ""}}, {"title": "天一庄园", "address": "大连庄河市太平岭乡歇马村西", "image": "", "rank": 7, "time": null, "location": {"lat": 39.859901170501246, "lng": 122.97738713435193}, "feature": {"sight_features": "特色1 台胞精心创建的国家AAA级景区", "sight_content": "天一休闲庄园是台胞精心创建的国家3A景区，也是农业部、国家旅游局甄选为“国家休闲农业及乡村旅游示范点”庄园。占地面积3000亩。园区景色，空气绝佳，处处展现台湾风情之美，漫步其间如入世外桃源身心倍感舒畅；“台湾园”的巧妙布景，进园如亲致宝岛，长知识又开眼界。\n园内自然涌出之“麦饭泉”，其水质清澈甘甜，内含多种珍惜元素，庄园内结合泉旁瀑布与周边美景打造成“仙泉养生谷”可赏鱼、喂鱼、观瀑、泡脚、戏水、享用台湾特色餐饮...“宝岛乐园”设有过五关挑战自我的台式体能活动场，连心桥、DIY工坊。台湾热冷饮，让人难以忘怀。"}}, {"title": "蛤蜊岛", "address": "大连市庄河市兰店乡石磨房村", "image": "", "rank": 8, "time": 3.0, "location": {"lat": 39.6569402619169, "lng": 123.04192167347702}, "feature": {"sight_features": "特色1 一面墙、美人礁、将军石", "sight_content": "蛤蜊岛位于辽宁省大连市庄河城东7.5公里处，由一条1700米拦海大坝把小岛和陆地连成一体。岛东西长1.5公里，南北宽0.5公里。岛上灌木丛生，藤蔓交错，花草茂盛，这里又是鸟类的王国，随着季节的变换，候鸟迁徙常栖息在这里。岛上有很多自然景观，如；一面墙、美人礁、将军石等。蛤蜊岛四周有众多海滩，细沙洁白柔软，海水清澈。最大的一处海滩长400米，宽30米，沙滩边际的山崖下有天然淡水泉，水质清凉、甘甜，可供饮用，还可以用于海浴后冲洗身体。这样优良的海水浴场，在辽南是少有的。入选中国首批无居民海岛开发名录。\n庄河的蛤蜊岛一派自然淳朴的风光。初到蛤蜊岛山脚下，倚山的海湾平平静静，毫无新奇之处，倒是蛤蛎山草木丛生，葱葱郁郁，满山的蝉鸣回荡在山间，仿佛置身于蝉的家园，令人颇感惊奇。顺着青石条路拾级而上，路边的树木触手可及，高大的橡树、山楂树和不知名的灌木，高低错落，充满野趣。山上的一草一木，都散发着自然的天性、自由的气息，置身其间，我仿佛回到了少年时的家乡。本以为山顶会有些观海楼阁一类的建筑，哪知随着蛇行山路，在一个弯曲的尽头，眼前豁然开朗，突现一弯碧海，海中、海滩上嬉戏的人们三三两两，顿感蛤蜊岛别有洞天。\n这里的海滩并不长，但沙滩由细沙与细碎的贝壳屑混合而成，我想这大概是蛤蛎岛名称的由来吧。我不会游泳，但我向往大海，钦佩它广博的胸怀，面对着毫无斧凿之痕的海湾，面对着它无穷的魅力，我不能自已，我怎能不投入到它的怀抱！套上救生圈，我漂浮在海面，身随浪起伏，心无纤尘生。追海鸥展翅，叹海之无垠，恨不得自己变成海里的一条鱼，痛痛快快在海里呼吸。天色渐晚，“海上明月共潮生”，月儿是那样地高洁，就是闪亮的彩灯也不能抢去它半点光华。明月下，滟滟波光荡漾，海风习习，涛声阵阵，从不远处不时飘来动听的歌声，为这美丽的蛤蛎岛之夜增添了灵性。蛤蜊岛，天性归真之地，人性返璞之地。"}}, {"title": "红崖晓寺", "address": "大连市庄河市昌盛街道", "image": "", "rank": 9, "time": 0.75, "location": {"lat": 39.667032531889696, "lng": 122.94784943525099}, "feature": {"sight_features": "", "sight_content": ""}}, {"title": "光荣院", "address": "大连市庄河市兴达街道后炮台村委999号", "image": "", "rank": 10, "time": 0.75, "location": {"lat": 39.73387274368419, "lng": 122.99521301277326}, "feature": {"sight_features": "", "sight_content": ""}}, {"title": "圣谷美地漂流", "address": "大连庄河步云山乡蛤蜊河", "image": "", "rank": 11, "time": 2, "location": {"lat": 40.03844527391069, "lng": 122.71945244494793}, "feature": {"sight_features": "特色1 规模大，河段长，河水清", "sight_content": "圣谷美地漂流坐落于美丽的庄河步云山乡蛤蜊河，是辽南地区规模最大，河段最长，河水最清，最具特色的漂流。漂流河道总长度10公里，漂时3个小时。\n四面环山，峰峦起伏，森林覆盖率达到95%，是天然的氧吧。卵石河床，原生原态，既有平缓舒适的地带，又有紧张刺激的急滩，可以满足不同人群的需求，感受刺激，发泄压力，告别雾霾，自由“森”呼吸！漂流季节已经到来，你还等什么，还不赶快“随波逐流”一番。"}}, {"title": "城山古城", "address": "大连市庄河市城山镇", "image": "", "rank": 12, "time": 3.0, "location": {"lat": 39.71059413890431, "lng": 122.65963588451383}, "feature": {"sight_features": "", "sight_content": ""}}, {"title": "黑岛旅游渡假区", "address": "大连市庄河市黑岛镇大连黑岛旅游度假区", "image": "", "rank": 13, "time": 4.5, "location": {"lat": 39.71025704465336, "lng": 123.27469687727633}, "feature": {"sight_features": "", "sight_content": ""}}, {"title": "圣水寺", "address": "大连市庄河市仙人洞镇冰峪沟景区内", "image": "", "rank": 14, "time": 1.5, "location": {"lat": 39.97200557236671, "lng": 122.98137536737545}, "feature": {"sight_features": "", "sight_content": ""}}, {"title": "般若洞", "address": "大连市庄河市仙人洞镇冰峪沟景区内", "image": "", "rank": 15, "time": 0.75, "location": {"lat": 39.97200557236671, "lng": 122.98137536737545}, "feature": {"sight_features": "", "sight_content": ""}}, {"title": "英那河漂流", "address": "大连庄河市仙人洞镇冰峪沟景区东门口", "image": "", "rank": 16, "time": 2, "location": {"lat": 39.97200557236671, "lng": 122.98137536737545}, "feature": {"sight_features": "", "sight_content": ""}}, {"title": "云盘谷漂流", "address": "大连市庄河市仙人洞镇大连冰峪沟国家地质公园北门", "image": "", "rank": 17, "time": 2, "location": {"lat": 39.97200557236671, "lng": 122.98137536737545}, "feature": {"sight_features": "", "sight_content": ""}}, {"title": "天成沐歌温泉", "address": "大连市庄河市昌盛街道建设南三街二段69号", "image": "", "rank": 18, "time": 2, "location": {"lat": 39.6673919465982, "lng": 122.95582367619527}, "feature": {"sight_features": "", "sight_content": ""}}, {"title": "双泉寺", "address": "大连市庄河市大营镇得胜村庙下屯的青龙山下", "image": "", "rank": 19, "time": 0.75, "location": {"lat": 39.881224518423885, "lng": 123.12507907755322}, "feature": {"sight_features": "", "sight_content": ""}}, {"title": "歇马山庄温泉（银石滩国家森林公...", "address": "大连市庄河市大营镇四家村靴子沟（银石滩国家森林公园内）", "image": "", "rank": 20, "time": 2, "location": {"lat": 39.89854226628383, "lng": 123.01405737560889}, "feature": {"sight_features": "", "sight_content": ""}}, {"title": "步云山", "address": "大连市庄河市步云山乡", "image": "", "rank": 21, "time": 2, "location": {"lat": 40.03030629106829, "lng": 122.71819405277598}, "feature": {"sight_features": "", "sight_content": ""}}, {"title": "庄河市乐佰佳动漫水上乐园", "address": "城关街道龙王庙村新华路庄河明珠湖广场东南方40米", "image": "", "rank": 22, "time": 1.0, "location": {"lat": 39.68058133224625, "lng": 122.97521469027271}, "feature": {"sight_features": "", "sight_content": ""}}, {"title": "海王九岛3号渔家大院", "address": "王家镇海王九岛大街115号", "image": "", "rank": 23, "time": 2, "location": {"lat": 39.45507188388764, "lng": 123.08357133087074}, "feature": {"sight_features": "", "sight_content": ""}}, {"title": "钩鱼协会龟山湖钓鱼基地", "address": "疏港路", "image": "", "rank": 24, "time": 2, "location": {"lat": 31.733892064143827, "lng": 120.01108978798804}, "feature": {"sight_features": "", "sight_content": ""}}, {"title": "李秉衡故居", "address": "大连市庄河市鞍子山乡石咀村", "image": "", "rank": 25, "time": 0.5, "location": {"lat": 39.86768520131805, "lng": 123.2812665438947}, "feature": {"sight_features": "", "sight_content": ""}}, {"title": "仙人洞自然保护区", "address": "大连市庄河市仙人洞镇", "image": "", "rank": 26, "time": 4.5, "location": {"lat": 39.97200557236671, "lng": 122.98137536737545}, "feature": {"sight_features": "", "sight_content": ""}}, {"title": "龙凤寺", "address": "大连市庄河市光明山镇松林村北炉屯", "image": "", "rank": 27, "time": 0.75, "location": {"lat": 39.80422367333663, "lng": 122.79707815645644}, "feature": {"sight_features": "", "sight_content": ""}}, {"title": "乡念欢乐世界", "address": "大连庄河市延安路699号城关街道", "image": "", "rank": 28, "time": 2, "location": {"lat": 39.71907970498981, "lng": 122.9796364158522}, "feature": {"sight_features": "特色1 全新的游乐设施，绿色的自然生态", "sight_content": "乡念欢乐世界以樱花风景带为线，连接湿地休闲区和欢乐民俗区两面，围绕琵鹭岛、樱花岛、欢乐岛三点。樱花大道贯穿始末，提供了良好的园区休闲体验、和露营及拍摄场地。\n湿地休闲区以水上体验式娱乐为主，水上自行车、水上步行球、滑冰戏雪等娱乐项目。另外园区内建有摩天轮、转转马、大摆锤、跳楼机、海盗船、碰碰车等大型游乐设备。"}}, {"title": "九洲温泉会馆", "address": "大连市庄河市五一南街73号", "image": "", "rank": 29, "time": null, "location": {"lat": 39.69228958059419, "lng": 122.97573599492625}, "feature": {"sight_features": "特色1 拥有极致稀缺医疗温泉资源的高端养生会馆", "sight_content": "庄河九洲温泉会馆，是大连市首家集温泉养生、松骨保健、休闲住宿、茶艺品茗、顶级SPA、宝石体验场及VIP温泉包房于一体的高端温泉养生会馆。"}}, {"title": "石城岛金海岸旅游度假村", "address": "石城岛三胜村来福沟屯", "image": "", "rank": 30, "time": 2.5, "location": {"lat": 39.5329035702382, "lng": 123.0236184840162}, "feature": {"sight_features": "", "sight_content": ""}}, {"title": "龙江红度假村", "address": "王家镇", "image": "", "rank": 31, "time": 2, "location": {"lat": 36.424302437980586, "lng": 118.21587591157486}, "feature": {"sight_features": "", "sight_content": ""}}, {"title": "宏伟渔家", "address": "石城岛庙前沟48号", "image": "", "rank": 32, "time": 2, "location": {"lat": 35.36531710645588, "lng": 119.13175981141629}, "feature": {"sight_features": "", "sight_content": ""}}, {"title": "青堆美术画社", "address": "双河大街598号附近", "image": "", "rank": 33, "time": 2, "location": {"lat": 40.10110479626202, "lng": 116.70772975679711}, "feature": {"sight_features": "", "sight_content": ""}}, {"title": "城市规划展示馆", "address": "新华路", "image": "", "rank": 34, "time": 2, "location": {"lat": 39.14651100379498, "lng": 117.01963610637686}, "feature": {"sight_features": "", "sight_content": ""}}, {"title": "龙祥阁温泉会馆", "address": "迎宾大街二段8号", "image": "", "rank": 35, "time": 2, "location": {"lat": 38.919679741869324, "lng": 121.62130495053998}, "feature": {"sight_features": "", "sight_content": ""}}, {"title": "邢府人家农家乐", "address": "仙人洞镇英那河村将卜屯010冰峪沟东门500米处(祥赫农家院对面100米。)", "image": "", "rank": 36, "time": 2, "location": {"lat": 40.019020518183275, "lng": 123.01104063304524}, "feature": {"sight_features": "", "sight_content": ""}}, {"title": "庄河市沙岭农场", "address": "青堆镇", "image": "", "rank": 37, "time": 1.0, "location": {"lat": 39.870514148271205, "lng": 123.21910571509665}, "feature": {"sight_features": "", "sight_content": ""}}, {"title": "海王九岛海逸度假村", "address": "王家镇东滩村", "image": "", "rank": 38, "time": 2, "location": {"lat": 39.454380464133365, "lng": 123.09054740707131}, "feature": {"sight_features": "", "sight_content": ""}}, {"title": "垂钓园", "address": "昌盛街道垂钓园(张屯水库南100米)", "image": "", "rank": 39, "time": 2, "location": {"lat": 39.65253866707237, "lng": 122.93087247799424}, "feature": {"sight_features": "", "sight_content": ""}}, {"title": "小桂林", "address": "辽宁省庄河市仙人洞镇", "image": "", "rank": 40, "time": 2, "location": {"lat": 39.97200557236671, "lng": 122.98137536737545}, "feature": {"sight_features": "", "sight_content": ""}}, {"title": "金地山庄", "address": "庄河市石城岛花山村", "image": "", "rank": 41, "time": 2, "location": {"lat": 39.519735511409486, "lng": 122.9822335482732}, "feature": {"sight_features": "", "sight_content": ""}}, {"title": "田祖生态园", "address": "辽宁省大连市庄河市大郑镇葛炉村", "image": "", "rank": 42, "time": 2, "location": {"lat": 39.69504802579853, "lng": 122.83159598854195}, "feature": {"sight_features": "", "sight_content": ""}}, {"title": "明日之星儿童游乐园", "address": "昌盛街二段105号", "image": "", "rank": 43, "time": 2, "location": {"lat": 39.69609576373911, "lng": 122.9794156294647}, "feature": {"sight_features": "", "sight_content": ""}}, {"title": "儿童乐园", "address": "永兴街370-39", "image": "", "rank": 44, "time": 2, "location": {"lat": 39.71448185569772, "lng": 122.97261541453382}, "feature": {"sight_features": "", "sight_content": ""}}, {"title": "沐善植物店", "address": "辽宁省大连市庄河市水仙小区31", "image": "", "rank": 45, "time": 2, "location": {"lat": 39.69053884175725, "lng": 122.97806099194212}, "feature": {"sight_features": "", "sight_content": ""}}, {"title": "海洋休闲乐园", "address": "大连市庄河市宾航公路", "image": "", "rank": 46, "time": 2, "location": {"lat": 39.686956078878055, "lng": 122.97449548262718}, "feature": {"sight_features": "", "sight_content": ""}}, {"title": "法华寺", "address": "大连市庄河市", "image": "", "rank": 47, "time": 2.0, "location": {"lat": 39.686956078878055, "lng": 122.97449548262718}, "feature": {"sight_features": "", "sight_content": ""}}, {"title": "石佛山生态园", "address": "305国道附近", "image": "", "rank": 48, "time": 2, "location": {"lat": 42.63620018540488, "lng": 119.59940510698962}, "feature": {"sight_features": "", "sight_content": ""}}, {"title": "情人谷", "address": "辽宁省大连市庄河市二下线", "image": "", "rank": 49, "time": 1.5, "location": {"lat": 40.01446270487381, "lng": 122.93017898703884}, "feature": {"sight_features": "", "sight_content": ""}}, {"title": "洪真大师塔", "address": "大连市庄河市仙人洞镇北部大连冰峪旅游度假区上韩小峪冰川遗迹景区宏真茔内", "image": "", "rank": 50, "time": 2, "location": {"lat": 40.01215712195505, "lng": 122.95755128477576}, "feature": {"sight_features": "", "sight_content": ""}}, {"title": "弘法寺", "address": "仙人洞镇北部大连冰峪旅游度假区英纳湖景区内", "image": "", "rank": 51, "time": 1.5, "location": {"lat": 40.03034133774875, "lng": 122.9843098296459}, "feature": {"sight_features": "", "sight_content": ""}}, {"title": "小桂林游乐区", "address": "大连市庄河市仙人洞镇北部大连冰峪旅游度假区小峪河景区内", "image": "", "rank": 52, "time": 2, "location": {"lat": 40.02002170182838, "lng": 122.98365487509858}, "feature": {"sight_features": "", "sight_content": ""}}, {"title": "观音灵洞", "address": "仙人洞镇北部大连冰峪旅游度假区小峪河景区内", "image": "", "rank": 53, "time": 2, "location": {"lat": 40.02002170182838, "lng": 122.98365487509858}, "feature": {"sight_features": "", "sight_content": ""}}, {"title": "索桥", "address": "大连市庄河市仙人洞镇北部大连冰峪旅游度假区小峪河景区小桂林游乐区内", "image": "", "rank": 54, "time": 0.35, "location": {"lat": 40.016539155124605, "lng": 122.98226133376093}, "feature": {"sight_features": "", "sight_content": ""}}, {"title": "大悲殿", "address": "大连市庄河市仙人洞镇北部大连冰峪旅游度假区仙人洞景区内", "image": "", "rank": 55, "time": 2, "location": {"lat": 39.99886499089411, "lng": 122.97262125801116}, "feature": {"sight_features": "", "sight_content": ""}}, {"title": "仙人湖公园", "address": "仙长线东50米", "image": "", "rank": 56, "time": 2, "location": {"lat": 39.8930723797109, "lng": 122.76631203894348}, "feature": {"sight_features": "", "sight_content": ""}}, {"title": "大连王家岛欣意达度假村", "address": "大连庄河王家岛下船对面50米", "image": "", "rank": 57, "time": 1.5, "location": {"lat": 39.686956078878055, "lng": 122.97449548262718}, "feature": {"sight_features": "", "sight_content": ""}}, {"title": "南海度假村", "address": "大连王家岛镇南海浴场", "image": "", "rank": 58, "time": 2, "location": {"lat": 39.45437322727736, "lng": 123.09069652219276}, "feature": {"sight_features": "", "sight_content": ""}}, {"title": "海旭度假村", "address": "辽宁省大连市南海路71号", "image": "", "rank": 59, "time": 2, "location": {"lat": 38.87774139241373, "lng": 121.53927473662448}, "feature": {"sight_features": "", "sight_content": ""}}, {"title": "东方红度假村", "address": "海王九岛南海浴场东方红度假村", "image": "", "rank": 60, "time": 2, "location": {"lat": 32.07834249752181, "lng": 118.78085277713743}, "feature": {"sight_features": "", "sight_content": ""}}]}