{"cityName": "诸城", "days": 2, "cityImage": "", "spots": [{"title": "诸城恐龙世界", "address": "潍坊市诸城市龙都街道龙乡街3833号", "image": "", "rank": 1, "time": 3.0, "location": {"lat": 35.93024338925208, "lng": 119.3375768084713}, "feature": {"sight_features": "特色1 世界恐龙化石宝库。 特色2 恐龙化石品种繁多，得天独厚的地质条件。", "sight_content": "诸城恐龙国家地质公园位于历史悠久，环境优美的诸城，以形成于7000万年前的恐龙化石资源闻名，被古生物专家誉为“世界恐龙化石宝库”。 诸城既有恐龙骨骼化石，也有恐龙蛋和恐龙足迹化石。全市发现的恐龙化石点多达30处，先后出土并命名了十多个恐龙新属种，拥有规模巨大的恐龙化石群、恐龙足迹群、高大的鸭嘴龙化石骨架等。其中，暴露化石近万块的恐龙化石群，场景宏大，被联合国教科文组织专家组认定为罕见的地质奇观，具有重要的科研科普和旅游开发价值。诸城被国土资源部命名为“中国龙城”。\n诸城市境内具有丰富的恐龙化石资源，是罕见的同时拥有恐龙骨骼化石、恐龙蛋化石和恐龙脚印化石的地区。规模巨大的恐龙化石埋藏地。在全市13处镇（街道），共发现恐龙化石点多达30处，埋藏总面积达1500多平方公里。诸城因此被国土资源部命名为“中国龙城”。\n2008年在恐龙涧发掘恐龙化石面积23000平方米，出土恐龙化石2万多块，发现了“恐龙化石长廊”和“恐龙化石隆起带”两大地质遗址。其中，恐龙化石长廊，长500多米，均深30余米，露出化石10000多块；恐龙化石隆起带，长300米，宽20余米，露出化石3000多块；在臧克家故里发现了臧家庄“恐龙化石层叠区”，3000多块恐龙化石高低错落，层层叠叠，蔚为壮观。2009年在诸城市皇华镇黄龙沟发现的恐龙足迹化石，约5000多平方米，恐龙足迹11000多个，是规模宏大的恐龙足迹群。\n诸城出土的恐龙化石以鸭嘴龙为主，已发现鸭嘴龙股骨化石500多块，足够装架起200多具恐龙化石骨架。已成功装架起“巨型山东龙”、“巨大诸城龙”等一批鸭嘴龙化石骨架。其中，“巨大诸城龙”作为鸭嘴龙化石骨架，是世界吉尼斯纪录保持者，被恐龙专家誉为“世界龙王”。2009年新装架并初步命名的“巨大华夏龙”化石骨架，长22米、高11米，又超过了“巨大诸城龙”。\n世界上丰富的恐龙属种产出地之一。诸城出土的完整而罕见的纤角龙化石骨架，经专家研究证实为角龙类的祖先；出土了较为完整的霸王龙骨架和甲龙骨骼化石；在北美以外发现了大型的尖角龙颈盾化石和新角龙类化石，都属恐龙新属种，被中科院恐龙专家徐星分别命名为“诸城中国角龙”和“意外诸城角龙”。诸城发现的恐龙属种已超过10个，包括1种鸭嘴龙类、1种新角龙类、2种暴龙类、1种角龙科、2种纤角龙科，另外还有甲龙类、蜥脚类和龟鳖类等。"}}, {"title": "诸城恐龙博物馆", "address": "潍坊市诸城市密州西路恐龙公园", "image": "", "rank": 2, "time": 2.0, "location": {"lat": 36.01748960837133, "lng": 119.40024230081332}, "feature": {"sight_features": "", "sight_content": ""}}, {"title": "白垩纪恐龙地质公园", "address": "潍坊市诸城市龙都接街库沟村北（近龙骨涧）", "image": "", "rank": 3, "time": 2.5, "location": {"lat": 35.923439594870786, "lng": 119.33424357221548}, "feature": {"sight_features": "", "sight_content": ""}}, {"title": "诸城市恐龙公园", "address": "潍坊市诸城市密州西路（近龙塔）", "image": "", "rank": 4, "time": 3.0, "location": {"lat": 36.014791530178535, "lng": 119.39866893128888}, "feature": {"sight_features": "", "sight_content": ""}}, {"title": "诸城中国暴龙馆", "address": "山东省潍坊市诸城市臧家庄", "image": "", "rank": 5, "time": 2, "location": {"lat": 36.12019467262374, "lng": 119.12345212575487}, "feature": {"sight_features": "", "sight_content": "诸城中国暴龙馆是坐落于山东诸城臧家庄的中国首个暴龙遗迹遗址主题馆，距市区有6公里。因其出土了亚洲最大、中国唯一的暴龙—“巨型诸城暴龙”而得名。暴龙馆依托恐龙化石层叠区这一世界自然地质奇观，采用声光电等高科技手段与原迹原址展示相融合，为游客展示亚洲最大、中国唯一的暴龙骨骼化石，世界最大、最完整的甲龙骨骼化石以及北美以外首次发现的大型尖角龙颈盾化石。诸城中国暴龙馆内部共分三层；第一层为参观互动区域；第二层为化石遗址展示区；内层为隧道区，共分五个小区域分别为海洋时代、沼泽时代、火山时代、冰川时代、科普休闲区。分别展示了诸城暴龙演化、出生、成长、生活、消亡、形成化石的自然演变轨迹。"}}, {"title": "百尺河景区", "address": "潍坊市诸城市百尺河镇", "image": "", "rank": 6, "time": 2, "location": {"lat": 36.13553129955179, "lng": 119.58096220586944}, "feature": {"sight_features": "", "sight_content": ""}}, {"title": "得利斯热带植物园", "address": "潍坊市诸城市昌城镇得利斯植物园", "image": "", "rank": 7, "time": 2, "location": {"lat": 36.11755630836338, "lng": 119.46831020788218}, "feature": {"sight_features": "", "sight_content": ""}}, {"title": "诸城市野生动物园", "address": "潍坊市诸城市密州街道东俗村前", "image": "", "rank": 8, "time": 2.5, "location": {"lat": 36.001571654980864, "lng": 119.4812642844719}, "feature": {"sight_features": "", "sight_content": "诸城市野生动物园位于密州街道东俗村前，规划总占地3720亩；计划总投资3.5亿元；其中一期规划占地1200亩，投资1.5亿元。整个园区划分为动物观赏区、休闲游乐区、科普教育区、水上娱乐区和餐饮购物区五大功能区，是以野生动物驯养保护、科普知识推广、文化休闲娱乐为主要功能的大型动物园。\n目前园内动物种类繁多、游乐设施齐全、餐饮购物一体，现已引进动物150余种，共计2000余只，其中梅花鹿300余只、羊驼100余只、孔雀500余只、猴子十种共200余只、熊40余只、东北虎5只、非洲狮10只、长颈鹿4只、袋鼠10余只，还有小熊猫、斑马、骆驼、细尾獴、四角羊、鸵鸟、英国设特兰矮马等；建有摩天轮、环游世界、体能乐园、高空飞翔、豪华旋转木马、漂移卡丁车、海盗船、环游世界、豪华海盗船等大型豪华游乐项目均为首次登陆诸城，惊艳全城！另有丛林穿梭、充气城堡、儿童手摇船、小火车、梦幻镜宫、古堡惊魂、花果山漂流、欢乐碰碰车、疯狂老鼠等众多成人/儿童/亲子类项目强势入驻，力争将其建设成为半岛经济圈内著名的假日休闲、娱乐和亲子游的综合型生态公园。\n诸城市野生动物园，一个来了就不想走的地方。"}}, {"title": "马耳山", "address": "潍坊市诸城市皇华镇桥上村", "image": "", "rank": 9, "time": 2, "location": {"lat": 35.813638966354674, "lng": 119.38164295889028}, "feature": {"sight_features": "特色1 兹山表东服，远近瞻其名。 特色2 山坡林木覆盖，荆榛遍生。山石嶙峋，山势陡峭，但有曲径通幽。 特色3 马耳山属泰沂山脉，南靠五莲山、九仙山、北与常山遥相互，它们同出一脉，相接相连，相得益彰。", "sight_content": "马耳山位于山东省五莲县许孟镇东南6.5公里处，占地约40平方公里，主峰海拔706米，为鲁东南最高的一座山。因主峰二巨石并举，远望状如马耳，故名。山势为东西走向，由片麻岩、花岗岩构成。五老峰、松朵峰、鸽崖峰等奇峰高峙竞秀，山间岚气霭霭，泉水淙淙。山坡林木覆盖，荆榛遍生。山石嶙峋，山势陡峭，但有曲径通幽。\n这儿有仙人洞、龙王泉、隐龙寺、石龙寺、齐长城和桥上庄等胜迹。据唐代文学萧颖士《马耳山记》记载，仙人洞为东晋人葛洪曾隐居炼丹之地。隐龙寺、石龙寺为北魏正光时所建，至清末仍完好，今已废圯，公存遗址。山脊处有横亘绵延的齐长城。据郦道元《水经注》记载：“山上有长城，西接岱山，东连琅琊巨海，千里余里，盖田氏所造也。”马耳山属泰沂山脉，南靠五莲山、九仙山、北与常山遥相互，它们同出一脉，相接相连，相得益彰。马耳山自古有名。唐开元年间，官秘书正字、史馆待制的“萧夫子”——萧颖士，“慕名托疾”不远万里，来诸城马耳山游览，写下了《游马耳山》著名长诗。诗云:兹山表东服，远近瞻其名。"}}, {"title": "迈赫机器人大世界", "address": "潍坊市诸城市舜王街道工业新区纵一路", "image": "", "rank": 10, "time": 2, "location": {"lat": 36.06179137527732, "lng": 119.30577029417772}, "feature": {"sight_features": "", "sight_content": ""}}, {"title": "诸城博物馆", "address": "山东省潍坊市诸城市和平北街", "image": "", "rank": 11, "time": 2.5, "location": {"lat": 36.03886676385884, "lng": 119.41021301677046}, "feature": {"sight_features": "", "sight_content": ""}}, {"title": "诸城市博物馆", "address": "山东省潍坊诸城市东关大街", "image": "", "rank": 12, "time": 2.5, "location": {"lat": 35.9991367392123, "lng": 119.42164770660705}, "feature": {"sight_features": "", "sight_content": ""}}, {"title": "潍河公园", "address": "渭河边", "image": "", "rank": 13, "time": 2, "location": {"lat": 34.43486642627664, "lng": 109.21685106342214}, "feature": {"sight_features": "", "sight_content": ""}}, {"title": "常山文化博物苑", "address": "常山民间艺术收藏博物苑", "image": "", "rank": 14, "time": 2, "location": {"lat": 35.912987866155696, "lng": 119.40923427968004}, "feature": {"sight_features": "", "sight_content": ""}}, {"title": "龙塔", "address": "山东潍坊诸城市密州路西首路北", "image": "", "rank": 15, "time": 2.5, "location": {"lat": 36.0170190357483, "lng": 119.39598786483329}, "feature": {"sight_features": "", "sight_content": ""}}, {"title": "诸城名人馆", "address": "潍坊市诸城市和平北街125号", "image": "", "rank": 16, "time": 1.5, "location": {"lat": 36.02375337957799, "lng": 119.41060608202433}, "feature": {"sight_features": "", "sight_content": ""}}, {"title": "得利斯生态园热带植物园", "address": "水岸花城西北250米", "image": "", "rank": 17, "time": 2, "location": {"lat": 32.325038515666414, "lng": 121.1800340367905}, "feature": {"sight_features": "", "sight_content": ""}}, {"title": "家悦温泉水疗馆", "address": "潍坊市诸城市贾悦镇贾悦街10号", "image": "", "rank": 18, "time": 2, "location": {"lat": 36.03426665064093, "lng": 119.18730817023673}, "feature": {"sight_features": "", "sight_content": ""}}, {"title": "西城密室逃脱(VR虚拟现实体验)", "address": "兴华西路与纺织街交叉口老人民大厦三楼(西城网咖三楼)", "image": "", "rank": 19, "time": 2, "location": {"lat": 39.91812360584148, "lng": 116.37251358116619}, "feature": {"sight_features": "", "sight_content": ""}}, {"title": "诸城市中国画院(书画培训中心)", "address": "和平街工会大厦一楼", "image": "", "rank": 20, "time": 2, "location": {"lat": 24.806707356722573, "lng": 113.60462604871861}, "feature": {"sight_features": "", "sight_content": ""}}, {"title": "益民河公园", "address": "和平北街", "image": "", "rank": 21, "time": 2, "location": {"lat": 41.67758499158328, "lng": 115.69068690273093}, "feature": {"sight_features": "", "sight_content": ""}}, {"title": "丽水名园五莲·管帅温泉养生福地", "address": "龙源街160号附近", "image": "", "rank": 22, "time": 1.5, "location": {"lat": 35.99060054265323, "lng": 119.38798959331834}, "feature": {"sight_features": "", "sight_content": ""}}, {"title": "解留影剧院", "address": "诸城社区卫生附近", "image": "", "rank": 23, "time": 2, "location": {"lat": 35.97202737333044, "lng": 119.44214738509066}, "feature": {"sight_features": "", "sight_content": ""}}, {"title": "孟瞳影剧院", "address": "329省道附近", "image": "", "rank": 24, "time": 2, "location": {"lat": 37.006006509118556, "lng": 114.74389772886998}, "feature": {"sight_features": "", "sight_content": ""}}, {"title": "诸城东兴生态园", "address": "凤凰路6号", "image": "", "rank": 25, "time": 2, "location": {"lat": 32.07226868756435, "lng": 118.65764577474695}, "feature": {"sight_features": "", "sight_content": ""}}, {"title": "慧生种禽", "address": "贾悦镇范家官庄西500米", "image": "", "rank": 26, "time": null, "location": {"lat": 31.59154172532054, "lng": 118.69078642004496}, "feature": {"sight_features": "", "sight_content": ""}}, {"title": "龙韵果蔬葡萄采摘园", "address": "枳沟镇驻地222省道北行2公里路东枳沟水厂处", "image": "", "rank": 27, "time": 2, "location": {"lat": 35.908686565274145, "lng": 119.2324937485585}, "feature": {"sight_features": "", "sight_content": ""}}, {"title": "蛤蟆岭钓场", "address": "220省道", "image": "", "rank": 28, "time": 2, "location": {"lat": 40.38775563397051, "lng": 115.90384459998963}, "feature": {"sight_features": "", "sight_content": ""}}, {"title": "南湖生态园", "address": "龙都街道龙源街金府园小区西北", "image": "", "rank": 29, "time": 2, "location": {"lat": 35.976530674527424, "lng": 119.39265257055955}, "feature": {"sight_features": "", "sight_content": ""}}, {"title": "玉山大院", "address": "山东省诸城市和平街中段 262200", "image": "", "rank": 30, "time": 1.5, "location": {"lat": 36.00200885807568, "lng": 119.41640221866636}, "feature": {"sight_features": "", "sight_content": ""}}, {"title": "诸城市龙骨涧", "address": "山东省诸城市吕标镇库沟村北 262201", "image": "", "rank": 31, "time": 2, "location": {"lat": 35.923439594870786, "lng": 119.33424357221548}, "feature": {"sight_features": "", "sight_content": ""}}, {"title": "障日山度假区", "address": "山东省诸城市桃园张冶家店子村 262200", "image": "", "rank": 32, "time": null, "location": {"lat": 35.93793997637559, "lng": 119.63837973993061}, "feature": {"sight_features": "", "sight_content": ""}}, {"title": "甜美DIY蛋糕店", "address": "兴华西路与纺织街路口西南", "image": "", "rank": 33, "time": null, "location": {"lat": 35.99473623734263, "lng": 119.40220367274179}, "feature": {"sight_features": "", "sight_content": ""}}, {"title": "797 咖啡", "address": "密州西路招商银行北100米(香榭里沿街)", "image": "", "rank": 34, "time": 2, "location": {"lat": 31.236800682654497, "lng": 121.43373831090382}, "feature": {"sight_features": "", "sight_content": ""}}, {"title": "科迪食文化广场", "address": "山东省潍坊市诸城市纺织街", "image": "", "rank": 35, "time": 2, "location": {"lat": 35.99305633502247, "lng": 119.40225187940867}, "feature": {"sight_features": "", "sight_content": ""}}, {"title": "长春花卉园", "address": "220省道附近", "image": "", "rank": 36, "time": 2.5, "location": {"lat": 40.38775563397051, "lng": 115.90384459998963}, "feature": {"sight_features": "", "sight_content": ""}}, {"title": "大勇沙场", "address": "016乡道", "image": "", "rank": 37, "time": 2, "location": {"lat": 40.09290812128219, "lng": 116.66926323689323}, "feature": {"sight_features": "", "sight_content": ""}}, {"title": "基督教会", "address": "文化路西50米", "image": "", "rank": 38, "time": 2, "location": {"lat": 38.28977743236367, "lng": 109.73707182783235}, "feature": {"sight_features": "", "sight_content": ""}}, {"title": "张泽端故里", "address": "山东省潍坊市诸城市张泽端路青少年宫驾驶培训学校", "image": "", "rank": 39, "time": 2, "location": {"lat": 35.99142058576618, "lng": 119.39485771116271}, "feature": {"sight_features": "", "sight_content": ""}}, {"title": "尽美公园", "address": "潍坊市诸城市", "image": "", "rank": 40, "time": 2, "location": {"lat": 36.00200885807568, "lng": 119.41640221866636}, "feature": {"sight_features": "", "sight_content": ""}}, {"title": "儿童乐园", "address": "山东省潍坊市诸城市和平街1号", "image": "", "rank": 41, "time": 2, "location": {"lat": 36.01412707794564, "lng": 119.41333660558807}, "feature": {"sight_features": "", "sight_content": ""}}, {"title": "布鲁乐谷儿童乐园", "address": "舜王街道百盛超市2楼", "image": "", "rank": 42, "time": 2, "location": {"lat": 36.000082596941056, "lng": 119.41187026736853}, "feature": {"sight_features": "", "sight_content": ""}}, {"title": "故城公园", "address": "山东省潍坊市诸城市基建巷", "image": "", "rank": 43, "time": 3.0, "location": {"lat": 35.99367778295235, "lng": 119.41367802995308}, "feature": {"sight_features": "", "sight_content": ""}}, {"title": "张择端纪念公园", "address": "山东省潍坊市诸城市张择端路", "image": "", "rank": 44, "time": 2, "location": {"lat": 35.99141303133429, "lng": 119.39068975056261}, "feature": {"sight_features": "", "sight_content": ""}}, {"title": "京西票号", "address": "山东省潍坊市诸城市东关大街25号", "image": "", "rank": 45, "time": 2, "location": {"lat": 36.010081531797994, "lng": 119.42164029109506}, "feature": {"sight_features": "", "sight_content": ""}}, {"title": "光合农场（府前街店）", "address": "诸城市人民路与府前街路口南100米路西", "image": "", "rank": 46, "time": 2, "location": {"lat": 36.00200885807568, "lng": 119.41640221866636}, "feature": {"sight_features": "", "sight_content": ""}}, {"title": "大源生态游乐园", "address": "龙都街道大源社区", "image": "", "rank": 47, "time": 2, "location": {"lat": 30.744855633833428, "lng": 108.41815056040792}, "feature": {"sight_features": "", "sight_content": ""}}, {"title": "奇乐儿儿童乐园（一店）", "address": "和平街开元生活广场三楼北首（李先生楼上）", "image": "", "rank": 48, "time": 2, "location": {"lat": 36.00352640343304, "lng": 119.41294548965716}, "feature": {"sight_features": "", "sight_content": ""}}, {"title": "梦幻岛儿童乐园", "address": "诸城市兴华路棉织街285号明诚市场晶鑫超市内", "image": "", "rank": 49, "time": 2, "location": {"lat": 35.98722874059862, "lng": 119.40123794131853}, "feature": {"sight_features": "", "sight_content": ""}}, {"title": "沧湾公园", "address": "潍坊市诸城市和平街184号", "image": "", "rank": 50, "time": 2, "location": {"lat": 35.99903462320429, "lng": 119.41431105326967}, "feature": {"sight_features": "", "sight_content": ""}}, {"title": "亲子乐园", "address": "潍坊市诸城市广场路20号百盛商场F3", "image": "", "rank": 51, "time": 2, "location": {"lat": 35.999326766640564, "lng": 119.41140781969199}, "feature": {"sight_features": "", "sight_content": ""}}, {"title": "渠河公园", "address": "潍坊市安丘市", "image": "", "rank": 52, "time": 2, "location": {"lat": 36.483842195596104, "lng": 119.2256075181801}, "feature": {"sight_features": "", "sight_content": ""}}, {"title": "石佛寺", "address": "山东省潍坊市诸城市", "image": "", "rank": 53, "time": 1.5, "location": {"lat": 36.00200885807568, "lng": 119.41640221866636}, "feature": {"sight_features": "", "sight_content": ""}}, {"title": "贝乐儿儿童主题公园(鑫城广场店)", "address": "鑫城广场2楼C3区", "image": "", "rank": 54, "time": 2, "location": {"lat": 41.31028800324509, "lng": 123.7954964675368}, "feature": {"sight_features": "", "sight_content": ""}}, {"title": "诸城市密州街道西下泊民兵连", "address": "山东省潍坊市诸城市繁荣东路321号", "image": "", "rank": 55, "time": 2, "location": {"lat": 36.009603492530594, "lng": 119.4320386247292}, "feature": {"sight_features": "", "sight_content": ""}}, {"title": "海贝尔儿童主题乐园（沧湾店）", "address": "诸城电影院一楼北侧", "image": "", "rank": 56, "time": 2, "location": {"lat": 36.00200885807568, "lng": 119.41640221866636}, "feature": {"sight_features": "", "sight_content": ""}}, {"title": "诸城市密州街道大华民兵连", "address": "山东省潍坊市诸城市东关大街146附近", "image": "", "rank": 57, "time": 2, "location": {"lat": 35.999463941039075, "lng": 119.42195917966974}, "feature": {"sight_features": "", "sight_content": ""}}, {"title": "清明上河园水上乐园", "address": "诸城市其他和平北街130号清明上河园", "image": "", "rank": 58, "time": 2, "location": {"lat": 36.02609087408726, "lng": 119.41469259326385}, "feature": {"sight_features": "", "sight_content": ""}}, {"title": "臧克家故居", "address": "龙都街道吕标臧家庄村", "image": "", "rank": 59, "time": 2, "location": {"lat": 35.96414892512107, "lng": 119.34346663837803}, "feature": {"sight_features": "", "sight_content": ""}}, {"title": "臧氏民俗博物馆", "address": "山东省潍坊市诸城市龙都街道臧克家故居", "image": "", "rank": 60, "time": 2, "location": {"lat": 35.94865524701212, "lng": 119.34549240713358}, "feature": {"sight_features": "", "sight_content": ""}}]}