{"cityName": "驻马店", "days": "", "cityImage": "", "spots": [{"title": "嵖岈山风景区", "address": "驻马店市遂平县", "image": "", "rank": 1, "time": 3.0, "location": {"lat": 33.151971399578684, "lng": 114.01944146389916}, "feature": {"sight_features": "特色1 央视版《西游记》的主取景地。", "sight_content": "嵖岈山主景区系伏牛山东缘余脉，又名玲珑山、石猴仙山，山势嵯峨，怪石林立。南山、北山、花果山、六峰山砥足而立，秀蜜湖、琵琶湖、百花湖、天磨湖点缀其间，构成了一幅奇特秀丽的风光画卷。景区人文史迹星罗棋布，自然景观枚不胜举，有九大奇观、九大名峰、九大名洞、九大名棚、九大奇石，各类景点200多处，著名景点60多处，具有“奇、险、奥、幽”四大特点，享有“华夏盆景”、“中州独秀”、“江北石林”、“伏牛奇观”之美誉。\n嵖岈山风景区历史悠久，人文资源璀璨夺目，为历代兵家必争之地。春秋时代吴楚在此争雄，吴王死后，葬于天磨峰下，虽历经沧桑，“吴王墓”仍在；隋朝名将窦建德兵败嵖岈山，战死后葬在凤鸣谷中；唐代王仙芝部将尚让曾屯兵于此，后与黄巢合力守山，现有“黄巢洞”；明末起义军领袖李自成的舅父高迎祥进驻嵖岈山，现有“点将台”及“高官亭”；清代乾隆皇帝曾三上嵖岈山，现存“乾隆探险洞”和供乾隆安寝的“顺天宫”为证。抗日战争和解放战争时期，刘少奇、李先念、范文澜等老一辈无产阶级革命家在此发展革命根据地，留下了辉煌的战斗足迹。1958年，这里成立了全国第一个人民公社——嵖岈山卫星人民公社，一代伟人毛泽东曾亲临遂平县视察，在中华民族的发展史上写下了辉煌的一页。\n嵖岈山风景区文化底蕴丰厚，与西游文化、石猴文化密切相联，源远流长。著名高僧玄奘早期在嵖岈山一带颂经修行，他的大弟子道全、三弟子道一就是嵖岈山人。淮安才子吴承恩为避祸远行，途径嵖岈山，从嵖岈山石猴、睡唐僧、醉八戒、白龙马、定海神针、老君花园、黑风洞、高老庄、流沙河等天造地设、惟妙惟肖的奇石景观中汲取灵感，撞开了酝酿已久的艺术闸门，创作千古巨著《西游记》。随着中央电视台《西游记》续集在此拍摄和在全国的播放，使嵖岈山风景区饮誉全国，名冠天下。"}}, {"title": "老乐山风景区", "address": "驻马店市确山县城西10公里", "image": "", "rank": 2, "time": 3.5, "location": {"lat": 32.80817569298386, "lng": 114.0324950107563}, "feature": {"sight_features": "特色1 自然与文化的完美结合 特色2 道教圣山，国家级森林公园。", "sight_content": "【景区介绍】\n老乐山位于河南省南部，驻马店市区西南9公里，确山县城西8公里处，由高低不同的九座山峰组成，山北崖有老虎洞（因微风吹拂松林，洞内便听到松涛轰鸣，犹如虎啸而得名）．向前是陡峭的十八盘，山顶有清澈泉水一池，甘甜宜口，旱而不枯，因形状似蛙，故名＂蛤蟆泉＂。\n这是一座生态家园，堪称最佳养生人居胜地。整个山脉群峰叠峦，逶迤绵延，自然生态物种丰富，漫山遍野绿色苍翠。老乐山主峰海拔813米，方圆68平方公里，是国家级森林公园，著名的省级旅游度假区。景区内负氧离子含量每立方厘米超过市区的150倍，是养生休闲度假的天然大氧吧。\n\n这是一座道教圣山，亦为道家福地。历史上以“八宫两观一拜台”为代表的道教建筑，如众星拱月般环绕乐山老顶，雄伟壮观，气势磅礴，引远近朝圣者前来登高祈福。老乐山旅游景区将以生态旅游开发为中心，全方位打造生态旅游综合体，努力把老乐山建设成为全国知名、全省一流的休闲度假胜地和国家级生态旅游示范区。"}}, {"title": "南海禅寺", "address": "中国河南省驻马店市汝南县南海大道", "image": "", "rank": 3, "time": 3.5, "location": {"lat": 33.00236896712755, "lng": 114.4810409280343}, "feature": {"sight_features": "特色1 已有上千年的历史，素有“小南海”之称。 特色2 琳宫璀璨，气势恢宏。 特色3 历史上被誉为蔡州“八景之一”。", "sight_content": "南海禅寺建造在汝河滩地之上，平面布局整体呈“士”字型,周边为高3米,长5300余米的围墙，为砖混结构。寺院门前为三殿门，殿内两旁供奉两尊金刚为“哼哈”二将，寺内南部是以大雄宝殿居中心的殿堂建筑区。\n大雄宝殿建筑面积5274.30平方米，高36米，为三层重檐殿堂，室内供有一尊高17米，重72吨铜雕鎏金坐像，殿前为1200平方米的广场。大雄宝殿前为天王殿，建筑面积333.16平方米，高15米，殿内有四大金刚、八大怪彩泥塑像。后为观音殿，建筑面积2170.8平方米，殿内仅供奉一尊高14米，由香樟木雕刻千手千眼前后双面观音鎏金坐像。\n左右为文殊、普贤殿，二殿建筑面积均为1520平方米，高21米，殿内均供奉一尊高9米、重12吨的通体鎏金文殊、普贤铜雕坐像。大雄宝殿左右侧前方为钟楼和鼓楼，建筑面积626平方米，高36米，为二层重檐楼阁式建筑。寺院北部为十二牌坊、山门附属建筑。十二牌坊高7.6米，宽8米,座落在长500米的甬道上。山门位于十二牌坊北面，是南海禅寺的北大门，高32米,宽50米，为牌楼式建筑。世纪和平钟楼位于寺院东北侧，建筑面积772.84平方米，高34.6米，为三层翼角楼阁式建筑，室内吊有高7米，直径6米，重21吨的世纪和平钟。钟楼北侧为白圣舍利园，上客堂是一个矩型围楼群，三层共20多间，内有放生池,池内养有金鱼，置假山和一座九曲石桥。"}}, {"title": "泌阳铜山风景区", "address": "驻马店市泌阳县334省道附近", "image": "", "rank": 4, "time": 3.5, "location": {"lat": 32.78474536014513, "lng": 113.59833937642587}, "feature": {"sight_features": "", "sight_content": ""}}, {"title": "金顶山", "address": "驻马店市确山县蚁峰镇", "image": "", "rank": 5, "time": 7.5, "location": {"lat": 32.80817569298386, "lng": 114.0324950107563}, "feature": {"sight_features": "特色1 青山如黛，奇峰相对 特色2 金顶山雄立于天中大地，素有天中仙境之美誉 特色3 素有“天中仙境”之美名,更有“天然氧吧”、“绿色家园”之享誉。", "sight_content": "‍‍金顶山是国家“AAA”级旅游景区、国家级森林公园。景区位于河南省确山县蚁蜂镇境内，距驻马店市、京广铁路、京珠高速、107国道20余公里，面积约71平方公里，境内大小山峰6座，景区处暖温带与亚热带过度地带，系河南省‍‍保护较好的省‍‍级森林公园，有“ 天然氧吧”，“绿色家园”之美誉。\n景区河水多由山涧溪水汇集，时而蜿蜒曲折，时而汹涌澎湃。湖主要有金沙湖、金溪湖、金龙湖。湖面清波荡漾、群山倒映、宛如漓江。瀑布主要是云空瀑绝壁飞流，水洙四溅、蔚为壮观。\n竹林寺：位于景区内山林中，寺外茂林修竹，山谷幽深。据《确山县志》记载，竹林寺始建于唐玄宗年间。是中原名刹，曾有南竹林、北少林之说。旧有殿堂僚房36间，藏经楼一座，经卷无数，常有巨蟒盘于经上，僧谓之看经使者。现已在原址上修复重建，香客日众。\n‍‍金顶山漂流位于金顶山风景区内，总投资2000多万元。该项目漂程4000米，自然落差近200米，沿途设水仗区、鼓浪区、游泳区。青山如黛，奇峰相对，河水清澈见底，两岸峡谷风光无限。喜欢寻求刺激的游客，在节假日不出远门就可以在金顶山风景区进行峡谷漂流，感受奇特的生态游魅力。"}}, {"title": "薄山湖", "address": "驻马店市确山县011乡道南50米", "image": "", "rank": 6, "time": 1.5, "location": {"lat": 32.80817569298386, "lng": 114.0324950107563}, "feature": {"sight_features": "", "sight_content": ""}}, {"title": "嵖岈山温泉", "address": "驻马店市遂平县嵖岈山风景区北门", "image": "", "rank": 7, "time": 0.7, "location": {"lat": 33.15072492877201, "lng": 113.7445177997073}, "feature": {"sight_features": "特色1 富含30多种有益人体的矿物质 特色2 一山一水，一泉一亭，诉说着美丽的故事。 特色3 优质矿泉，休闲养生", "sight_content": "嵖岈山温泉水属国家罕见优质铀温泉，富含氯、硫酸根、氟、氡、可溶性硅酸、钠、钙、钾、镁等30多种有益人体的矿物质，常泡温泉具有养生、美容、延年益寿等功效。\n嵖岈山露天温泉区由动感温泉区、儿童戏水区、特色美容SPA区、户外温泉区、VIP汤屋区、接待大堂、保健按摩、室内恒温泳池、休息大厅、康体健身等设施组成。\n整个温泉区融汇了全国各地温泉沐浴风情：春天在华海中徜徉；夏日在热带风情天堂；秋日，赏红叶泡温泉；冬日，风花雪月，自然至上。\n嵖岈山温泉致力于打造以山地休闲度假为特色的中原地区旅游集聚区，是中国中原地区规模大，档次高，有特色的观光旅游、休闲度假圣地。"}}, {"title": "铜山湖森林公园", "address": "驻马店市泌阳县铜山湖路东", "image": "", "rank": 8, "time": 1.0, "location": {"lat": 32.7617379984491, "lng": 113.50095283103771}, "feature": {"sight_features": "", "sight_content": ""}}, {"title": "宿鸭湖", "address": "驻马店市汝南县", "image": "", "rank": 9, "time": 3.0, "location": {"lat": 33.01314088199241, "lng": 114.36940889397054}, "feature": {"sight_features": "", "sight_content": ""}}, {"title": "盘古始祖庙", "address": "驻马店市泌阳县陈庄乡盘古山", "image": "", "rank": 10, "time": 1.0, "location": {"lat": 32.6086047662771, "lng": 113.31592938862238}, "feature": {"sight_features": "", "sight_content": ""}}, {"title": "极致水世界", "address": "河南省驻马店市乐山大道与纬五路交叉口东北角", "image": "", "rank": 11, "time": 4.5, "location": {"lat": 32.98807719382637, "lng": 114.0380828501133}, "feature": {"sight_features": "特色1 极致水世界欢迎大家来体验，它将会给您一个意外的惊喜！", "sight_content": "极致水世界位于驻马店市乐山大道与纬五路交汇处，西邻乐山大道，北接重阳大道高速引线。水世界分为室内、室外两部分，聚集多达17项国内主流精品水游乐设施。这里的阳光、沙滩、海浪、美食、比基尼、水上游乐将带给您及家人和朋友极致的水上欢乐。\n\n\n‍‍‍‍‍‍主要游乐项目有：海啸海浪池、大喇叭滑梯、眼镜蛇滑梯、组合回旋滑梯、六道彩虹滑梯、双雪橇滑梯、巨兽碗滑梯、组合滑梯、高速组合滑梯、大回环滑梯、环流河、大水寨、少儿泳池、儿童戏水池、亲子组合滑梯、多功能组合滑梯、多功能水疗池等。‍‍‍‍‍‍\n\n\n极致水世界这里不仅有成人玩的挑战项目，还有为广大儿童、学生量身定制的水上项目，彻底颠覆了我们过去所熟悉的一池水大家玩的认知概念，在这里，可游、可玩、可参与、可互动、可挑战。在这里，可休息、可体验、有美食、有美景。极致水世界欢迎大家来体验，我们将会给您一个意外的惊喜。"}}, {"title": "上河城", "address": "驻马店市平舆县境内", "image": "", "rank": 12, "time": 2, "location": {"lat": 32.96798240043784, "lng": 114.62542865923078}, "feature": {"sight_features": "", "sight_content": ""}}, {"title": "杨靖宇将军旧居", "address": "驻马店驿城区001乡道", "image": "", "rank": 13, "time": 1.0, "location": {"lat": 32.91896803730502, "lng": 114.05235385066538}, "feature": {"sight_features": "", "sight_content": ""}}, {"title": "梁祝故里", "address": "驻马店市汝南县219省道东50米", "image": "", "rank": 14, "time": 1.0, "location": {"lat": 32.82132334514159, "lng": 114.36217762444578}, "feature": {"sight_features": "", "sight_content": ""}}, {"title": "河南弘济桥", "address": "驻马店市汝南县城北", "image": "", "rank": 15, "time": 1.0, "location": {"lat": 33.01314088199241, "lng": 114.36940889397054}, "feature": {"sight_features": "", "sight_content": ""}}, {"title": "驻马店森林公园", "address": "练江路西段", "image": "", "rank": 16, "time": 4.0, "location": {"lat": 32.96767327990492, "lng": 114.02320960398798}, "feature": {"sight_features": "", "sight_content": ""}}, {"title": "东方迪斯尼乐园", "address": "驻马店平舆县清河大道与清河南路交汇处", "image": "", "rank": 17, "time": 5.5, "location": {"lat": 32.95145046515838, "lng": 114.6270882211689}, "feature": {"sight_features": "", "sight_content": ""}}, {"title": "三秋醋博园", "address": "驻马店市驿城区水屯镇三秋工业园", "image": "", "rank": 18, "time": 2.0, "location": {"lat": 32.968193863510734, "lng": 114.16986222478204}, "feature": {"sight_features": "", "sight_content": ""}}, {"title": "白云山", "address": "驻马店市泌阳县城东30公里", "image": "", "rank": 19, "time": 4.5, "location": {"lat": 32.729730650434554, "lng": 113.33355798837405}, "feature": {"sight_features": "特色1 天中大地第一高山 特色2 有薄雾蒙翠峰，碧纱罩玉容。 特色3 世界地质公园，登顶中原高峰，欣赏壮美的日出和云海景象。", "sight_content": "白云山是天中大地第一高山，位于泌阳县城东30公里，总面积218平方公里，因山之奇峰秀丽，常有白云卷舒相伴，山上有玉皇神殿，正逢岁旱，百姓皆往祈雨，有求必应，故而得名。\n\n其巅顶海拔983米，奇石如垛，云雾缭绕，俗称“白貌垛”。\n传说很久很久以前此间为海中龙王化成的一座青山，故历史上又称“青龙山”。至今从“白貌垛”往东北依然可以看到巨龙横卧的模样。“白貌垛”便是昂起的龙头，乐山则是翘起的龙尾，九龙盘曲，祥瑞纷呈。古人将“貌垛龙容”列为泌阳八景之一。\n\n白云山形势巍然，雄峙一方。西为伏牛山脉，南为大别山脉，诸山组合，广圆五六十里，威镇泌阳县东方。白云山生态原始，古老神秘。\n\n棋盘岭仙人对弈棋盘犹在，老爷庙龙王载宝石船尚存；“白貌垛”水淹丁三渣草挂在山顶，万僧寺惩处恶僧宝锅沉入潭底；古树悬崖，天生地长，千百万年，仍如闺中秀女；奇闻轶事，口语传承，从古到今，果然历久弥新。王质观棋、张良修仙、神仙拉车、神奇故事，如歌如诗；貌垛龙容、竹林晚照、石台擂鼓、自然造化，赏心悦目。\n白云山林木苍郁，花草缤纷，满山青翠。中药材品种达698种之多。在浓萌如盖的密林深处，珍禽异兽，鸟鸣凤啼，是“天然的动植物园”。\n白云山众泉奔腾，溪流竟奏。水在树间流，树在水中长，高山流水，如琴似弦。石是骨，彰显着白云山的雄伟和质朴，水为魂，折射出白云山的清新和灵秀。"}}, {"title": "水域温泉", "address": "驻马店市驿城区前进路北段（广本4S店隔壁）", "image": "", "rank": 20, "time": 2, "location": {"lat": 33.01431744363223, "lng": 114.05839136199795}, "feature": {"sight_features": "特色1 环境卫生，设施设备完善，是您休闲度假的好去处！", "sight_content": "驻马店市水域温泉酒店是集洗浴、餐饮、住宿、游泳、健身、棋牌、客房于一体的大型温泉酒店，采自地下1700米温泉之水，装修高贵典雅，营业面积16000平方余米，斥资8000多万元打造驻马店绿色品牌，是忙碌的都市人群休闲放松的理想去处！"}}, {"title": "北泉寺", "address": "驻马店市确山县005乡道北50米", "image": "", "rank": 21, "time": 1.5, "location": {"lat": 32.80817569298386, "lng": 114.0324950107563}, "feature": {"sight_features": "", "sight_content": ""}}, {"title": "月旦亭遗址", "address": "驻马店市平舆县城小清河岛上", "image": "", "rank": 22, "time": 1.0, "location": {"lat": 32.88902489210571, "lng": 114.77632970184948}, "feature": {"sight_features": "", "sight_content": ""}}, {"title": "伏义画卦亭", "address": "", "image": "", "rank": 23, "time": 1.0, "location": {"lat": 33.278153264715954, "lng": 114.4266337397032}, "feature": {"sight_features": "", "sight_content": ""}}, {"title": "盘古山景区", "address": "驻马店市泌阳县盘古乡盘古山景区", "image": "", "rank": 24, "time": 2, "location": {"lat": 32.6086047662771, "lng": 113.31592938862238}, "feature": {"sight_features": "", "sight_content": "盘古山景区位于河南省泌阳县盘古乡境内，距县城15公里。景区总规划面积25.75平方公里，森林覆盖率达到90%，植被茂密、灵气氤氲、殿宇轩昂，自然景观与盘古神话相映生辉，盘古山是中国盘古文化的发祥地。"}}, {"title": "战国冶铁遗址", "address": "驻马店市西平县酒店乡酒店村南500米处", "image": "", "rank": 25, "time": 1.0, "location": {"lat": 33.262620520186424, "lng": 113.67940177844255}, "feature": {"sight_features": "", "sight_content": ""}}, {"title": "棠溪源", "address": "驻马店市西平县出山镇", "image": "", "rank": 26, "time": 1.0, "location": {"lat": 33.29983517944613, "lng": 113.67857680789949}, "feature": {"sight_features": "", "sight_content": ""}}, {"title": "竹沟革命纪念馆", "address": "确山县城西", "image": "", "rank": 27, "time": 1.0, "location": {"lat": 32.80817569298386, "lng": 114.0324950107563}, "feature": {"sight_features": "", "sight_content": ""}}, {"title": "天中山文化生态园", "address": "驻马店市汝南县梁祝大道", "image": "", "rank": 28, "time": 2.5, "location": {"lat": 33.00535215607897, "lng": 114.3581686109209}, "feature": {"sight_features": "", "sight_content": ""}}, {"title": "铜山湖", "address": "河南省驻马店", "image": "", "rank": 29, "time": 0.75, "location": {"lat": 33.01784241674367, "lng": 114.02847078173271}, "feature": {"sight_features": "", "sight_content": ""}}, {"title": "驻马店市博物馆", "address": "天中广场南侧", "image": "", "rank": 30, "time": 2.5, "location": {"lat": 33.01722869353598, "lng": 114.02869130315912}, "feature": {"sight_features": "", "sight_content": ""}}, {"title": "龙天沟", "address": "驻马店市遂平县", "image": "", "rank": 31, "time": 1.0, "location": {"lat": 33.151971399578684, "lng": 114.01944146389916}, "feature": {"sight_features": "", "sight_content": ""}}, {"title": "竹沟革命烈士陵园", "address": "", "image": "", "rank": 32, "time": 1.0, "location": {"lat": 32.803017246715385, "lng": 113.73811490530348}, "feature": {"sight_features": "", "sight_content": ""}}, {"title": "东方水岸温泉", "address": "驻马店市上蔡县化肥厂东800米路南东方水岸温泉酒店", "image": "", "rank": 33, "time": 1.5, "location": {"lat": 33.274240433880706, "lng": 114.30765026799}, "feature": {"sight_features": "", "sight_content": ""}}, {"title": "嵖岈山温泉小镇薰衣草文化园", "address": "驻马店市遂平县嵖岈山风景区内", "image": "", "rank": 34, "time": 2, "location": {"lat": 33.13680252954294, "lng": 113.73648905497453}, "feature": {"sight_features": "", "sight_content": ""}}, {"title": "新蔡文庙", "address": "河南省驻马店市新蔡县古吕街道新蔡县安全生产监督管理局", "image": "", "rank": 35, "time": 1.0, "location": {"lat": 32.75535297626862, "lng": 114.9922580921994}, "feature": {"sight_features": "", "sight_content": ""}}, {"title": "子路问津处", "address": "", "image": "", "rank": 36, "time": 1.0, "location": {"lat": 30.60580900007902, "lng": 109.7322472319553}, "feature": {"sight_features": "", "sight_content": ""}}, {"title": "嵖岈山卫星人民公社旧址博物馆", "address": "查岈山镇嵖岈山镇卫星路", "image": "", "rank": 37, "time": 2.5, "location": {"lat": 33.211096955317444, "lng": 113.75218793998219}, "feature": {"sight_features": "", "sight_content": ""}}, {"title": "跃进门住宿农家饭采摘", "address": "瓦岗乡芦庄村小学附近", "image": "", "rank": 38, "time": 2, "location": {"lat": 35.87563743011702, "lng": 114.51033600110514}, "feature": {"sight_features": "", "sight_content": ""}}, {"title": "正阳县图书馆", "address": "西大街83附近", "image": "", "rank": 39, "time": 2, "location": {"lat": 40.99638923467066, "lng": 117.92253249559582}, "feature": {"sight_features": "", "sight_content": ""}}, {"title": "西平县档案馆", "address": "西平大道203号", "image": "", "rank": 40, "time": 2, "location": {"lat": 22.99837683791298, "lng": 113.75573995196442}, "feature": {"sight_features": "", "sight_content": ""}}, {"title": "东关广场游乐园", "address": "文化路东关广场内", "image": "", "rank": 41, "time": 2, "location": {"lat": 37.52713524858598, "lng": 111.16287979992168}, "feature": {"sight_features": "", "sight_content": ""}}, {"title": "金鲨水族馆", "address": "河南省驻马店市遂平县前进路", "image": "", "rank": 42, "time": 2.0, "location": {"lat": 33.154703091068384, "lng": 114.01371684674861}, "feature": {"sight_features": "", "sight_content": ""}}, {"title": "儿童乐园", "address": "河南省驻马店市遂平县金山路", "image": "", "rank": 43, "time": 2, "location": {"lat": 33.15692335598801, "lng": 114.01621269967585}, "feature": {"sight_features": "", "sight_content": ""}}, {"title": "平舆县档案馆", "address": "清河大道2号", "image": "", "rank": 44, "time": 2, "location": {"lat": 32.96800613481616, "lng": 114.62584044696808}, "feature": {"sight_features": "", "sight_content": ""}}, {"title": "柏城商场迪斯尼儿童乐园（三楼店...", "address": "经贸路柏城商场3楼西南角", "image": "", "rank": 45, "time": 2.5, "location": {"lat": 33.38964707920452, "lng": 114.03473886114053}, "feature": {"sight_features": "", "sight_content": ""}}, {"title": "平舆县城关基督教会", "address": "古槐中心幼儿园附近", "image": "", "rank": 46, "time": 7.5, "location": {"lat": 32.95431418539065, "lng": 114.64816522084108}, "feature": {"sight_features": "", "sight_content": ""}}, {"title": "十方禅院", "address": "万和世家附近", "image": "", "rank": 47, "time": null, "location": {"lat": 36.76961898774933, "lng": 114.97381253838307}, "feature": {"sight_features": "", "sight_content": ""}}, {"title": "信阳野生山茶油", "address": "永康路附近", "image": "", "rank": 48, "time": 7.5, "location": {"lat": 38.08863243185495, "lng": 114.3934686703767}, "feature": {"sight_features": "", "sight_content": ""}}, {"title": "大王庄温泉水上游乐园", "address": "城石像往北7公里石桥乡大王庄", "image": "", "rank": 49, "time": 2, "location": {"lat": 33.28735016511132, "lng": 114.35624011158427}, "feature": {"sight_features": "", "sight_content": ""}}, {"title": "确山县图书馆", "address": "解放路61号", "image": "", "rank": 50, "time": 2, "location": {"lat": 37.87858374181484, "lng": 112.56695009289054}, "feature": {"sight_features": "", "sight_content": ""}}, {"title": "杨台寺遗址", "address": "河南省,驻马店市,驿城区诸市乡, 463000", "image": "", "rank": 51, "time": 2, "location": {"lat": 33.06401599901395, "lng": 113.9027087289802}, "feature": {"sight_features": "", "sight_content": ""}}, {"title": "驻马店森林公园旺美水上世界", "address": "驻马店市驿城区天中山大道与练江路交叉口森林公园北门（进门过桥即到）", "image": "", "rank": 52, "time": 1.5, "location": {"lat": 32.98649893632744, "lng": 114.01659840511266}, "feature": {"sight_features": "特色1 大型市外文体娱乐项目！", "sight_content": "驻马店市“森林公园旺美水上乐园”是水上运动、娱乐、休闲为主的大型市外文体娱乐项目，位于森林公园北门南侧中心岛上，主要有人造海浪池、成人标准游泳池、儿童游乐池、休闲美食吧、水上演绎台、冷饮吧等水上娱乐项目，‍‍备受广大市民及各界人士关注。\n二期配备服务项目有大型剌激的戏水滑梯、丰富多彩的戏水城堡、休闲养生水疗池、合家欢乐的家庭戏水娱乐池等。致力于打造回归自然与地中海风格的主题水上文体娱乐中心，是可以为驻马店市人们提供集休闲、娱乐、健身、饮食于一身的大型水上娱乐活动场所。"}}, {"title": "卡魔岛(爱家迪斯尼店)", "address": "通达路爱家会展国际公寓迪斯尼一楼", "image": "", "rank": 53, "time": 2, "location": {"lat": 30.17915708984055, "lng": 121.26020796435273}, "feature": {"sight_features": "", "sight_content": ""}}, {"title": "人民艺术剧院", "address": "解放大道1809号", "image": "", "rank": 54, "time": 2.0, "location": {"lat": 30.61047223917843, "lng": 114.30950556441061}, "feature": {"sight_features": "", "sight_content": ""}}, {"title": "金顶山漂流", "address": "蚁蜂镇金顶山风景区内", "image": "", "rank": 55, "time": 2, "location": {"lat": 32.8760048801772, "lng": 113.84196595717546}, "feature": {"sight_features": "", "sight_content": ""}}, {"title": "群星剧场", "address": "通达路附近", "image": "", "rank": 56, "time": 2, "location": {"lat": 39.545748304886224, "lng": 116.33781561457167}, "feature": {"sight_features": "", "sight_content": ""}}, {"title": "百盛花木基地", "address": "333省道附近", "image": "", "rank": 57, "time": 2, "location": {"lat": 39.02635958593825, "lng": 115.37834791394636}, "feature": {"sight_features": "", "sight_content": ""}}, {"title": "豫康采摘园", "address": "古城乡马园村村里面", "image": "", "rank": 58, "time": 2, "location": {"lat": 41.1601385493767, "lng": 107.49536174273855}, "feature": {"sight_features": "", "sight_content": ""}}, {"title": "王坡奥博垂钓园", "address": "水屯镇王坡(京港澳高速公路东)", "image": "", "rank": 59, "time": 2, "location": {"lat": 33.046629439588486, "lng": 114.10729306762121}, "feature": {"sight_features": "", "sight_content": ""}}, {"title": "龙潭", "address": "文明大道与练江大道交叉口北150米", "image": "", "rank": 60, "time": 0.25, "location": {"lat": 32.96870971793165, "lng": 114.02526815730143}, "feature": {"sight_features": "", "sight_content": ""}}]}