{"cityName": "涿州", "days": 2, "cityImage": "", "spots": [{"title": "辽代双塔", "address": "保定市涿州市顿家胡同与鼓楼大街交叉口东150米", "image": "", "rank": 1, "time": 0.25, "location": {"lat": 39.50497138611048, "lng": 115.9782870805845}, "feature": {"sight_features": "", "sight_content": ""}}, {"title": "张飞故里", "address": "河北省涿州市桃园区", "image": "", "rank": 2, "time": 2, "location": {"lat": 39.484357044707096, "lng": 115.97298852255089}, "feature": {"sight_features": "", "sight_content": ""}}, {"title": "涿州东京都高尔夫", "address": "河北涿州京都旅游大道2号", "image": "", "rank": 3, "time": 2, "location": {"lat": 39.49997790837889, "lng": 115.87475078777676}, "feature": {"sight_features": "", "sight_content": ""}}, {"title": "涿州博物馆", "address": "河北省保定市涿州市华阳西路49号", "image": "", "rank": 4, "time": 2.5, "location": {"lat": 39.49953020456203, "lng": 115.98070227196507}, "feature": {"sight_features": "", "sight_content": ""}}, {"title": "涿州京都高尔夫", "address": "河北涿州石佛林场内", "image": "", "rank": 5, "time": 2, "location": {"lat": 39.49520592615623, "lng": 115.89220247074977}, "feature": {"sight_features": "", "sight_content": ""}}, {"title": "郦道元故居", "address": "保定市涿州市清凉寺街道西道园村", "image": "", "rank": 6, "time": 0.4, "location": {"lat": 39.46109014262039, "lng": 115.98955877558122}, "feature": {"sight_features": "", "sight_content": ""}}, {"title": "高家大院", "address": "保定市涿州市鼓楼大街210号", "image": "", "rank": 7, "time": 1.5, "location": {"lat": 39.50347516765638, "lng": 115.97681841575368}, "feature": {"sight_features": "", "sight_content": ""}}, {"title": "永济桥", "address": "涿州市城北（涿州桥以东约100米）", "image": "", "rank": 8, "time": 0.75, "location": {"lat": 39.51902919527585, "lng": 115.97529656584685}, "feature": {"sight_features": "", "sight_content": ""}}, {"title": "华阳公园", "address": "保定市涿州市城西北街141号", "image": "", "rank": 9, "time": 1.5, "location": {"lat": 39.507284603605115, "lng": 115.97283611873299}, "feature": {"sight_features": "", "sight_content": ""}}, {"title": "葵园小镇", "address": "保定市涿州市百尺竿镇泗各庄村", "image": "", "rank": 10, "time": 2, "location": {"lat": 39.52959320393042, "lng": 115.91010667871662}, "feature": {"sight_features": "", "sight_content": ""}}, {"title": "下胡良桥", "address": "保定市涿州市京深路1号", "image": "", "rank": 11, "time": 2, "location": {"lat": 39.539122412870945, "lng": 115.982541103344}, "feature": {"sight_features": "", "sight_content": ""}}, {"title": "汇元观光采摘园", "address": "高官庄镇崔庄村北", "image": "", "rank": 12, "time": 2, "location": {"lat": 39.38645541220066, "lng": 116.06736235876716}, "feature": {"sight_features": "", "sight_content": ""}}, {"title": "永济公园水上乐园", "address": "双塔街道永济公园", "image": "", "rank": 13, "time": 2.5, "location": {"lat": 39.517936394802504, "lng": 115.98206911925617}, "feature": {"sight_features": "", "sight_content": ""}}, {"title": "金门闸", "address": "涿州市义和庄乡北蔡村", "image": "", "rank": 14, "time": 2, "location": {"lat": 39.53128918171047, "lng": 116.18889750501027}, "feature": {"sight_features": "", "sight_content": ""}}, {"title": "石佛森林公园", "address": "河北省,涿州市,城西八公里处, 072750", "image": "", "rank": 15, "time": 2, "location": {"lat": 39.49106583200048, "lng": 115.98161971138242}, "feature": {"sight_features": "", "sight_content": ""}}, {"title": "东海九号公馆", "address": "保定市涿州市政法街北口", "image": "", "rank": 16, "time": null, "location": {"lat": 39.50195631980813, "lng": 116.02447580116079}, "feature": {"sight_features": "", "sight_content": ""}}, {"title": "万顺大型游乐场", "address": "开发区火炬北街39号(开发区天下第一洲牌坊北行800米路东万顺超市3层)", "image": "", "rank": 17, "time": 2, "location": {"lat": 39.49541678672704, "lng": 116.04336167738896}, "feature": {"sight_features": "", "sight_content": ""}}, {"title": "文化遗产陈列馆", "address": "南关街275号药王庙院内", "image": "", "rank": 18, "time": 1.5, "location": {"lat": 41.787187413667496, "lng": 123.46087539505199}, "feature": {"sight_features": "", "sight_content": ""}}, {"title": "寻码密室逃脱", "address": "广场西街26号", "image": "", "rank": 19, "time": 2, "location": {"lat": 25.85402907972885, "lng": 114.89812425379985}, "feature": {"sight_features": "", "sight_content": ""}}, {"title": "河北省禹森农业发展有限公司", "address": "义里路29号", "image": "", "rank": 20, "time": 2, "location": {"lat": 39.532147068089664, "lng": 116.18459377092218}, "feature": {"sight_features": "", "sight_content": ""}}, {"title": "涿州市东城坊镇马踏营村鲜桃采摘", "address": "马踏营村", "image": "", "rank": 21, "time": 2, "location": {"lat": 39.47155439930193, "lng": 115.81063130622104}, "feature": {"sight_features": "", "sight_content": ""}}, {"title": "涿州市图书馆", "address": "南关街277号", "image": "", "rank": 22, "time": 1.5, "location": {"lat": 39.48138702374261, "lng": 115.97913526603686}, "feature": {"sight_features": "", "sight_content": ""}}, {"title": "长沟培训中心高尔夫球场", "address": "长沟镇", "image": "", "rank": 23, "time": 2, "location": {"lat": 39.58709387335779, "lng": 115.88303275764638}, "feature": {"sight_features": "", "sight_content": ""}}, {"title": "北京京南马场", "address": "琉璃河镇白庄村", "image": "", "rank": 24, "time": 1.0, "location": {"lat": 39.5901056468823, "lng": 116.02005793466273}, "feature": {"sight_features": "", "sight_content": ""}}, {"title": "友缘果品采摘园", "address": "松高路附近", "image": "", "rank": 25, "time": 2, "location": {"lat": 39.40481278931477, "lng": 116.0168946110975}, "feature": {"sight_features": "", "sight_content": ""}}, {"title": "小明水上乐园", "address": "明城农业观光园内", "image": "", "rank": 26, "time": 2, "location": {"lat": 39.45783486403073, "lng": 115.97904308372203}, "feature": {"sight_features": "", "sight_content": ""}}, {"title": "陈三鱼塘", "address": "长空路", "image": "", "rank": 27, "time": 2, "location": {"lat": 32.040576202800324, "lng": 118.8274414619539}, "feature": {"sight_features": "", "sight_content": ""}}, {"title": "天和垂钓", "address": "百尺竿镇旅游大道", "image": "", "rank": 28, "time": 2, "location": {"lat": 39.55560136019041, "lng": 115.95513261916622}, "feature": {"sight_features": "", "sight_content": ""}}, {"title": "Keyuan Garden", "address": "河北省东光县32 Keyuan RdDongguan City, Guangdong", "image": "", "rank": 29, "time": 2, "location": {"lat": 37.894513906653266, "lng": 116.54340955697872}, "feature": {"sight_features": "", "sight_content": ""}}, {"title": "京南高尔夫", "address": "北京市琉璃河南10公里处", "image": "", "rank": 30, "time": 2, "location": {"lat": 39.55641146742882, "lng": 116.15728398267247}, "feature": {"sight_features": "", "sight_content": ""}}, {"title": "绿源佳军高尔夫", "address": "开发区管理委员会工业园朝阳路", "image": "", "rank": 31, "time": 2, "location": {"lat": 28.222293149634872, "lng": 112.89953466006276}, "feature": {"sight_features": "", "sight_content": ""}}, {"title": "河北京南乡村俱乐部", "address": "永乐路1号", "image": "", "rank": 32, "time": 2, "location": {"lat": 38.12478981231827, "lng": 114.46933272303433}, "feature": {"sight_features": "", "sight_content": ""}}, {"title": "京南高尔夫乡村俱乐部", "address": "北京市琉璃河南10公里处（涿州市永乐路）", "image": "", "rank": 33, "time": 2, "location": {"lat": 39.55641146742882, "lng": 116.15728398267247}, "feature": {"sight_features": "", "sight_content": ""}}, {"title": "涿州市青少年科技中心", "address": "河北省涿州市玫瑰大街", "image": "", "rank": 34, "time": 2, "location": {"lat": 39.49579869649749, "lng": 116.03478186893769}, "feature": {"sight_features": "", "sight_content": ""}}, {"title": "欢乐牧场", "address": "河北省保定市涿州市范阳西路122号(矿山局商业南楼,县医院对面)", "image": "", "rank": 35, "time": 2, "location": {"lat": 39.49039622162767, "lng": 115.98324124265848}, "feature": {"sight_features": "", "sight_content": ""}}, {"title": "徐家小院", "address": "保定市涿州市东兴北街15号", "image": "", "rank": 36, "time": 2, "location": {"lat": 39.496579916696426, "lng": 116.01854249326739}, "feature": {"sight_features": "", "sight_content": ""}}, {"title": "藏心阁正法佛缘", "address": "河北省保定市涿州市育英街", "image": "", "rank": 37, "time": 2, "location": {"lat": 39.55826252711569, "lng": 116.11752824524305}, "feature": {"sight_features": "", "sight_content": ""}}, {"title": "佛光普照吉祥香阁", "address": "河北省保定市涿州市清凉寺街道东兴北街兴泰花园", "image": "", "rank": 38, "time": 2, "location": {"lat": 39.506578123872515, "lng": 116.01841814712378}, "feature": {"sight_features": "", "sight_content": ""}}, {"title": "涿州市烈士陵园", "address": "河北省保定市涿州市林家屯乡西管头村结义路烈士陵园", "image": "", "rank": 39, "time": 3.0, "location": {"lat": 39.44628617027337, "lng": 115.96494382301395}, "feature": {"sight_features": "", "sight_content": ""}}, {"title": "九队水上乐园", "address": "新开路与西后大街交叉口西北100米", "image": "", "rank": 40, "time": 2, "location": {"lat": 39.44571639088337, "lng": 116.03260319690638}, "feature": {"sight_features": "", "sight_content": ""}}, {"title": "小蹦人儿童乐园", "address": "商业街221", "image": "", "rank": 41, "time": 2, "location": {"lat": 39.49847810497958, "lng": 116.09066128837246}, "feature": {"sight_features": "", "sight_content": ""}}, {"title": "海禅林寺", "address": "河北省保定市涿州市义里路", "image": "", "rank": 42, "time": 2, "location": {"lat": 39.532147068089664, "lng": 116.18459377092218}, "feature": {"sight_features": "", "sight_content": ""}}, {"title": "水钰湾儿童水上乐园", "address": "涿州市河北涿州家乐福5楼东区(品正对面)", "image": "", "rank": 43, "time": 2, "location": {"lat": 39.49106583200048, "lng": 115.98161971138242}, "feature": {"sight_features": "", "sight_content": ""}}, {"title": "利源游乐园", "address": "河北省保定市涞水县王义路", "image": "", "rank": 44, "time": 2, "location": {"lat": 39.41765665310746, "lng": 115.77726332135781}, "feature": {"sight_features": "", "sight_content": ""}}, {"title": "北鑫休闲广场", "address": "涿州开发区东兴北街1号", "image": "", "rank": 45, "time": 2, "location": {"lat": 39.49192490056954, "lng": 116.0178148658043}, "feature": {"sight_features": "", "sight_content": ""}}, {"title": "金街儿童游乐场", "address": "金街商城3楼西区", "image": "", "rank": 46, "time": 2, "location": {"lat": 46.20521930440607, "lng": 126.81802803994402}, "feature": {"sight_features": "", "sight_content": ""}}, {"title": "贝儿乐儿童乐园", "address": "双塔街道鼓楼大街64号二楼", "image": "", "rank": 47, "time": 2, "location": {"lat": 39.49491361064374, "lng": 115.97792171637765}, "feature": {"sight_features": "", "sight_content": ""}}, {"title": "欢乐之家儿童乐园", "address": "河北省保定市涿州市长空路118号", "image": "", "rank": 48, "time": 2, "location": {"lat": 39.484851956064546, "lng": 115.99586395410827}, "feature": {"sight_features": "", "sight_content": ""}}, {"title": "儿童游乐园", "address": "河北省保定市涿州市G107", "image": "", "rank": 49, "time": 2, "location": {"lat": 39.49106583200048, "lng": 115.98161971138242}, "feature": {"sight_features": "", "sight_content": ""}}, {"title": "碧水源水族馆", "address": "河北省保定市涿州市冠云西路121号", "image": "", "rank": 50, "time": 2, "location": {"lat": 39.483215947167444, "lng": 115.9801643666257}, "feature": {"sight_features": "", "sight_content": ""}}, {"title": "奇乐园儿童主题乐园", "address": "公园壹号南门与北门正中间5号楼底商", "image": "", "rank": 51, "time": 2, "location": {"lat": 27.344043832281848, "lng": 117.48943109850983}, "feature": {"sight_features": "", "sight_content": ""}}, {"title": "华冠理想城儿童主题乐园", "address": "河北省保定市涿州市", "image": "", "rank": 52, "time": 2, "location": {"lat": 39.49106583200048, "lng": 115.98161971138242}, "feature": {"sight_features": "", "sight_content": ""}}, {"title": "myoyo麦幼优儿童乐园", "address": "范阳西路129号莲荷购物广场5层", "image": "", "rank": 53, "time": 2, "location": {"lat": 39.49089900510068, "lng": 115.98335185281253}, "feature": {"sight_features": "", "sight_content": ""}}, {"title": "快乐童年游乐园", "address": "冠云路与长空路交口碧源池商务酒店西行50米路北", "image": "", "rank": 54, "time": 2, "location": {"lat": 39.483755788690154, "lng": 115.99623230248605}, "feature": {"sight_features": "", "sight_content": ""}}, {"title": "水钰湾儿童水上乐园", "address": "冠云路与东兴南街交叉口西南角(汇元酒店一层)", "image": "", "rank": 55, "time": 2, "location": {"lat": 39.48189852024914, "lng": 116.01539286526797}, "feature": {"sight_features": "", "sight_content": ""}}, {"title": "德信文化公园", "address": "河北省保定市涿州市平安北街", "image": "", "rank": 56, "time": 2, "location": {"lat": 39.49597843494808, "lng": 116.02345664211903}, "feature": {"sight_features": "", "sight_content": ""}}, {"title": "西乡故城遗址", "address": "河北省北京市房山区北京市房山区康节路", "image": "", "rank": 57, "time": 1.0, "location": {"lat": 39.75432583977336, "lng": 116.14944375184247}, "feature": {"sight_features": "", "sight_content": ""}}, {"title": "文化广场", "address": "开发区管理委员会范阳中路436号", "image": "", "rank": 58, "time": 1.5, "location": {"lat": 39.490636287925966, "lng": 116.01845227375011}, "feature": {"sight_features": "", "sight_content": ""}}, {"title": "西何各庄长城文化广场", "address": "豆庄乡西何各庄", "image": "", "rank": 59, "time": 2, "location": {"lat": 39.439587044726935, "lng": 116.07476707850962}, "feature": {"sight_features": "", "sight_content": ""}}, {"title": "金湖度假村", "address": "演武庄村泰安路北350米", "image": "", "rank": 60, "time": 2, "location": {"lat": 39.50160807214975, "lng": 115.95828297030157}, "feature": {"sight_features": "", "sight_content": ""}}]}