{"cityName": "卓尼", "days": 2, "cityImage": "", "spots": [{"title": "尼巴村", "address": "甘南藏族自治州卓尼县尼巴乡尼巴村", "image": "", "rank": 1, "time": 1.0, "location": {"lat": 34.46298114012978, "lng": 103.08906215609159}, "feature": {"sight_features": "", "sight_content": ""}}, {"title": "杨土司革命纪念馆", "address": "甘南壮族自治州州卓尼县城内中医医院旁边的小巷内", "image": "", "rank": 2, "time": 1.0, "location": {"lat": 34.59491643280379, "lng": 103.51361578396147}, "feature": {"sight_features": "", "sight_content": ""}}, {"title": "旗布寺", "address": "甘南藏族自治州卓尼县木耳镇旗布村", "image": "", "rank": 3, "time": 0.4, "location": {"lat": 34.42919552841985, "lng": 103.5828581868575}, "feature": {"sight_features": "", "sight_content": ""}}, {"title": "光盖山", "address": "甘南藏族自治州卓尼县尼巴乡", "image": "", "rank": 4, "time": 1.0, "location": {"lat": 34.4630216068847, "lng": 103.1024655336567}, "feature": {"sight_features": "", "sight_content": ""}}, {"title": "甘肃大峪国家森林公园", "address": "甘肃省甘南藏族自治州卓尼县", "image": "", "rank": 5, "time": 2, "location": {"lat": 34.59491643280379, "lng": 103.51361578396147}, "feature": {"sight_features": "", "sight_content": ""}}, {"title": "旗布林卡度假公园", "address": "卓尼县大峪沟", "image": "", "rank": 6, "time": 2, "location": {"lat": 34.59491643280379, "lng": 103.51361578396147}, "feature": {"sight_features": "", "sight_content": ""}}, {"title": "洮砚乡", "address": "甘肃省甘南藏族自治州卓尼县洮砚乡", "image": "", "rank": 7, "time": 2, "location": {"lat": 34.808420538595946, "lng": 103.83339530523426}, "feature": {"sight_features": "", "sight_content": ""}}, {"title": "卓尼县", "address": "甘肃省甘南藏族自治州卓尼县", "image": "", "rank": 8, "time": 2, "location": {"lat": 34.59491643280379, "lng": 103.51361578396147}, "feature": {"sight_features": "", "sight_content": ""}}, {"title": "恰盖乡", "address": "甘肃省甘南藏族自治州卓尼县恰盖乡", "image": "", "rank": 9, "time": 2, "location": {"lat": 34.84629014962188, "lng": 103.47374124203515}, "feature": {"sight_features": "", "sight_content": ""}}, {"title": "郭札沟", "address": "甘南藏族自治州卓尼县的西南部", "image": "", "rank": 10, "time": 2.5, "location": {"lat": 34.59491643280379, "lng": 103.51361578396147}, "feature": {"sight_features": "", "sight_content": ""}}, {"title": "吉祥综合藏家乐", "address": "刀告乡412县道贡巴哈日对面", "image": "", "rank": 11, "time": 2, "location": {"lat": 34.513279553809106, "lng": 103.14843570189225}, "feature": {"sight_features": "", "sight_content": ""}}, {"title": "吉祥农家乐", "address": "盘旋北街82号", "image": "", "rank": 12, "time": 2, "location": {"lat": 34.594077785582606, "lng": 103.51665862409676}, "feature": {"sight_features": "", "sight_content": ""}}, {"title": "阿角沟", "address": "甘肃省卓尼县木耳乡大峪沟 747601", "image": "", "rank": 13, "time": 2, "location": {"lat": 34.56959817963808, "lng": 103.59408649639299}, "feature": {"sight_features": "", "sight_content": ""}}, {"title": "九洞山省级森林公园", "address": "甘肃省甘南藏族自治州卓尼县西尼沟村", "image": "", "rank": 14, "time": 2, "location": {"lat": 34.501009853956, "lng": 103.77884223927482}, "feature": {"sight_features": "", "sight_content": ""}}, {"title": "贡巴寺", "address": "甘南藏族自治州卓尼县刀告乡", "image": "", "rank": 15, "time": 1.0, "location": {"lat": 34.50735254853255, "lng": 103.13423102054104}, "feature": {"sight_features": "", "sight_content": ""}}, {"title": "甘南州大峪沟生态旅游景区", "address": "甘肃省卓尼县木耳乡大峪沟 747600", "image": "", "rank": 16, "time": 2, "location": {"lat": 34.56959817963808, "lng": 103.59408649639299}, "feature": {"sight_features": "", "sight_content": ""}}, {"title": "吉祥家园度假村", "address": "甘肃省甘南藏族自治州卓尼县X412(江尼段)", "image": "", "rank": 17, "time": 2, "location": {"lat": 35.06934704959784, "lng": 103.06965460600631}, "feature": {"sight_features": "", "sight_content": ""}}, {"title": "洮砚艺术馆", "address": "洮砚街", "image": "", "rank": 18, "time": 2, "location": {"lat": 34.59483340655615, "lng": 103.51320679893736}, "feature": {"sight_features": "", "sight_content": ""}}, {"title": "卓尼县羚艺生态园", "address": "绍藏路50号附近", "image": "", "rank": 19, "time": 2, "location": {"lat": 34.593555926369106, "lng": 103.50719256719209}, "feature": {"sight_features": "", "sight_content": ""}}, {"title": "邦锦梅朵藏家乐", "address": "木耳镇石灰窑村", "image": "", "rank": 20, "time": 2, "location": {"lat": 40.847971738569214, "lng": 115.96992389221883}, "feature": {"sight_features": "", "sight_content": ""}}, {"title": "琳源生态农庄", "address": "柳林镇木耳街", "image": "", "rank": 21, "time": 2, "location": {"lat": 34.589608995369225, "lng": 103.51249999868752}, "feature": {"sight_features": "", "sight_content": ""}}, {"title": "博峪隆琼", "address": "甘南藏族自治州-卓尼县", "image": "", "rank": 22, "time": 2, "location": {"lat": 34.59491643280379, "lng": 103.51361578396147}, "feature": {"sight_features": "", "sight_content": ""}}, {"title": "博峪村", "address": "甘南藏族自治州-卓尼县", "image": "", "rank": 23, "time": 2, "location": {"lat": 34.59491643280379, "lng": 103.51361578396147}, "feature": {"sight_features": "", "sight_content": ""}}]}