{"cityName": "卓资", "days": 2, "cityImage": "", "spots": [{"title": "林胡古塞", "address": "乌兰察布市卓资县大榆树乡", "image": "", "rank": 1, "time": 1.0, "location": {"lat": 40.76584680270798, "lng": 112.37849508569825}, "feature": {"sight_features": "特色1 集观光、体验、休闲、养老、度假、娱乐为一体知名的山水休闲旅游目的地 特色2 奇观森林和厅花异草组成了天然的大花园。 特色3 是不可多得的塞上避署 胜地。", "sight_content": "大榆树乡林胡古塞旅游区位于卓资县大榆树乡，以山水生态资源为基础，以林胡部落文化和红色文化为统领，以休闲体验为载体，以生态康体和养老产业为常态，集观光、体验、休闲、养老、度假、娱乐为一体的山水休闲旅游目的地。"}}, {"title": "岱海国际滑雪场", "address": "乌兰察布市卓资县岱海镇小圪料沟村", "image": "", "rank": 2, "time": 2, "location": {"lat": 40.67250913867207, "lng": 112.56932700926993}, "feature": {"sight_features": "", "sight_content": ""}}, {"title": "红石崖寺旅游区", "address": "乌兰察布市卓资县红召乡官庄子村", "image": "", "rank": 3, "time": 2, "location": {"lat": 41.163364603401455, "lng": 111.91156708348142}, "feature": {"sight_features": "", "sight_content": ""}}, {"title": "九曲山生态园", "address": "巴音锡勒路", "image": "", "rank": 4, "time": 2, "location": {"lat": 40.915898573228034, "lng": 112.59750702020277}, "feature": {"sight_features": "", "sight_content": ""}}, {"title": "卓资博物馆", "address": "新建街", "image": "", "rank": 5, "time": 2.5, "location": {"lat": 38.07800249249355, "lng": 114.62198045244597}, "feature": {"sight_features": "", "sight_content": ""}}, {"title": "金蛋儿童游乐园", "address": "内蒙古自治区乌兰察布市卓资县龙胜路", "image": "", "rank": 6, "time": 1.0, "location": {"lat": 40.90294996698893, "lng": 112.58966005028483}, "feature": {"sight_features": "", "sight_content": ""}}, {"title": "辉腾锡勒草原明珠度假中心", "address": "内蒙古自治区乌兰察布市察哈尔右翼中旗辉腾锡勒草原明珠度假中心", "image": "", "rank": 7, "time": 2, "location": {"lat": 41.14930602519126, "lng": 112.6181188521293}, "feature": {"sight_features": "", "sight_content": ""}}, {"title": "辉腾锡勒九十九泉草原渡假村", "address": "内蒙古自治区乌兰察布市卓资县", "image": "", "rank": 8, "time": 2, "location": {"lat": 40.900291837833585, "lng": 112.58440955069771}, "feature": {"sight_features": "", "sight_content": ""}}, {"title": "察汗哈达大桥", "address": "乌兰察布市察哈尔右翼中旗", "image": "", "rank": 9, "time": 2, "location": {"lat": 41.28327294329096, "lng": 112.64258040196295}, "feature": {"sight_features": "", "sight_content": ""}}, {"title": "卧佛湾旅游度假村", "address": "内蒙古自治区乌兰察布市卓资县卓资县梨花镇", "image": "", "rank": 10, "time": 2, "location": {"lat": 40.993246122202784, "lng": 112.3571371481643}, "feature": {"sight_features": "", "sight_content": ""}}, {"title": "集宁林胡古寨", "address": "乌兰察布市-卓资县-运煤专线", "image": "", "rank": 11, "time": 2, "location": {"lat": 40.900291837833585, "lng": 112.58440955069771}, "feature": {"sight_features": "", "sight_content": ""}}]}