{"cityName": "涿鹿", "days": 2, "cityImage": "", "spots": [{"title": "黄帝城", "address": "张家口市涿鹿县矾山镇", "image": "", "rank": 1, "time": 2.0, "location": {"lat": 40.23396243846529, "lng": 115.44541821411926}, "feature": {"sight_features": "特色1 寻根祭祖的圣地", "sight_content": "黄帝城为不规则方形夯土城，东西宽450——500米，南北长510——540米，残存城墙高5——10米，底厚约10米，顶厚3米左右。遗址内陆续发现了大量陶器、石器，均以距今五千年左右的仰韶文化和龙山文化为典型，与黄帝所处时代相一致。秦始皇等历代帝黄帝泉、蚩尤三寨、蚩尤坟、上下七旗等远古遗存至今保存尚好，为研究黄帝、炎帝、蚩尤人文三祖，提供了得天独厚的条件。\n\n\n中华三祖纪念堂，古朴凝重，向人们展示了黄帝、炎帝、蚩尤这三位人文始祖的伟大功绩，体现了海内外华人对中华文明的强大凝聚力。中华三祖堂采用唐代建筑风格，堂内塑有黄帝、炎帝、蚩尤大型塑像。并陈列有在涿鹿之野出土的石斧、陶纺轮、石镞等人类早期生产生活用品和战争兵器。墙壁上绘有涿鹿之战、阪泉之战、合符釜山、定都涿鹿四大历史事件的大型壁画。以黄帝城、黄帝泉、蚩尤寨、蚩尤泉为主要景点的中华三祖文化旅游区，正在吸引着越来越多的炎黄子孙来这里寻根祭祖。"}}, {"title": "西灵山", "address": "张家口市涿鹿县南侧109国道旁鲍家口村", "image": "", "rank": 2, "time": 7.5, "location": {"lat": 40.013528700714836, "lng": 115.43615549046335}, "feature": {"sight_features": "", "sight_content": ""}}, {"title": "金河口森林公园", "address": "涿鹿县与蔚县交界处五台山脚下", "image": "", "rank": 3, "time": 2, "location": {"lat": 40.385834075002876, "lng": 115.21138346202879}, "feature": {"sight_features": "", "sight_content": ""}}, {"title": "东灵山生态旅游区", "address": "河北省张家口涿鹿县矾山镇", "image": "", "rank": 4, "time": 3.5, "location": {"lat": 40.23396243846529, "lng": 115.44541821411926}, "feature": {"sight_features": "", "sight_content": ""}}, {"title": "北京门头沟灵山", "address": "中国北京市门头沟区灵山 102311", "image": "", "rank": 5, "time": 1.0, "location": {"lat": 39.94614672003409, "lng": 116.10760355576534}, "feature": {"sight_features": "", "sight_content": ""}}, {"title": "中华始祖文化村", "address": "河北张家口市逐鹿县东部黄土源上", "image": "", "rank": 6, "time": 2, "location": {"lat": 40.7732372026915, "lng": 114.89257223145165}, "feature": {"sight_features": "", "sight_content": ""}}, {"title": "黄帝泉", "address": "位于河北省张家口市涿鹿县矾山镇黄帝城（城东500m）", "image": "", "rank": 7, "time": 2, "location": {"lat": 40.23396243846529, "lng": 115.44541821411926}, "feature": {"sight_features": "", "sight_content": ""}}, {"title": "奶油四季草莓乐园采摘基地", "address": "红庙堡村", "image": "", "rank": 8, "time": 2, "location": {"lat": 40.3932904845376, "lng": 115.24618135073841}, "feature": {"sight_features": "", "sight_content": ""}}, {"title": "桑干生态园", "address": "五堡镇杨窑村", "image": "", "rank": 9, "time": 2, "location": {"lat": 40.334383241342366, "lng": 115.27236855623639}, "feature": {"sight_features": "", "sight_content": ""}}, {"title": "涿鹿图书馆", "address": "隆都路开元大酒店对面", "image": "", "rank": 10, "time": 1.5, "location": {"lat": 40.39338133942324, "lng": 115.21795537530924}, "feature": {"sight_features": "", "sight_content": ""}}, {"title": "黄帝大战蚩尤遗址", "address": "河北省涿鹿县矾山镇 075600", "image": "", "rank": 11, "time": 2, "location": {"lat": 40.23396243846529, "lng": 115.44541821411926}, "feature": {"sight_features": "", "sight_content": ""}}, {"title": "小五台", "address": "河北省涿鹿县小五台山自然保护区 075700", "image": "", "rank": 12, "time": 3.5, "location": {"lat": 40.385834075002876, "lng": 115.21138346202879}, "feature": {"sight_features": "", "sight_content": ""}}, {"title": "黄帝城三祖祠文化遗址", "address": "涿鹿县其他150乡道", "image": "", "rank": 13, "time": null, "location": {"lat": 40.41179651829542, "lng": 115.20924019491254}, "feature": {"sight_features": "", "sight_content": ""}}, {"title": "峡谷漂流", "address": "414县道", "image": "", "rank": 14, "time": 0.1, "location": {"lat": 45.304712227438, "lng": 121.51175254149514}, "feature": {"sight_features": "", "sight_content": ""}}, {"title": "斌斌儿童乐园(旗舰店)", "address": "河东镇河东村", "image": "", "rank": 15, "time": 2, "location": {"lat": 37.78296149771051, "lng": 102.78036994182992}, "feature": {"sight_features": "", "sight_content": ""}}, {"title": "极乐寺", "address": "河北省张家口市涿鹿县s342", "image": "", "rank": 16, "time": 1.5, "location": {"lat": 40.385834075002876, "lng": 115.21138346202879}, "feature": {"sight_features": "", "sight_content": ""}}, {"title": "新世纪儿童乐园", "address": "隆都路附近", "image": "", "rank": 17, "time": 2, "location": {"lat": 22.520073093453966, "lng": 113.32246737365273}, "feature": {"sight_features": "", "sight_content": ""}}, {"title": "乐贝儿游乐园", "address": "北关大街与隆都路交叉口西北150米", "image": "", "rank": 18, "time": 2, "location": {"lat": 40.39317793041517, "lng": 115.22650307383006}, "feature": {"sight_features": "", "sight_content": ""}}, {"title": "交运公园", "address": "河北省张家口市涿鹿县涿鹿镇合符大街顺达机动车检测中心", "image": "", "rank": 19, "time": 2, "location": {"lat": 40.40780266482434, "lng": 115.21529474171079}, "feature": {"sight_features": "", "sight_content": ""}}, {"title": "蚩尤祠", "address": "河北省张家口市涿鹿县矾山镇", "image": "", "rank": 20, "time": 2, "location": {"lat": 40.23396243846529, "lng": 115.44541821411926}, "feature": {"sight_features": "", "sight_content": ""}}, {"title": "鬼屋", "address": "河北省张家口市涿鹿县人民中街", "image": "", "rank": 21, "time": 2, "location": {"lat": 40.381670719606355, "lng": 115.2225841711275}, "feature": {"sight_features": "", "sight_content": ""}}, {"title": "佳和农场生态园", "address": "张家口市涿鹿县", "image": "", "rank": 22, "time": 2, "location": {"lat": 40.385834075002876, "lng": 115.21138346202879}, "feature": {"sight_features": "", "sight_content": ""}}, {"title": "涿鹿水云涧度假村", "address": "张家口市涿鹿县大堡镇山涧口村内", "image": "", "rank": 23, "time": null, "location": {"lat": 40.118232760095204, "lng": 115.1133791932635}, "feature": {"sight_features": "", "sight_content": ""}}, {"title": "上太府剧场", "address": "河北省张家口市涿鹿县", "image": "", "rank": 24, "time": 2, "location": {"lat": 40.385834075002876, "lng": 115.21138346202879}, "feature": {"sight_features": "", "sight_content": ""}}, {"title": "方成画廊", "address": "北关大街与西渠沿街交叉口北100米", "image": "", "rank": 25, "time": 2, "location": {"lat": 40.38900371403903, "lng": 115.22753320657193}, "feature": {"sight_features": "", "sight_content": ""}}, {"title": "奶油草莓乐园采摘基地", "address": "红庙堡村北", "image": "", "rank": 26, "time": 2, "location": {"lat": 40.3932904845376, "lng": 115.24618135073841}, "feature": {"sight_features": "", "sight_content": ""}}, {"title": "老赫葡萄采摘园", "address": "红彤营村附近", "image": "", "rank": 27, "time": 2, "location": {"lat": 40.35091296488734, "lng": 115.43409146377444}, "feature": {"sight_features": "", "sight_content": ""}}, {"title": "葡萄采摘组建团队", "address": "温泉屯乡吉家营村", "image": "", "rank": 28, "time": 2, "location": {"lat": 40.3532814192183, "lng": 115.3852094355334}, "feature": {"sight_features": "", "sight_content": ""}}, {"title": "世纪步行街商城", "address": "河北省涿鹿县东风大街", "image": "", "rank": 29, "time": 2, "location": {"lat": 40.39390002030444, "lng": 115.22843159382771}, "feature": {"sight_features": "", "sight_content": ""}}, {"title": "塔儿洼", "address": "张家口市-涿鹿县", "image": "", "rank": 30, "time": 2, "location": {"lat": 40.385834075002876, "lng": 115.21138346202879}, "feature": {"sight_features": "", "sight_content": ""}}, {"title": "中国黄帝城文化旅游区", "address": "河北省张家口市涿鹿县矾山镇", "image": "", "rank": 31, "time": 2, "location": {"lat": 40.23396243846529, "lng": 115.44541821411926}, "feature": {"sight_features": "", "sight_content": ""}}]}