{"cityName": "竹山", "days": 2, "cityImage": "", "spots": [{"title": "圣水湖国际旅游度假区", "address": "湖北省十堰市竹山县上庸镇", "image": "", "rank": 1, "time": 2, "location": {"lat": 32.174461854892286, "lng": 110.17476050671658}, "feature": {"sight_features": "", "sight_content": ""}}, {"title": "女娲山风景区", "address": "十堰市竹山县宝丰镇", "image": "", "rank": 2, "time": 2.0, "location": {"lat": 32.30636347162619, "lng": 110.0175813613972}, "feature": {"sight_features": "", "sight_content": ""}}, {"title": "陈家祠堂", "address": "十堰市竹山县", "image": "", "rank": 3, "time": 1.5, "location": {"lat": 32.2303040603762, "lng": 110.23558156764314}, "feature": {"sight_features": "", "sight_content": ""}}, {"title": "九华山森林公园", "address": "田家坝镇", "image": "", "rank": 4, "time": 4.0, "location": {"lat": 32.18337535410349, "lng": 110.1529116901367}, "feature": {"sight_features": "", "sight_content": ""}}, {"title": "竹山科技馆", "address": "十堰路", "image": "", "rank": 5, "time": 2.5, "location": {"lat": 32.237605287053384, "lng": 110.2347466726208}, "feature": {"sight_features": "", "sight_content": ""}}, {"title": "九女峰森林公园", "address": "湖北省十堰市竹山县上庸镇九华山森林公园", "image": "", "rank": 6, "time": 2, "location": {"lat": 32.06362602775272, "lng": 110.18610855947827}, "feature": {"sight_features": "", "sight_content": ""}}, {"title": "秦巴民俗博物馆", "address": "官渡镇武陵大道特1号", "image": "", "rank": 7, "time": 2, "location": {"lat": 29.77496482977759, "lng": 104.854836571149}, "feature": {"sight_features": "", "sight_content": ""}}, {"title": "田家老院子农家乐", "address": "上庸镇黄州路29号", "image": "", "rank": 8, "time": 2, "location": {"lat": 32.175033035252916, "lng": 110.17249303269408}, "feature": {"sight_features": "", "sight_content": ""}}, {"title": "许明清烈士纪念碑", "address": "北大街15", "image": "", "rank": 9, "time": 2, "location": {"lat": 39.3355597382491, "lng": 115.86936781238116}, "feature": {"sight_features": "", "sight_content": ""}}, {"title": "国际绿松石博物馆", "address": "305国道国际绿松石城1号", "image": "", "rank": 10, "time": 2, "location": {"lat": 32.216795001297086, "lng": 110.24640772286963}, "feature": {"sight_features": "", "sight_content": ""}}, {"title": "竹山县民俗博物馆", "address": "湖北省十堰市竹山县上庸镇黄州路民俗博物馆", "image": "", "rank": 11, "time": 2, "location": {"lat": 32.17491401994267, "lng": 110.17448023449917}, "feature": {"sight_features": "", "sight_content": ""}}, {"title": "龙谭沟", "address": "十堰市-竹山县", "image": "", "rank": 12, "time": 2, "location": {"lat": 32.2303040603762, "lng": 110.23558156764314}, "feature": {"sight_features": "", "sight_content": ""}}, {"title": "太和梅花谷", "address": "十堰市竹山县文峰乡太和村", "image": "", "rank": 13, "time": 2, "location": {"lat": 32.209044070755496, "lng": 110.34084749920184}, "feature": {"sight_features": "", "sight_content": ""}}]}