{"cityName": "自贡", "days": "", "cityImage": "", "spots": [{"title": "自贡恐龙博物馆", "address": "自贡市大安区燊海井路4段268号", "image": "", "rank": 1, "time": 2.0, "location": {"lat": 29.392498335702598, "lng": 104.82051158460679}, "feature": {"sight_features": "特色1 馆内几乎囊括所有已知恐龙的化石。 特色2 世界三大恐龙遗址博物馆之一", "sight_content": "自贡恐龙博物馆位于四川省自贡市的东北部，距市中心9公里。自贡恐龙博物馆是在世界闻名的“大山铺恐龙化石群遗址”上就地兴建的一座大型遗址类博物馆，也是我国第一座专门性恐龙博物馆。世界三大恐龙遗址博物馆之一。\n博物馆占地面积6.6万多平方米，馆藏化石标本几乎囊括了距今2.05-1.35亿年前侏罗纪时期所有已知恐龙种类，是目前世界上收藏和展示侏罗纪恐龙化石最多的地方。美国《全球地理杂志》对其赞誉极高。\n博物馆先后荣获“中国旅游胜地四十佳”、“国家地质公园”、“国家AAAA级景区”、“全国青少年科技教育基地”，以及文化部“文化工作先进集体”、“全国十大陈列精品奖”、“四川省重点博物馆”和“20世纪最有代表性的30个中国精品建筑”等殊荣。\n自贡恐龙博物馆也是自贡世界地质公园组成部分之一。是中宣部、科技部命名的全国100个“青少年科技教育基地”之一、“中国古生物科普教育基地”、“四川省爱国主义教育基地”、“四川省科普教育基地”。"}}, {"title": "中国彩灯博物馆", "address": "自贡市自流井区中华路公园路6号", "image": "", "rank": 2, "time": 2.5, "location": {"lat": 29.360955647551812, "lng": 104.7754983354323}, "feature": {"sight_features": "", "sight_content": ""}}, {"title": "盐业历史博物馆", "address": "自贡市市区解放路107号", "image": "", "rank": 3, "time": 1.5, "location": {"lat": 29.355240916268855, "lng": 104.777447507473}, "feature": {"sight_features": "特色1 中国科技史专业博物馆", "sight_content": "自贡市盐业历史博物馆是中国科技史专业博物馆，位于四川省自贡市市中区龙凤山下的釜溪河畔。\n馆址为修建于清乾隆元年(1736)的西秦会馆。这是一座由陕籍盐商集资修筑的同乡会馆，融明清两代宫廷和民间建筑风格于一体。\n保存完好的碑文、木雕、石刻、泥塑，是研究鸦片战争前清代社会生活、经济状况、宗教艺术的实物标本。"}}, {"title": "燊海井", "address": "自贡市大安区阮家坝山下", "image": "", "rank": 4, "time": 1.5, "location": {"lat": 29.369928541322043, "lng": 104.78041635328415}, "feature": {"sight_features": "特色1 被誉为四川自贡盐场奇观之一 特色2 天车井架十分壮观，被誉为四川自贡盐场奇观之一。 特色3 自贡燊海井坐落在大安区阮家坝山下，占地面积约3亩。", "sight_content": "自贡燊海井坐落在大安区阮家坝山下，占地面积3亩，井位海拔341.4米。该井开钻于清代道光十五年（公元1835年），历时13年，方始凿成。井深1001.42米，既产卤，又产气。\n燊海井开凿于清道光三年（1823年），道光十五年（1835年）凿成，历时13年，井深1001.42米，是世界上第一口超千米的大井。井凿成后，每天喷出万余担的黑卤，日产天然气8500多立方米，烧盐锅80多口，到1940年每天还自喷黑卤10000多担，天然气4800到8000立方米。燊海井从建成到今天已经生产了一个半世纪，由于长时间的缺乏维修，井下设施损坏十分严重，后来经过维修，燊海井仍可日产天然气约1500立方米。\n它的主要建筑有碓房、大车房、灶房、柜房等。主要生产设备有碓架、井架、大车、盐锅、盐仓、采输气设施等，展示了清代井盐钻凿、天然气采输、采卤、煎盐等传统技术和工艺。\n燊海井也是自贡世界地质公园组成部分之一。"}}, {"title": "仙市古镇", "address": "自贡市沿滩区自富路附近", "image": "", "rank": 5, "time": 2.0, "location": {"lat": 29.305549972171768, "lng": 104.95752047889219}, "feature": {"sight_features": "", "sight_content": ""}}, {"title": "荣县大佛", "address": "自贡市荣县旭阳镇大佛街大佛寺1号", "image": "", "rank": 6, "time": 7.5, "location": {"lat": 29.459932535960505, "lng": 104.43645578357666}, "feature": {"sight_features": "特色1 国家AAAA级景区，国内第二大石刻大佛。", "sight_content": "荣县大佛位于四川省荣县县城东郊，为唐代所刻，佛像坐南面北，是一尊坐佛装弥勒摩崖石刻造像，佛身通高36．67米，头长8.76米，肩宽12.67米，膝高12米，脚宽3.5米，是世界第一大释迦牟尼佛（现世佛），第二大石刻大佛，仅次于乐山弥勒大佛（未来佛）。荣县大佛与乐山大佛相距不足百里，各有特点，映衬成趣，自古以来就有“嘉州大佛雄，荣州大佛美！”之誉。\n荣县大佛是第六批全国重点文物保护单位名单，是国家AAAA级景区，是自贡世界地质公园的一部分，与荣县金花桫椤谷公园和荣县青龙山恐龙化石公园共同组成了自贡世界地质公园荣县青龙山恐龙化石群遗迹园区。\n大佛寺坐落在四川省荣县城郊大佛山(亦称真如岩)山麓，山高海拔414米。半山之上，有一尊巍峨的石刻如来坐佛佛像，世称荣县大佛。佛身通高36．67米，头长8.76米，肩宽12.67米，膝高12米，脚宽3.5米，是世界第一大释迦牟尼佛（现世佛），第二大石刻大佛，仅次于乐山弥勒大佛（未来佛）。\n大佛气势雄伟，造型优美，衣纹流畅，神韵飘然。清代时大佛肉身贴金，衣纹施彩，金光灿烂。大佛所在庙宇，唐代名开化寺，清代以来称大佛禅寺。因寺内佛像巍峨，历史上庙宇规模很大，可惜毁于明末兵火，清代嘉庆年间重建，经过近二百年的扩建维修，寺庙已具相当规模，其布局宛如一只展翅欲飞的大雁，山下远望禅林，古刹错落有致，大佛巍巍，尤为壮观。"}}, {"title": "自贡彩灯公园", "address": "自贡市自流井区公园路6号", "image": "", "rank": 7, "time": 1.5, "location": {"lat": 29.360955647551812, "lng": 104.7754983354323}, "feature": {"sight_features": "", "sight_content": ""}}, {"title": "富顺文庙", "address": "自贡市富顺县城中心、大南门附近", "image": "", "rank": 8, "time": 2.0, "location": {"lat": 29.186886257830583, "lng": 104.98149440602947}, "feature": {"sight_features": "", "sight_content": ""}}, {"title": "恐龙欢乐王国", "address": "自贡市大安区大山铺自贡恐龙博物馆旁", "image": "", "rank": 9, "time": 2, "location": {"lat": 29.39282966224614, "lng": 104.83035665995882}, "feature": {"sight_features": "特色1 实现你缤纷的童话之梦，开启你的欢乐之旅。 特色2 恐龙主题公园，唤醒你所有青春梦想的国度。", "sight_content": "自2017年1月21日起，你将进入一个奇幻浪漫的童话王国，如梦如幻的视听特效，前所未有地激情体验，每个人都能在这里实现你缤纷的童话之梦，开启你的欢乐之旅。这里是自贡恐龙欢乐王国，西部地区最大的恐龙主题公园，唤醒你所有青春梦想的国度。\n\n\n西部地区规模盛大的花车巡游，多个舞台剧场轮番上演妙趣横生的精彩剧目，时尚动感的歌舞表演，惊险刺激的项目体验，带给你畅快淋漓和意想不到的奇幻感受。\n\n\n绝对不可错过的过山车，失重与高度的完美结合，带给你身心释放的完全享受。摩天轮为你提供分享甜蜜的浪漫时光，也是亲子家庭的欢乐天地。此刻，你就是乐园最美的风景。穿越悠久的历史对恐龙做出崭新的诠释，凶猛残暴的史前霸主，变身呆萌小怪兽，与你零距离亲密互动，性格迥异的恐龙萌物，为你带来纯真、奇趣与欢乐。这个充满童趣、想象力与探索精神的奇妙天地等你来探寻。"}}, {"title": "富顺西湖", "address": "自贡市，富顺县城内西北角", "image": "", "rank": 10, "time": 4.5, "location": {"lat": 29.186886257830583, "lng": 104.98149440602947}, "feature": {"sight_features": "", "sight_content": ""}}, {"title": "燊海森林海汤神泉", "address": "自贡市自流井区卧龙国际旅游度假区燊海森林内", "image": "", "rank": 11, "time": 2, "location": {"lat": 29.343498562347857, "lng": 104.78344732590438}, "feature": {"sight_features": "特色1 远离喧嚣，洗去尘埃。", "sight_content": "温馨提示\n泡汤方式：男女混浴。\n洗浴设施：提供洗浴的各类项目信息。\n必备用品：自备泳衣泳裤。\n综合设施：含露天温泉。\n免费提供：免费提供：消毒毛巾、无线WiFi、更衣柜、贵重物品寄放、健身设施等，当天开放池区及保养池区以前台通知为准。\n不宜人群：\n1：心脏病、高血压、癫痫病、心脑血栓不可沐浴温泉；\n2：传染病，急性疾病患者不可沐浴温泉；\n3：癌症、白血病不可侵泡温泉；\n4：严重湿疹、皮肤病不可侵泡；\n5：女性生理期不可侵泡；\n6：酒后不可沐浴。\n其他：1.2米以下免票，不包含1.2米；1.2-1.4米半票，不包含1.4米；16岁以下六十岁以上需成年人监护。\n温泉实用信息\n\n温泉水温：\n温泉水温：37-45摄氏度。\n特色泡池：鱼疗、药浴、玫瑰浴、硫磺泉、酒浴、铁泉。\n餐饮信息：酒店二楼餐厅，自贡特色冷吃兔，火边子牛肉，牛佛烘肘。\n特色项目：付费项目：鱼疗、盐疗房。免费项目：温泉泡池，汗蒸，水疗SPA ，水果、饮料。\n娱乐设施：付费项目：风味餐厅、电子游戏厅，陆地乐园，水上乐园。免费项目：淘气堡、桌球、健身设施等。\n安全提示：参考温馨提示。\n周边交通及商圈：乘坐307路到燊海森林公交站下，步行180米可达。\n\n\n海汤神泉位于盐之都、龙之乡、灯之城的历史名城自贡5A级卧龙湖国际度假区，深度挖掘本土“盐、龙、灯”文化内涵，凸显“运动、健康、休闲、度假”主题，以盐卤康疗养生、灯会展览推广、旅游观光、水上乐园、美食娱乐、文化体验及表演为产品主导，全力打造成为国际性“井盐文化旅游”第一城。\n\n水源以蕴藏地下千米、慢煲千年的盐卤为核心，通过科学处理，融入温泉养生的“视、嗅、触、味、听”五觉，让游客感悟千年盐文化的同时，开启“放松身心漂浮、盐卤给您健康”之旅。\n度假区以盐卤为主导概念，在游客的“吃、喝、娱、乐、购”输入盐卤文化元素，打造集盐卤漂浮养生、盐卤膳食养生、盐卤水疗养生、盐卤本草养生、盐卤文化养生、盐卤运动养生等为一体的复合型养生旅游度假项目，树立全新养生旅游品牌，开启国际盐卤养生旅游新篇章。"}}, {"title": "花香田园", "address": "自贡市贡井区艾叶镇六房村九组", "image": "", "rank": 12, "time": 2, "location": {"lat": 29.371691316323208, "lng": 104.68227742226718}, "feature": {"sight_features": "特色1 赏花、美食、趣味活动", "sight_content": "花香田园采用了一百多万株郁金香，两百多万盆年宵花和四百多万株珍稀花木，拥有15个主题景点和一百多个配套景点。本次花展基础设施完善，举办方在花展期间还举办各种民风、民俗表演、汽车展、特色农产品展销和特色美食展及各种特色参与性强的有奖趣味游戏活动。花香田园共有游山玩水和奇异花海两个大的游玩区，其中有狮子山、官斗山、猴子山、石啰、石鼓庙子山、七星湖等十多个自然景点。"}}, {"title": "尖山自然风景区", "address": "自贡市自流井区荣边镇农团山(近茂祥山庄)", "image": "", "rank": 13, "time": 1.0, "location": {"lat": 29.259708646521307, "lng": 104.64645328240564}, "feature": {"sight_features": "", "sight_content": ""}}, {"title": "高石梯森林公园", "address": "自贡市荣县铁厂镇山王井荣路", "image": "", "rank": 14, "time": 3.0, "location": {"lat": 29.533660755446462, "lng": 104.31351370050474}, "feature": {"sight_features": "", "sight_content": ""}}, {"title": "玫瑰海", "address": "自贡市大安区团结镇朝天村3组（原朝天寺学校）", "image": "", "rank": 15, "time": 2, "location": {"lat": 29.438707941155837, "lng": 104.80519763878638}, "feature": {"sight_features": "", "sight_content": ""}}, {"title": "雁溪谷", "address": "自贡市大安区何市镇高庙村", "image": "", "rank": 16, "time": 2, "location": {"lat": 29.423519813781688, "lng": 104.91739936109971}, "feature": {"sight_features": "", "sight_content": ""}}, {"title": "金花桫椤自然保护区", "address": "自贡市荣县金花乡", "image": "", "rank": 17, "time": 1.0, "location": {"lat": 29.24748902665411, "lng": 104.17668654869512}, "feature": {"sight_features": "", "sight_content": ""}}, {"title": "花语人间", "address": "自贡市大安区凤凰乡北环路168号", "image": "", "rank": 18, "time": 2, "location": {"lat": 29.36698396084256, "lng": 104.7377651670067}, "feature": {"sight_features": "", "sight_content": ""}}, {"title": "五彩荷园", "address": "自贡市贡井区建设镇重滩村（305省道公路旁）", "image": "", "rank": 19, "time": 2, "location": {"lat": 29.379375846268914, "lng": 104.65008381197049}, "feature": {"sight_features": "特色1 清凉来袭，玩乐荷园间，尽享六月天。", "sight_content": "荷花，历代文人墨客笔下的圣洁之花，以其出淤泥而不染濯清涟而不妖的高尚品格深受人民喜爱，拥有深厚的文化内涵与极具特色的荷花文化。6月16日-9月16日，五彩荷园“清爽夏季风情贡井荷花文化节”活动清凉来袭，玩乐荷园间，尽享六月天。\n五彩荷园拥有太空荷花200亩，三角梅100亩，樱花100亩，红叶李100亩，紫薇50亩，桃花50亩。园林总面积1100余亩，名贵树木数十种，其中银杏大道长约200米。生态查房2000多平方米，可同时容纳1000余人品茗。\n\n\n五彩荷园位于自贡市贡井区建设镇重滩村（305省道公路旁），山水相融，绿树成荫，总占地近千亩，其中150亩荷花，150亩鱼塘，80亩向日葵，建筑面积4000平方米。\n五彩荷园特色餐饮有：特色中餐（乡土菜、盐帮菜、新派川菜、鲜活点杀、山珍野味），休闲烧烤、井水石磨豆花等特色餐饮。山庄厨师队伍雄厚，菜品丰富多彩。山庄厨师曾多次参加全国、全省厨师技能大赛并获得嘉奖，并荣获“自贡市旅游特色餐饮名店”称号。"}}, {"title": "三多寨", "address": "自贡市大安区三多寨镇牛口山", "image": "", "rank": 20, "time": 2, "location": {"lat": 29.429250949660414, "lng": 104.88310832511591}, "feature": {"sight_features": "", "sight_content": ""}}, {"title": "彩灯公园动物园", "address": "自贡市自流井区自由路与五星街交叉口", "image": "", "rank": 21, "time": 2, "location": {"lat": 29.361008857204972, "lng": 104.77354460179625}, "feature": {"sight_features": "特色1 动物异地保护和展出场所", "sight_content": "自贡彩灯公园动物园不仅是动物异地保护和展出场所，也是对公众进行野生动物科普宣传教育的基地和繁育救护野生动物的科研单位，动物园现展示的动物有1-3级保护动物：东北虎、非洲狮、金钱豹、大灰狼、黑天鹅、保德袖珍马、马来西亚熊、小熊猫、北美羊驼、澳洲袋鼠、秃鹫、金雕、浣熊、驼鸟、鸳鸯、丹顶鹤、扬子鳄、泰国鳄鱼、牦牛、骆驼、梅花鹿、孔雀、白腹锦鸡、红腹锦鸡、白鹇、小禽类等40余种动物供游客观赏。"}}, {"title": "荣县军政府遗址", "address": "自贡荣县（旭阳镇）县城内，县政府办公大楼后边", "image": "", "rank": 22, "time": 1.0, "location": {"lat": 29.484975082162943, "lng": 104.42457292014203}, "feature": {"sight_features": "", "sight_content": ""}}, {"title": "江姐故里景区", "address": "自贡市大安区红岩路", "image": "", "rank": 23, "time": 1.5, "location": {"lat": 29.37708458459728, "lng": 104.84894799078718}, "feature": {"sight_features": "", "sight_content": ""}}, {"title": "吴玉章故居", "address": "自贡市荣县东南，金台乡蔡家堰村", "image": "", "rank": 24, "time": 1.0, "location": {"lat": 29.38096753013205, "lng": 104.52776341829434}, "feature": {"sight_features": "", "sight_content": ""}}, {"title": "双溪湖风景区", "address": "自贡市荣县旭阳镇附北街自贡双溪风景区", "image": "", "rank": 25, "time": 2, "location": {"lat": 29.478664703062908, "lng": 104.41994116530694}, "feature": {"sight_features": "", "sight_content": ""}}, {"title": "嘉丰乐奥海洋公园", "address": "自贡市大安区北环路18号川南皮革城二期乐奥海洋馆", "image": "", "rank": 26, "time": 2, "location": {"lat": 29.40268796353001, "lng": 104.82933426522095}, "feature": {"sight_features": "特色1 集自然、游乐、科普教育为一体的亲子乐园", "sight_content": "【景点简介】\n乐奥海洋公园位于自贡市大安区北环路18号川南皮革城二期，是集自然、游乐、科普教育为一体的亲子乐园，拥有新奇独特、风光各异、美轮美奂、自然欢快的海底世界，总占地面积6000余平方，总水体1000多吨，是川南地区规模最大的海洋主题公园\n【景点特色】美人鱼表演、海底时光隧道、海狮表演、企鹅池、裸眼5D彩色熊猫儿童互动剧场"}}, {"title": "梦想小镇", "address": "自贡市自流井区华商国际城奥特莱斯三楼7-3F", "image": "", "rank": 27, "time": 2, "location": {"lat": 29.32674740944885, "lng": 104.77750139682053}, "feature": {"sight_features": "", "sight_content": ""}}, {"title": "大佛寺", "address": "旭阳镇大佛街1号", "image": "", "rank": 28, "time": null, "location": {"lat": 29.460938936116918, "lng": 104.43727793164354}, "feature": {"sight_features": "", "sight_content": ""}}, {"title": "牛佛古镇", "address": "四川省自贡市大安区牛佛镇", "image": "", "rank": 29, "time": 2, "location": {"lat": 29.373861568696423, "lng": 105.01528170462242}, "feature": {"sight_features": "", "sight_content": ""}}, {"title": "金水坊•水上大世界", "address": "自贡市自流井区南湖华商花卉大世界内", "image": "", "rank": 30, "time": 2, "location": {"lat": 29.343498562347857, "lng": 104.78344732590438}, "feature": {"sight_features": "", "sight_content": ""}}, {"title": "三台梨花乡村旅游景区", "address": "自贡市贡井区三台山梨园", "image": "", "rank": 31, "time": 2, "location": {"lat": 29.35147626952156, "lng": 104.72155659154275}, "feature": {"sight_features": "", "sight_content": ""}}, {"title": "南湖生态公园", "address": "四川省自贡市自流井区汇北路", "image": "", "rank": 32, "time": 2, "location": {"lat": 29.33044532174094, "lng": 104.75633824157218}, "feature": {"sight_features": "", "sight_content": ""}}, {"title": "刘光第墓", "address": "自贡市富顺县芝童路西湖村", "image": "", "rank": 33, "time": 2, "location": {"lat": 29.128713441382313, "lng": 105.1940527376122}, "feature": {"sight_features": "", "sight_content": ""}}, {"title": "嘻哈乐园游乐园", "address": "自贡市沿滩新城创兴城27号楼1层1-47铺", "image": "", "rank": 34, "time": 2, "location": {"lat": 29.318425822750555, "lng": 104.81614299645551}, "feature": {"sight_features": "特色1 集运动、探索、挑战、体验于一体", "sight_content": "自贡嘻哈乐园是自贡地区最大、游乐设备最齐全的一家集运动、探索、挑战、体验于一体的室内室外综合游乐园，自正式营业以来，就广受大众青睐，每逢节假日慕名而来的家长小朋友可谓是熙来攘往、络绎不绝。\n\n嘻哈乐园室内一万多平米设有旋转飞车、蹦极、自控海螺、海洋转马、迷你穿梭、挖掘机、丛林狙击手、旋转小蜜蜂、百花乐园、拯救小鸭、海上游乐园、皇家马车、亲子打青蛙、儿童海盗船、小魔盘、托马斯火车、大象火车、飞车竞赛、碰碰车、卡丁车、儿童城堡、太空沙、儿童拓展、钓鱼、乐吧车、画画等几十种深受儿童喜爱的游乐项目；室外两万多平米设有过山车、高空飞翔、大摆锤、海盗船、迪斯科转盘、惊呼狂叫、神州飞碟、激战鲨鱼岛、自控飞机、花果山漂流、探空梭等十余种成人也可以参与的更加新颖火爆、惊险刺激的娱乐设备。\n\n所以在这里，无论是童心未泯的成年人，还是懵懵懂懂的小朋友都可以自由自在尽情游玩，穿梭在种类繁多的各种特色游乐项目之间，体验无限欢乐的亲子时光，同时嘻哈乐园也是所有自贡市民周末休闲娱乐的好去处。"}}, {"title": "燊海森林欢乐岛水上乐园", "address": "自贡市自流井区丹桂南大街2666号", "image": "", "rank": 35, "time": 1.0, "location": {"lat": 29.32996101378373, "lng": 104.7809999823738}, "feature": {"sight_features": "", "sight_content": "﻿燊海森林·欢乐岛是自贡首个水上主题游乐园，占地面积约4.7万平方米，每年能够接待游客约20万人次。燊海森林·欢乐岛水乐园结合了多种戏水玩具、水翻斗、水滑梯、主题景观包装等综合性水上游乐设施。置身其中，顿感舒适愉悦和清凉，多样化的水上互动设施，能够让你忘却夏日的炎热。\n水上海盗船：造型奇异的海盗船，迎风飘扬的海盗旗，冲破海浪，所向披靡，演绎着加勒比的梦想。\n浪摆滑梯：接近垂直的斜坡俯冲，反复体验失重与超重奥妙感受，为你带来难忘的肾上腺素狂飙之旅，感受生命的快乐、飞驰的无限快感。\n大喇叭滑梯：接近垂直的斜坡俯冲，反复体验失重与超重奥妙感受，为你带来难忘的肾上腺素狂飙之旅，感受生命的快乐、飞驰的无限快感。\n竞赛滑梯：封闭式的环形管道状滑道，将你出乎意料地扭转到其他滑道，多层次的滑行乐趣与速度变化，让您放松身体，挥洒澎湃热情。\n巨兽碗滑梯：从高台急速下滑，高速旋转冲入巨兽碗中，再从巨兽碗中高速冲出，体验无限失重的快感！\n造浪池：运用先进的造浪技术，随着浪潮预警省的来临，怀着紧张的心情迎接，一波又一波浪花的席卷而来。\n儿童水寨：专为儿童设计的缤纷儿童水寨设有封闭式滑道、敞开式滑道、螺旋滑道、喷水柱、各种喷水公仔等多种戏水游乐设施，满足小朋友享受水上运动带来的动感与乐趣！"}}, {"title": "自贡花海", "address": "自贡市沿滩区东环路与龙乡大道交叉口", "image": "", "rank": 36, "time": 2, "location": {"lat": 29.329327439656925, "lng": 104.84031080666753}, "feature": {"sight_features": "", "sight_content": ""}}, {"title": "风情草原", "address": "自贡市东环路张家坝（自贡花海以东过桥100米）", "image": "", "rank": 37, "time": 2, "location": {"lat": 29.36664234215229, "lng": 104.84392693639506}, "feature": {"sight_features": "", "sight_content": ""}}, {"title": "仙花谷", "address": "自贡沿滩区仙市古镇高佳庄仙花谷", "image": "", "rank": 38, "time": 2, "location": {"lat": 29.337516788793813, "lng": 104.88563064571585}, "feature": {"sight_features": "", "sight_content": ""}}, {"title": "川南五金城水上乐园", "address": "自贡市贡井区305省道旁中国川南商贸城", "image": "", "rank": 39, "time": 2, "location": {"lat": 29.32968737284933, "lng": 104.73119874417169}, "feature": {"sight_features": "", "sight_content": ""}}, {"title": "观音湖", "address": "自贡市永安镇观音湖景区熙园山院", "image": "", "rank": 40, "time": 3.5, "location": {"lat": 29.23571463470249, "lng": 104.7757935374872}, "feature": {"sight_features": "特色1 赏花踏青游玩", "sight_content": "‍观音湖景区正是以幸福自贡为愿景而打造，它是以旅游资源位依托，以休闲景观为主要目的来丰富人们的精神文化追求、从视觉、心灵、休闲、度假等各方面去完成人们的满意度和幸福感的增长，观音湖景区坐落于自贡市沿滩区永安证观音湖畔，它是“信步沿滩，美过周末”系列以及沿滩“一线经济带”之重要节点项目。‍\n整个景区分为几个阶段打造，第一期现占地700亩已投资5000多万打造，景区于2016年3月举办首届郁金香旅游节，9月举办了百合花旅游节，本次郁金香乡村旅游节将在上届郁金香节的基础上，扩大规模，完善基础建设设施(大型停车场、休息长廊、美食区、儿童乐园、景观游道）退出100万株郁金香、400万株草花。\n以及其他若干配套景观景点，复合景观和景观台、花门等配套齐全，并融入自贡特色文化、盐文化、龙文化等为游客服务，景观为将全力打造婚纱、摄影基地及作为与自贡中心城市配套的休闲旅游渡江目的地。"}}, {"title": "紫荆湖", "address": "自贡市自流井区荣边镇拱桥村", "image": "", "rank": 41, "time": 2, "location": {"lat": 29.273004747603395, "lng": 104.68480487219158}, "feature": {"sight_features": "", "sight_content": ""}}, {"title": "中国彩灯之乡文化创意产业园", "address": "自贡市沿滩区刘山乡云丰村", "image": "", "rank": 42, "time": 2, "location": {"lat": 29.233579170304314, "lng": 104.81879279199711}, "feature": {"sight_features": "", "sight_content": ""}}, {"title": "欢乐圣果园", "address": "自贡市富顺县狮市镇马安村（马安小学后山）", "image": "", "rank": 43, "time": 2, "location": {"lat": 29.28054657929984, "lng": 105.04475862436283}, "feature": {"sight_features": "", "sight_content": ""}}, {"title": "自流井老街", "address": "自贡市光大街自流井区中医院旁边", "image": "", "rank": 44, "time": 2, "location": {"lat": 29.352207505290124, "lng": 104.76034070555025}, "feature": {"sight_features": "", "sight_content": ""}}, {"title": "妙观寺", "address": "自贡市自流井区汇东路附近", "image": "", "rank": 45, "time": 2, "location": {"lat": 29.343724704589178, "lng": 104.76874524291578}, "feature": {"sight_features": "", "sight_content": ""}}, {"title": "多福生态园", "address": "三多寨镇徐家村", "image": "", "rank": 46, "time": 2, "location": {"lat": 29.461241615970792, "lng": 104.86810430367942}, "feature": {"sight_features": "", "sight_content": ""}}, {"title": "桓侯宫", "address": "自贡市自流井区中华路与解放路交汇处北侧20米中华路西面", "image": "", "rank": 47, "time": 2, "location": {"lat": 29.35774622935577, "lng": 104.77885946676803}, "feature": {"sight_features": "", "sight_content": ""}}, {"title": "沿滩公园", "address": "自贡市沿滩区开元南路与板牛路交叉口北100米", "image": "", "rank": 48, "time": 2, "location": {"lat": 29.26992922672084, "lng": 104.89144058392182}, "feature": {"sight_features": "", "sight_content": ""}}, {"title": "自贡市图书馆", "address": "高新区汇东路360号", "image": "", "rank": 49, "time": 2.5, "location": {"lat": 29.3501084775383, "lng": 104.77674066410474}, "feature": {"sight_features": "", "sight_content": ""}}, {"title": "龙凤山公园", "address": "自贡市自流井区", "image": "", "rank": 50, "time": 2, "location": {"lat": 29.343498562347857, "lng": 104.78344732590438}, "feature": {"sight_features": "", "sight_content": ""}}, {"title": "玫瑰庄园", "address": "自贡市沿滩区S206(东环路)人民村玫瑰园", "image": "", "rank": 51, "time": 2, "location": {"lat": 29.36664234215229, "lng": 104.84392693639506}, "feature": {"sight_features": "", "sight_content": ""}}, {"title": "自贡天池寺", "address": "四川省自贡市贡井区艾叶乡竹林村", "image": "", "rank": 52, "time": 2.5, "location": {"lat": 29.35719901341229, "lng": 104.68988476469629}, "feature": {"sight_features": "", "sight_content": ""}}, {"title": "金竹花田", "address": "自贡市富顺县泸富路", "image": "", "rank": 53, "time": 2, "location": {"lat": 29.077233189387943, "lng": 105.12217420152595}, "feature": {"sight_features": "", "sight_content": ""}}, {"title": "西秦会馆", "address": "四川省自贡市自流井区解放路 643000", "image": "", "rank": 54, "time": 2, "location": {"lat": 29.358095400813127, "lng": 104.78167766405029}, "feature": {"sight_features": "", "sight_content": ""}}, {"title": "桫椤谷", "address": "自贡市荣县金花乡大坪山村桫椤自然保护区内", "image": "", "rank": 55, "time": 2, "location": {"lat": 29.272852019227752, "lng": 104.14934268592985}, "feature": {"sight_features": "", "sight_content": ""}}, {"title": "千佛寺", "address": "自贡市贡井区新华街115号", "image": "", "rank": 56, "time": 0.4, "location": {"lat": 29.355409095718898, "lng": 104.71921000105985}, "feature": {"sight_features": "", "sight_content": ""}}, {"title": "王爷庙", "address": "四川省自贡市自流井区滨江路 ‎ 东北 11428 公里", "image": "", "rank": 57, "time": null, "location": {"lat": 29.35426402199625, "lng": 179.9980414421111}, "feature": {"sight_features": "", "sight_content": ""}}, {"title": "贡井人民公园", "address": "青杠林路", "image": "", "rank": 58, "time": 2, "location": {"lat": 29.347125896293093, "lng": 104.726114417631}, "feature": {"sight_features": "", "sight_content": ""}}, {"title": "赵化古镇", "address": "富顺县赵化镇", "image": "", "rank": 59, "time": 1.5, "location": {"lat": 29.01398633393243, "lng": 105.11442890362481}, "feature": {"sight_features": "", "sight_content": ""}}, {"title": "飞龙峡自然风景区", "address": "四川省自贡市自流井区伍富路", "image": "", "rank": 60, "time": 2, "location": {"lat": 29.260874625553825, "lng": 104.6494846691447}, "feature": {"sight_features": "", "sight_content": ""}}]}