{"cityName": "紫金", "days": 2, "cityImage": "", "spots": [{"title": "河源越王山风景区", "address": "河源市紫金县古竹镇越王山风景区", "image": "", "rank": 1, "time": 3.0, "location": {"lat": 23.50380791526681, "lng": 114.75189528201737}, "feature": {"sight_features": "", "sight_content": ""}}, {"title": "九和温泉如家驿馆", "address": "九和镇幸福村御临门温泉旁", "image": "", "rank": 2, "time": 2, "location": {"lat": 44.97485663870472, "lng": 81.03114554648644}, "feature": {"sight_features": "", "sight_content": ""}}, {"title": "十里东岸马术俱乐部", "address": "东环路十里东岸小区内", "image": "", "rank": 3, "time": 2, "location": {"lat": 23.681024544096974, "lng": 114.70452992676415}, "feature": {"sight_features": "", "sight_content": ""}}, {"title": "夜未央休闲啤酒广场", "address": "县国税局旁", "image": "", "rank": 4, "time": 2, "location": {"lat": 36.45473334384522, "lng": 114.69754534421622}, "feature": {"sight_features": "", "sight_content": ""}}, {"title": "龙窝沙场", "address": "广东省河源市紫金县龙窝镇龙光路琴江中学附近", "image": "", "rank": 5, "time": 2, "location": {"lat": 23.469558740413774, "lng": 115.30645202536246}, "feature": {"sight_features": "", "sight_content": ""}}, {"title": "天主堂", "address": "安良街与法政路交叉口东南100米", "image": "", "rank": 6, "time": 0.4, "location": {"lat": 23.64152529698643, "lng": 115.18477512026192}, "feature": {"sight_features": "", "sight_content": ""}}, {"title": "黄海龙将军祠", "address": "广东省河源市紫金县敬梓镇中联村", "image": "", "rank": 7, "time": 2, "location": {"lat": 23.671838141224217, "lng": 115.38742013222303}, "feature": {"sight_features": "", "sight_content": ""}}, {"title": "杜氏宗祠", "address": "广东省河源市紫金县环城路", "image": "", "rank": 8, "time": 2, "location": {"lat": 23.646792890105296, "lng": 115.19052252742135}, "feature": {"sight_features": "", "sight_content": ""}}, {"title": "紫金县云岩寺", "address": "龙窝镇黄竹塘村", "image": "", "rank": 9, "time": 2, "location": {"lat": 23.4123495338271, "lng": 115.40598344939407}, "feature": {"sight_features": "", "sight_content": ""}}, {"title": "二楼儿童乐园", "address": "蓝塘镇蓝塘大道298号宏富购物广场附近", "image": "", "rank": 10, "time": 2.0, "location": {"lat": 23.415680495274, "lng": 114.93466558461084}, "feature": {"sight_features": "", "sight_content": ""}}, {"title": "紫金县苏维埃政府旧址", "address": "苏区镇政府附近", "image": "", "rank": 11, "time": 2, "location": {"lat": 23.360207361243667, "lng": 115.35703873381748}, "feature": {"sight_features": "", "sight_content": ""}}, {"title": "万寿禅寺", "address": "河源市紫金县天字嶂", "image": "", "rank": 12, "time": 1.0, "location": {"lat": 23.572098067064477, "lng": 115.00480255873767}, "feature": {"sight_features": "", "sight_content": ""}}, {"title": "基督教", "address": "广东省河源市紫金县义容镇义容福音堂", "image": "", "rank": 13, "time": 2, "location": {"lat": 23.528135777036933, "lng": 114.81624315143961}, "feature": {"sight_features": "", "sight_content": ""}}, {"title": "龙窝镇飞龙寺", "address": "广东省河源市紫金县龙窝镇龙窝村", "image": "", "rank": 14, "time": 2, "location": {"lat": 23.480337463648162, "lng": 115.30265428521005}, "feature": {"sight_features": "", "sight_content": ""}}, {"title": "永庆寺", "address": "广东省河源市紫金县Y241", "image": "", "rank": 15, "time": 2, "location": {"lat": 23.641430253188638, "lng": 115.19044771833511}, "feature": {"sight_features": "", "sight_content": ""}}, {"title": "秋江观音寺", "address": "广东省河源市紫金县乌石三丫角", "image": "", "rank": 16, "time": 2, "location": {"lat": 23.63010248179864, "lng": 115.20691442907369}, "feature": {"sight_features": "", "sight_content": ""}}, {"title": "家训谚语主题公园", "address": "广场路35号附近", "image": "", "rank": 17, "time": 2, "location": {"lat": 39.52367777572634, "lng": 112.83368468817203}, "feature": {"sight_features": "", "sight_content": ""}}, {"title": "大雄宝殿", "address": "河源市紫金县", "image": "", "rank": 18, "time": 2, "location": {"lat": 23.641430253188638, "lng": 115.19044771833511}, "feature": {"sight_features": "", "sight_content": ""}}, {"title": "观音阁", "address": "广东省河源市紫金县S242", "image": "", "rank": 19, "time": 1.0, "location": {"lat": 23.641430253188638, "lng": 115.19044771833511}, "feature": {"sight_features": "", "sight_content": ""}}, {"title": "瓦溪镇农民健身广场", "address": "广东省河源市紫金县瓦溪镇河唇街瓦溪中学附近", "image": "", "rank": 20, "time": 2, "location": {"lat": 23.5418495038873, "lng": 115.12025178572279}, "feature": {"sight_features": "", "sight_content": ""}}, {"title": "紫金观", "address": "广东省河源市紫金县安良大道南", "image": "", "rank": 21, "time": 0.2, "location": {"lat": 23.639490325000747, "lng": 115.17989070083273}, "feature": {"sight_features": "", "sight_content": ""}}, {"title": "广东省紫金蓝塘龙凤寺", "address": "252乡道附近", "image": "", "rank": 22, "time": 2, "location": {"lat": 40.666855263465955, "lng": 117.40204077529462}, "feature": {"sight_features": "", "sight_content": ""}}, {"title": "西汉南越武王山", "address": "越王井附近", "image": "", "rank": 23, "time": 2, "location": {"lat": 24.062895673714234, "lng": 115.19597187232115}, "feature": {"sight_features": "", "sight_content": ""}}, {"title": "张氏启公祠", "address": "325乡道附近", "image": "", "rank": 24, "time": 2, "location": {"lat": 24.773014978006223, "lng": 113.74342791858099}, "feature": {"sight_features": "", "sight_content": ""}}, {"title": "孙中山纪念馆", "address": "中坝镇政府附近", "image": "", "rank": 25, "time": 1.5, "location": {"lat": 37.989091698539795, "lng": 102.66518030892955}, "feature": {"sight_features": "", "sight_content": ""}}, {"title": "佛母福龙寺", "address": "广东省河源市紫金县", "image": "", "rank": 26, "time": 2, "location": {"lat": 23.641430253188638, "lng": 115.19044771833511}, "feature": {"sight_features": "", "sight_content": ""}}, {"title": "华光庙", "address": "243省道附近", "image": "", "rank": 27, "time": 2, "location": {"lat": 32.14968473714547, "lng": 119.36607869484463}, "feature": {"sight_features": "", "sight_content": ""}}, {"title": "许真君文化纪念馆", "address": "过境公路", "image": "", "rank": 28, "time": 2, "location": {"lat": 28.016356323382023, "lng": 120.62231296013587}, "feature": {"sight_features": "", "sight_content": ""}}, {"title": "广场开心乐园", "address": "紫城镇紫金县文化体育广场", "image": "", "rank": 29, "time": 2, "location": {"lat": 23.634637271764813, "lng": 115.18794232270928}, "feature": {"sight_features": "", "sight_content": ""}}, {"title": "山地温泉区", "address": "御临门温泉度假村内", "image": "", "rank": 30, "time": 2, "location": {"lat": 23.454000565561678, "lng": 115.10994104855723}, "feature": {"sight_features": "", "sight_content": ""}}, {"title": "河中温泉区", "address": "九和镇热水村和幸福村之间御临门温泉度假村内", "image": "", "rank": 31, "time": 2, "location": {"lat": 23.454000565561678, "lng": 115.10994104855723}, "feature": {"sight_features": "", "sight_content": ""}}, {"title": "庆昌画廊", "address": "226乡道北100米", "image": "", "rank": 32, "time": 2, "location": {"lat": 41.20783012676974, "lng": 118.51884433602535}, "feature": {"sight_features": "", "sight_content": ""}}, {"title": "谦学坊玉雕艺术馆", "address": "香江中路53号附近", "image": "", "rank": 33, "time": 2, "location": {"lat": 28.657019621499185, "lng": 115.95485630027079}, "feature": {"sight_features": "", "sight_content": ""}}, {"title": "东晖农场", "address": "Y552广东省紫金县宝金畜牧有限公司西南200米", "image": "", "rank": 34, "time": 2, "location": {"lat": 23.51520120589034, "lng": 114.8256780892417}, "feature": {"sight_features": "", "sight_content": ""}}, {"title": "东江农夫葡萄园", "address": "古竹镇榄溪村", "image": "", "rank": 35, "time": 2, "location": {"lat": 23.453814464996942, "lng": 114.67860826487502}, "feature": {"sight_features": "", "sight_content": ""}}, {"title": "菩提嘉宝果苗圃基地", "address": "蓝塘镇元吉村", "image": "", "rank": 36, "time": 2, "location": {"lat": 23.435074714362027, "lng": 114.96096215160951}, "feature": {"sight_features": "", "sight_content": ""}}, {"title": "联兴果场", "address": "157县道附近", "image": "", "rank": 37, "time": 2, "location": {"lat": 23.433084003132752, "lng": 115.25806479099873}, "feature": {"sight_features": "", "sight_content": ""}}, {"title": "鹏城农夫光明葡萄园", "address": "古竹镇榄溪村", "image": "", "rank": 38, "time": 2, "location": {"lat": 23.453814464996942, "lng": 114.67860826487502}, "feature": {"sight_features": "", "sight_content": ""}}, {"title": "紫金县古竹镇越王山竹排漂流", "address": "古竹镇越王山风景区", "image": "", "rank": 39, "time": 2, "location": {"lat": 23.50380791526681, "lng": 114.75189528201737}, "feature": {"sight_features": "", "sight_content": ""}}, {"title": "河源越王井", "address": "广东省龙川县佗城镇中山街光孝寺内", "image": "", "rank": 40, "time": 2, "location": {"lat": 24.06281260879779, "lng": 115.19666084390128}, "feature": {"sight_features": "", "sight_content": ""}}, {"title": "福和源-御福庄园", "address": "河源市-紫金县-紫城镇黄花村伯公坳水井窝", "image": "", "rank": 41, "time": 2, "location": {"lat": 23.6661522756346, "lng": 115.2102472889384}, "feature": {"sight_features": "", "sight_content": ""}}, {"title": "黄花村曾屋", "address": "河源市-紫金县-107乡道南100米", "image": "", "rank": 42, "time": 2, "location": {"lat": 23.641430253188638, "lng": 115.19044771833511}, "feature": {"sight_features": "", "sight_content": ""}}, {"title": "巢肚里", "address": "河源市-紫金县", "image": "", "rank": 43, "time": 2, "location": {"lat": 23.641430253188638, "lng": 115.19044771833511}, "feature": {"sight_features": "", "sight_content": ""}}, {"title": "阿婆角", "address": "河源市-紫金县", "image": "", "rank": 44, "time": 2, "location": {"lat": 23.641430253188638, "lng": 115.19044771833511}, "feature": {"sight_features": "", "sight_content": ""}}, {"title": "紫金县龙窝基督教会龙窝福音堂", "address": "广东省河源市紫金县Y149", "image": "", "rank": 45, "time": 2, "location": {"lat": 23.641430253188638, "lng": 115.19044771833511}, "feature": {"sight_features": "", "sight_content": ""}}, {"title": "瀚杨农博温泉", "address": "河源市紫金县九和镇热水向阳村1号路", "image": "", "rank": 46, "time": 2, "location": {"lat": 23.76919230497793, "lng": 114.75535155827946}, "feature": {"sight_features": "", "sight_content": "瀚杨农博温泉位于河源市紫金县九和镇热水村，有不同造型的室外露天温泉泡池，还有小型水上乐园的设施可以游玩。在朦胧的夜色中，浸泡在露天温泉池里，一边聊天，一边欣赏悠扬的音乐，让身体完全的放松。"}}]}