{"cityName": "梓潼", "days": 2, "cityImage": "", "spots": [{"title": "两弹城", "address": "绵阳市梓潼县经济技术开发区圣迪乐村", "image": "", "rank": 1, "time": 2, "location": {"lat": 31.639298479752625, "lng": 105.17153759589299}, "feature": {"sight_features": "", "sight_content": ""}}, {"title": "七曲山风景区", "address": "四川省绵阳市梓潼县", "image": "", "rank": 2, "time": 2, "location": {"lat": 31.648313467681294, "lng": 105.17756684281485}, "feature": {"sight_features": "", "sight_content": ""}}, {"title": "水观音", "address": "七曲山大庙", "image": "", "rank": 3, "time": 1.0, "location": {"lat": 31.700579942636097, "lng": 105.20025652006397}, "feature": {"sight_features": "", "sight_content": ""}}, {"title": "梓潼县马鸣敕法仙台阳戏演出团", "address": "梓演路附近", "image": "", "rank": 4, "time": 2, "location": {"lat": 31.70280107263096, "lng": 105.2509921747757}, "feature": {"sight_features": "", "sight_content": ""}}, {"title": "梦幻岛儿童乐园", "address": "德城时代广场1幢3楼(国家电网旁)", "image": "", "rank": 5, "time": 2, "location": {"lat": 37.43468849694141, "lng": 116.37339597229574}, "feature": {"sight_features": "", "sight_content": ""}}, {"title": "金佳宝农家乐", "address": "金牛路南段附近", "image": "", "rank": 6, "time": 2, "location": {"lat": 32.953981310366174, "lng": 112.5081104325121}, "feature": {"sight_features": "", "sight_content": ""}}, {"title": "开心农家乐", "address": "石牛镇响滩子", "image": "", "rank": 7, "time": 2, "location": {"lat": 31.54846278424503, "lng": 105.0641488390582}, "feature": {"sight_features": "", "sight_content": ""}}, {"title": "卧龙山千佛岩石窟", "address": "四川省梓潼县卧龙镇五一村 622150", "image": "", "rank": 8, "time": 2, "location": {"lat": 31.634782282623295, "lng": 105.06721605201861}, "feature": {"sight_features": "", "sight_content": ""}}, {"title": "王家岩下", "address": "四川省绵阳市梓潼县仙峰乡双栢村4组", "image": "", "rank": 9, "time": 2, "location": {"lat": 31.877359681932504, "lng": 105.13269022589357}, "feature": {"sight_features": "", "sight_content": ""}}, {"title": "庙儿包", "address": "四川省绵阳市梓潼县小伏路", "image": "", "rank": 10, "time": 2, "location": {"lat": 31.905931389230872, "lng": 105.14188750350155}, "feature": {"sight_features": "", "sight_content": ""}}, {"title": "三全寺", "address": "四川省绵阳市梓潼县安梓路", "image": "", "rank": 11, "time": 2, "location": {"lat": 31.656994284592905, "lng": 105.08094014171859}, "feature": {"sight_features": "", "sight_content": ""}}, {"title": "罗家祠堂", "address": "四川省绵阳市梓潼县文昌大道罗家祠堂", "image": "", "rank": 12, "time": 2, "location": {"lat": 31.646123703285866, "lng": 105.18079380952884}, "feature": {"sight_features": "", "sight_content": ""}}, {"title": "赵家祠堂", "address": "绵阳市梓潼县", "image": "", "rank": 13, "time": 2, "location": {"lat": 31.648313467681294, "lng": 105.17756684281485}, "feature": {"sight_features": "", "sight_content": ""}}, {"title": "磬子石", "address": "四川省绵阳市江油市河口镇政府东北850米", "image": "", "rank": 14, "time": 2, "location": {"lat": 31.91275763322545, "lng": 105.14538383071591}, "feature": {"sight_features": "", "sight_content": ""}}, {"title": "沁林山庄", "address": "文昌路北段411号附近", "image": "", "rank": 15, "time": 2, "location": {"lat": 35.11110044404952, "lng": 112.60456781379938}, "feature": {"sight_features": "", "sight_content": ""}}, {"title": "金凤湾度假村", "address": "文昌路北段", "image": "", "rank": 16, "time": 2, "location": {"lat": 35.11110044404952, "lng": 112.60456781379938}, "feature": {"sight_features": "", "sight_content": ""}}, {"title": "玛瑙影剧院", "address": "玛瑙中学附近", "image": "", "rank": 17, "time": 2, "location": {"lat": 31.521603656428564, "lng": 105.19058257101003}, "feature": {"sight_features": "", "sight_content": ""}}, {"title": "七曲山休闲第一庄", "address": "凌云山庄附近", "image": "", "rank": 18, "time": 2, "location": {"lat": 32.36813248825412, "lng": 119.28522555129989}, "feature": {"sight_features": "", "sight_content": ""}}, {"title": "青龙寺", "address": "绵阳金辉农资有限公司附近", "image": "", "rank": 19, "time": 1.5, "location": {"lat": 31.622103291683533, "lng": 105.19205040221333}, "feature": {"sight_features": "", "sight_content": ""}}, {"title": "凌云山庄", "address": "望水亭附近", "image": "", "rank": 20, "time": 2, "location": {"lat": 28.846231588272985, "lng": 105.3351328692472}, "feature": {"sight_features": "", "sight_content": ""}}, {"title": "梓潼县图书馆", "address": "崇文街东段83号", "image": "", "rank": 21, "time": 2, "location": {"lat": 31.640983160337083, "lng": 105.17112347705289}, "feature": {"sight_features": "", "sight_content": ""}}, {"title": "帝乡提亚纳庄园", "address": "文昌大道北段", "image": "", "rank": 22, "time": 2, "location": {"lat": 31.6520347193482, "lng": 105.18047133581686}, "feature": {"sight_features": "", "sight_content": ""}}, {"title": "圣迪乐村", "address": "圣迪乐培训中心", "image": "", "rank": 23, "time": 2, "location": {"lat": 39.94031926647769, "lng": 116.44208904969445}, "feature": {"sight_features": "", "sight_content": ""}}, {"title": "红花郎梓潼特约经销", "address": "中和街西段全能大药房东60米", "image": "", "rank": 24, "time": 2, "location": {"lat": 31.46156496169434, "lng": 104.75743851851436}, "feature": {"sight_features": "", "sight_content": ""}}, {"title": "川中农场", "address": "大垭--观交路口", "image": "", "rank": 25, "time": 2, "location": {"lat": 29.857029363558976, "lng": 110.39615374574196}, "feature": {"sight_features": "", "sight_content": ""}}, {"title": "九州画廊", "address": "崇文街南段94号", "image": "", "rank": 26, "time": 2.0, "location": {"lat": 31.640890741130985, "lng": 105.1730760848882}, "feature": {"sight_features": "", "sight_content": ""}}, {"title": "绵阳百桑农业科技有限公司", "address": "宏仁乡金宝村", "image": "", "rank": 27, "time": 2.0, "location": {"lat": 31.68038679830428, "lng": 105.18355858368506}, "feature": {"sight_features": "", "sight_content": ""}}, {"title": "梓潼县影剧院", "address": "东方街", "image": "", "rank": 28, "time": 2, "location": {"lat": 37.616957140210175, "lng": 114.54256827358331}, "feature": {"sight_features": "", "sight_content": ""}}, {"title": "梓潼县老干部文化艺术团", "address": "崇文街南段26号茂陵巷", "image": "", "rank": 29, "time": 2, "location": {"lat": 31.640973435852793, "lng": 105.17149321331264}, "feature": {"sight_features": "", "sight_content": ""}}, {"title": "梓潼帝乡街", "address": "四川省梓潼县108国道", "image": "", "rank": 30, "time": 2, "location": {"lat": 31.61895076144221, "lng": 105.10887270182242}, "feature": {"sight_features": "", "sight_content": ""}}, {"title": "关帝庙", "address": "七曲山大庙", "image": "", "rank": 31, "time": 0.5, "location": {"lat": 31.700579942636097, "lng": 105.20025652006397}, "feature": {"sight_features": "", "sight_content": ""}}, {"title": "文昌宫", "address": "七曲山大庙", "image": "", "rank": 32, "time": 0.4, "location": {"lat": 31.700579942636097, "lng": 105.20025652006397}, "feature": {"sight_features": "", "sight_content": ""}}]}