{"cityName": "资兴", "days": 2, "cityImage": "", "spots": [{"title": "东江湖风景区", "address": "郴州市资兴市王家庄88号", "image": "", "rank": 1, "time": 9.0, "location": {"lat": 26.02457286688247, "lng": 113.2228091475103}, "feature": {"sight_features": "特色1 人称“湘南洞庭，东方瑞士” 特色2 湖南省参与性旅游项目的重点基地，尽显名、特、新、险、奇之趣味 特色3 被誉为“人间天上一湖水，万千景象在其中", "sight_content": "东江湖位于资兴市东江上游，景区是以山水交融的东江湖为主体，以东江急流险滩、龙景峡谷奇景、岛屿群落景观为特色，供旅游观光、休闲度假、康体疗养的湖岛型旅游区，总面积200平方公里，融山的隽秀、水的神韵于一体，挟南国秀色、禀历史文明于一身，被誉为“人间天上一湖水，万千景象在其中。\n\n\n资兴市小东江河段连绵于青山之间，自南向北流于山谷中，逆流而上沿河岸为依山而建的公路。每年4～10月间，因水库蕴水而产生温差，水库常年水温为14～16℃左右，每天日出前后至上午9时许，河雾弥漫于河面之上。每当清晨，水汽在平湖中蒸腾，弥漫于青山翠谷，宛如一条玉带在峡谷飘拂，置身其间，恍人仙境。\n\n境内主要项目有：东江漂流、水上跳伞、水上飞机、水上摩托、水上滑道、湖畔垂钓、瑶族民俗风情歌舞表演等。尽显名、特、新、险、奇之趣味，参与其中，尽享历险、探幽、猎奇、拾趣之乐。\n东江漂流，位处东江湖上游黄草镇境内的浙水河上，全程26公里，上段从龙王庙至燕子排，长约12公里，落差75米，急滩108个，穿行于怪石清泉原始次森林之中；下段为燕子排至黄草镇，长约14公里，为东江平漂。\n\n\n境内的主要景观有：东江湖，其160平方公里水面烟波浩淼，81.2亿立方米湖水晶莹剔透，水质达国家一级饮用水标准，因湖区岛屿星罗棋布、姿态各异，别具雄、奇、秀、幽、旷、趣之特色，被人誉为“湘南洞庭，东方瑞士”。\n\n《雾漫小东江》 小东江是湖南省郴州市的一个景点。这里晨雾如仙境,在摄影圈小有名气。两岸为原始深林,似世外桃源。每天日出前后至上午9时许,河雾弥漫于河面之上。每当清晨,水汽在平湖中蒸腾,弥漫于青山翠谷,宛如一条玉带在峡谷飘拂,置身其间,恍入仙境。"}}, {"title": "东江湖凤凰岛景区", "address": "郴州市资兴镇白廊乡白廊码头凤凰岛景区", "image": "", "rank": 2, "time": 2, "location": {"lat": 25.918447265095452, "lng": 113.40485469452362}, "feature": {"sight_features": "", "sight_content": ""}}, {"title": "龙景大峡谷瀑布群", "address": "郴州市资兴市东江街道129省道龙景峡谷", "image": "", "rank": 3, "time": 1.0, "location": {"lat": 25.870374436484514, "lng": 113.31788114943241}, "feature": {"sight_features": "", "sight_content": ""}}, {"title": "寿佛寺", "address": "湖南省郴州市资兴市东江镇凉树湾羊耳垅的东江湖畔", "image": "", "rank": 4, "time": 2, "location": {"lat": 25.944344525828974, "lng": 113.27317607114949}, "feature": {"sight_features": "", "sight_content": ""}}, {"title": "农耕博物馆", "address": "郴州市资兴", "image": "", "rank": 5, "time": 1.0, "location": {"lat": 25.981873602722327, "lng": 113.24255612232601}, "feature": {"sight_features": "", "sight_content": ""}}, {"title": "兜率灵岩", "address": "郴州市资兴市", "image": "", "rank": 6, "time": 1.5, "location": {"lat": 25.981873602722327, "lng": 113.24255612232601}, "feature": {"sight_features": "", "sight_content": ""}}, {"title": "五岛一村", "address": "郴州市资兴县东江湖景区", "image": "", "rank": 7, "time": 3.0, "location": {"lat": 25.871776556195673, "lng": 113.31933833661326}, "feature": {"sight_features": "", "sight_content": ""}}, {"title": "天鹅山", "address": "郴州市资兴县", "image": "", "rank": 8, "time": 4.0, "location": {"lat": 25.981873602722327, "lng": 113.24255612232601}, "feature": {"sight_features": "", "sight_content": ""}}, {"title": "东江湖奇石馆", "address": "郴州市资兴东江三湘四水东江奇石馆", "image": "", "rank": 9, "time": 2, "location": {"lat": 25.944344525828974, "lng": 113.27317607114949}, "feature": {"sight_features": "", "sight_content": "馆内分为岩石类奇石厅、远古化石厅、矿物晶体厅、交易拍卖厅和影视报告厅等科普文化场所，具备奇石地质科普理论研究，人员培训、展览展示、鉴评鉴赏、文化交流、交易拍卖等活动的固定场所和观赏平台。馆内收藏了岩石类观赏石、古生物化石、玛瑙玉石、矿物晶体等奇石及标本1万多种，共300多个品种。奇石馆以湖南奇石为主体，集合了国内外非常好的一些奇石包括一些世界级和中国级的绝品和珍品。东江湖奇石馆大中小奇石配置科学，将视觉感受与文化底蕴相结合，与三湘四水的概念相融合。东江湖奇石馆着眼奇石文化与旅游文化的融合发展使人们在旅游中欣赏奇石文化，通过奇石文化推进旅游文化的发展，打造中国一流的奇石馆。"}}, {"title": "东江湖黄草水上娱乐中心", "address": "郴州市资兴市东江湖黄草镇水上娱乐中心 （桥下）", "image": "", "rank": 10, "time": 2, "location": {"lat": 25.70344517637433, "lng": 113.57152586670495}, "feature": {"sight_features": "", "sight_content": ""}}, {"title": "光轩水上乐园", "address": "郴州市资兴市阳安西路光轩环保玻璃公司北门", "image": "", "rank": 11, "time": 2, "location": {"lat": 25.97826550758526, "lng": 113.23309382123978}, "feature": {"sight_features": "", "sight_content": ""}}, {"title": "炎帝温泉", "address": "郴州市资兴市汤市乡汤边村卫生院旁", "image": "", "rank": 12, "time": 2, "location": {"lat": 26.20159670148374, "lng": 113.68034421294321}, "feature": {"sight_features": "", "sight_content": ""}}, {"title": "东江湖雾竹林生态农庄", "address": "梧洞村", "image": "", "rank": 13, "time": 2, "location": {"lat": 25.866015193903902, "lng": 113.30612018336052}, "feature": {"sight_features": "", "sight_content": ""}}, {"title": "沿江公园", "address": "桦川宾馆附近", "image": "", "rank": 14, "time": 2, "location": {"lat": 47.044536526844155, "lng": 130.72269436446166}, "feature": {"sight_features": "", "sight_content": ""}}, {"title": "龙景峡谷", "address": "湖南省郴州资兴市023县道龙景峡谷", "image": "", "rank": 15, "time": 1.5, "location": {"lat": 25.870374436484514, "lng": 113.31788114943241}, "feature": {"sight_features": "", "sight_content": ""}}, {"title": "东江湖仙游农家", "address": "资兴市东江湖悟洞村S129栗林背西侧", "image": "", "rank": 16, "time": 2, "location": {"lat": 25.862483781610564, "lng": 113.31119245194635}, "feature": {"sight_features": "", "sight_content": ""}}, {"title": "滁口林场", "address": "湖南省资兴市滁口镇杆塘村 423407", "image": "", "rank": 17, "time": 2, "location": {"lat": 25.705432952133496, "lng": 113.44039176828328}, "feature": {"sight_features": "", "sight_content": ""}}, {"title": "五岭农耕文明博物馆", "address": "东江街道圣佛广场旁", "image": "", "rank": 18, "time": 2, "location": {"lat": 25.28247341988971, "lng": 110.33916654405586}, "feature": {"sight_features": "", "sight_content": ""}}, {"title": "莲花一农", "address": "黄草镇前程村坪头江组", "image": "", "rank": 19, "time": 2, "location": {"lat": 25.66785648491813, "lng": 113.52543704849624}, "feature": {"sight_features": "", "sight_content": ""}}, {"title": "东江湖里清江青草沁园山庄", "address": "东江湖东江水库", "image": "", "rank": 20, "time": 2, "location": {"lat": 29.05039569560126, "lng": 116.1389432339786}, "feature": {"sight_features": "", "sight_content": ""}}, {"title": "东江湖捌號民宿", "address": "汉宁路379号", "image": "", "rank": 21, "time": 2, "location": {"lat": 32.70548690136058, "lng": 109.04960733834226}, "feature": {"sight_features": "", "sight_content": ""}}, {"title": "东江湖红梅农庄", "address": "219省道梧洞下湾", "image": "", "rank": 22, "time": 2, "location": {"lat": 25.843144317816215, "lng": 113.29691208476743}, "feature": {"sight_features": "", "sight_content": ""}}, {"title": "东江湖山水人家农家乐", "address": "黄草停车场往右走50米", "image": "", "rank": 23, "time": 2, "location": {"lat": 25.482530737608684, "lng": 113.79558467372786}, "feature": {"sight_features": "", "sight_content": ""}}, {"title": "鲜果采摘园", "address": "郴州资兴巿唐洞街道办鹿村芭蕉冲", "image": "", "rank": 24, "time": 2, "location": {"lat": 26.01273945575042, "lng": 113.21520216979323}, "feature": {"sight_features": "", "sight_content": ""}}, {"title": "(东江漂流起漂点)浙水湾农家乐", "address": "黄草镇浙水浙水湾农家(东江漂流起漂点处)", "image": "", "rank": 25, "time": 2, "location": {"lat": 25.533248449535847, "lng": 113.47568859023437}, "feature": {"sight_features": "", "sight_content": ""}}, {"title": "东江湖休闲农庄", "address": "郴州资兴市白廊乡江口村卢家组", "image": "", "rank": 26, "time": 2, "location": {"lat": 25.877530746099765, "lng": 113.36104502112188}, "feature": {"sight_features": "", "sight_content": ""}}, {"title": "湖边农家", "address": "白廊乡杨林村", "image": "", "rank": 27, "time": 2, "location": {"lat": 25.949261959534716, "lng": 113.44604545253398}, "feature": {"sight_features": "", "sight_content": ""}}, {"title": "湘南植物园", "address": "213省道", "image": "", "rank": 28, "time": 2, "location": {"lat": 39.999164912284996, "lng": 116.42332353742155}, "feature": {"sight_features": "", "sight_content": ""}}, {"title": "资兴历史展览馆", "address": "近龙景生态酒楼", "image": "", "rank": 29, "time": 9.0, "location": {"lat": 25.87102802921444, "lng": 113.31794147154571}, "feature": {"sight_features": "", "sight_content": ""}}, {"title": "华兰农家乐", "address": "、东江镇、梧桐村、大江组", "image": "", "rank": 30, "time": 2, "location": {"lat": 33.391988222487136, "lng": 104.98374669069304}, "feature": {"sight_features": "", "sight_content": ""}}, {"title": "华伦鳄鱼", "address": "大兴路31号附近", "image": "", "rank": 31, "time": 2, "location": {"lat": 22.860737856682128, "lng": 113.86226098157358}, "feature": {"sight_features": "", "sight_content": ""}}, {"title": "资兴市白廊李跃雄农庄", "address": "白廊镇秀流村西瓜铺组", "image": "", "rank": 32, "time": 9.0, "location": {"lat": 25.75635119826843, "lng": 113.39523582058368}, "feature": {"sight_features": "", "sight_content": ""}}, {"title": "白廊娟津有味农庄", "address": "白廊镇秀流村杨梅岐组", "image": "", "rank": 33, "time": 2, "location": {"lat": 25.75635119826843, "lng": 113.39523582058368}, "feature": {"sight_features": "", "sight_content": ""}}, {"title": "美女照镜山", "address": "湖南省资兴市鲁塘村 417105", "image": "", "rank": 34, "time": 2, "location": {"lat": 26.08206305160827, "lng": 113.23447008007724}, "feature": {"sight_features": "", "sight_content": ""}}, {"title": "芝岩悬棺", "address": "湖南省资兴市滁口镇塘湾村流坡组附近 423407", "image": "", "rank": 35, "time": 2, "location": {"lat": 25.651611902317445, "lng": 113.37738734349655}, "feature": {"sight_features": "", "sight_content": ""}}, {"title": "资兴珍珠岛", "address": "湖南省资兴市清水乡 423400", "image": "", "rank": 36, "time": 7.5, "location": {"lat": 25.981873602722327, "lng": 113.24255612232601}, "feature": {"sight_features": "", "sight_content": ""}}, {"title": "高桥拱桥", "address": "湖南省资兴市碑记乡高桥村 423406", "image": "", "rank": 37, "time": 2, "location": {"lat": 25.994852938990963, "lng": 113.33362181192925}, "feature": {"sight_features": "", "sight_content": ""}}, {"title": "福仙岩洞", "address": "湖南省资兴市碑记乡石巩村 423406", "image": "", "rank": 38, "time": 2, "location": {"lat": 26.004810388189178, "lng": 113.37615509920178}, "feature": {"sight_features": "", "sight_content": ""}}, {"title": "大江古银杏", "address": "湖南省资兴市滁回乡大江村 423407", "image": "", "rank": 39, "time": 2, "location": {"lat": 25.669149295786887, "lng": 113.40240941889233}, "feature": {"sight_features": "", "sight_content": ""}}, {"title": "东江苹果园", "address": "湖南省资兴市东江开发区迎宾路 423403", "image": "", "rank": 40, "time": 2, "location": {"lat": 25.944344525828974, "lng": 113.27317607114949}, "feature": {"sight_features": "", "sight_content": ""}}, {"title": "东江大坝", "address": "湖南省资兴市东江上游处 423400", "image": "", "rank": 41, "time": 2, "location": {"lat": 25.944344525828974, "lng": 113.27317607114949}, "feature": {"sight_features": "", "sight_content": ""}}, {"title": "前程吊桥", "address": "湖南省资兴市黄草镇前程村 423408", "image": "", "rank": 42, "time": 2, "location": {"lat": 25.66785648491813, "lng": 113.52543704849624}, "feature": {"sight_features": "", "sight_content": ""}}, {"title": "唐家岭遗址", "address": "湖南省资兴市蓼江镇蓼市村 423405", "image": "", "rank": 43, "time": 2, "location": {"lat": 26.080877152900896, "lng": 113.28255233522891}, "feature": {"sight_features": "", "sight_content": ""}}, {"title": "皮石木材站", "address": "湖南省资兴市皮石乡皮石村 423411", "image": "", "rank": 44, "time": 2, "location": {"lat": 26.221406135847527, "lng": 113.63534917062479}, "feature": {"sight_features": "", "sight_content": ""}}, {"title": "东江胜景", "address": "湖南省郴州市苏仙区东江河上 423000", "image": "", "rank": 45, "time": 2, "location": {"lat": 25.94958766629053, "lng": 113.10417572123927}, "feature": {"sight_features": "", "sight_content": ""}}, {"title": "汤市温泉", "address": "湖南省资兴市汤市乡 423412", "image": "", "rank": 46, "time": 2, "location": {"lat": 26.205438648785165, "lng": 113.679639874949}, "feature": {"sight_features": "", "sight_content": ""}}, {"title": "汤市原始次生林", "address": "湖南省资兴市汤市乡东北部 423412", "image": "", "rank": 47, "time": 2, "location": {"lat": 26.205438648785165, "lng": 113.679639874949}, "feature": {"sight_features": "", "sight_content": ""}}, {"title": "雷家洞采育场", "address": "湖南省资兴市东江水库 423403", "image": "", "rank": 48, "time": 2, "location": {"lat": 25.944344525828974, "lng": 113.27317607114949}, "feature": {"sight_features": "", "sight_content": ""}}, {"title": "木市古街", "address": "湖南省资兴市东江镇 423403", "image": "", "rank": 49, "time": 2, "location": {"lat": 25.956403619360497, "lng": 113.2651653167838}, "feature": {"sight_features": "", "sight_content": ""}}, {"title": "庙泉", "address": "湖南省资兴市东江镇泉水村 423403", "image": "", "rank": 50, "time": 2, "location": {"lat": 25.90114010165598, "lng": 113.28339991791798}, "feature": {"sight_features": "", "sight_content": ""}}, {"title": "两江原始次生林", "address": "湖南省资兴市何家山乡两江村 423413", "image": "", "rank": 51, "time": 2, "location": {"lat": 26.05268556557774, "lng": 113.55464102080245}, "feature": {"sight_features": "", "sight_content": ""}}, {"title": "布田革命烈士塔", "address": "湖南省资兴市厚玉乡 423406", "image": "", "rank": 52, "time": 2.0, "location": {"lat": 25.9574719981541, "lng": 113.41722365891704}, "feature": {"sight_features": "", "sight_content": ""}}, {"title": "黄草大桥", "address": "湖南省资兴市黄草镇 423400", "image": "", "rank": 53, "time": 2, "location": {"lat": 25.70344517637433, "lng": 113.57152586670495}, "feature": {"sight_features": "", "sight_content": ""}}, {"title": "江口古墓", "address": "湖南省资兴市旧市乡江口村 423400", "image": "", "rank": 54, "time": 3.0, "location": {"lat": 25.877530746099765, "lng": 113.36104502112188}, "feature": {"sight_features": "", "sight_content": ""}}, {"title": "黄氏古屋", "address": "湖南省资兴市兰市乡车官村 423400", "image": "", "rank": 55, "time": 2, "location": {"lat": 26.163085353850715, "lng": 113.59037429885831}, "feature": {"sight_features": "", "sight_content": ""}}, {"title": "龙潭幽谷", "address": "湖南省资兴市兰市乡自李家湾村 423411", "image": "", "rank": 56, "time": 2, "location": {"lat": 26.189803618087435, "lng": 113.64464015586728}, "feature": {"sight_features": "", "sight_content": ""}}, {"title": "龙标城遗址", "address": "湖南省保靖县龙溪乡 416500", "image": "", "rank": 57, "time": 2, "location": {"lat": 28.743249333182714, "lng": 109.67813486046238}, "feature": {"sight_features": "", "sight_content": ""}}, {"title": "寮棚上红豆杉", "address": "湖南省资兴市皮石乡道塘村 423411", "image": "", "rank": 58, "time": 2, "location": {"lat": 26.202850187264513, "lng": 113.57350904859221}, "feature": {"sight_features": "", "sight_content": ""}}, {"title": "狗老山", "address": "湖南省资兴市汤市镇北面 423400", "image": "", "rank": 59, "time": 2, "location": {"lat": 26.205233919242808, "lng": 113.67991106619594}, "feature": {"sight_features": "", "sight_content": ""}}, {"title": "天鹅山大桥", "address": "湖南省资兴市东江水库上 423406", "image": "", "rank": 60, "time": 2, "location": {"lat": 25.944344525828974, "lng": 113.27317607114949}, "feature": {"sight_features": "", "sight_content": ""}}]}