{"cityName": "资阳", "days": "", "cityImage": "", "spots": [{"title": "圆觉洞摩崖造像风景区", "address": "资阳市安岳县岳阳镇", "image": "", "rank": 1, "time": 1.5, "location": {"lat": 30.086458180241713, "lng": 105.3234738350017}, "feature": {"sight_features": "", "sight_content": ""}}, {"title": "陈毅故里", "address": "资阳市乐至县劳动镇正沟湾", "image": "", "rank": 2, "time": 1.5, "location": {"lat": 30.396248114108314, "lng": 104.96365814687861}, "feature": {"sight_features": "", "sight_content": ""}}, {"title": "安岳石刻", "address": "资阳市安岳县境内", "image": "", "rank": 3, "time": 0.75, "location": {"lat": 30.103392734493756, "lng": 105.34245423273225}, "feature": {"sight_features": "", "sight_content": ""}}, {"title": "花溪谷", "address": "资阳市雁江区保和、中和、老君等镇乡境内", "image": "", "rank": 4, "time": 2.5, "location": {"lat": 30.157807408300766, "lng": 104.81201345282315}, "feature": {"sight_features": "", "sight_content": ""}}, {"title": "半月山大佛", "address": "资阳市雁江区碑记镇", "image": "", "rank": 5, "time": null, "location": {"lat": 29.98024574479702, "lng": 104.59596272048763}, "feature": {"sight_features": "", "sight_content": ""}}, {"title": "幸福谷度假村", "address": "资阳市雁江区临江镇红碑村六组（原大堰砖厂）", "image": "", "rank": 6, "time": 2, "location": {"lat": 30.16864316540926, "lng": 104.59589084882197}, "feature": {"sight_features": "", "sight_content": ""}}, {"title": "毗卢洞文物景区", "address": "资阳市安岳县毗卢洞石刻造像附近", "image": "", "rank": 7, "time": 2, "location": {"lat": 29.929712166191784, "lng": 105.63110959856147}, "feature": {"sight_features": "", "sight_content": ""}}, {"title": "乐至报国寺", "address": "乐至县城东北二十公里龙门乡", "image": "", "rank": 8, "time": 1.5, "location": {"lat": 30.34959641800733, "lng": 105.08590546434021}, "feature": {"sight_features": "", "sight_content": ""}}, {"title": "华严洞", "address": "资阳市安岳县石羊镇箱盖山", "image": "", "rank": 9, "time": 2.0, "location": {"lat": 29.933861963791642, "lng": 105.6330182642101}, "feature": {"sight_features": "", "sight_content": ""}}, {"title": "千佛寨", "address": "资阳市安岳县贾岛村大云山", "image": "", "rank": 10, "time": 2, "location": {"lat": 30.100433214729943, "lng": 105.33088749288399}, "feature": {"sight_features": "", "sight_content": ""}}, {"title": "水龙灵度假村", "address": "政新街266乡", "image": "", "rank": 11, "time": 2, "location": {"lat": 30.269472264667183, "lng": 104.69683728192916}, "feature": {"sight_features": "", "sight_content": ""}}, {"title": "九曲河", "address": "河滨公园附近(近兰家坡)", "image": "", "rank": 12, "time": 2, "location": {"lat": 39.10938579969351, "lng": 117.24484834224015}, "feature": {"sight_features": "", "sight_content": ""}}, {"title": "卧佛院", "address": "安岳县城以北25公里八庙乡卧佛沟", "image": "", "rank": 13, "time": 2, "location": {"lat": 30.269400622377354, "lng": 105.30271744236266}, "feature": {"sight_features": "", "sight_content": ""}}, {"title": "千佛寺", "address": "千佛寨森林公园", "image": "", "rank": 14, "time": 0.4, "location": {"lat": 30.108039018649873, "lng": 105.31943515314074}, "feature": {"sight_features": "", "sight_content": ""}}, {"title": "毗卢洞", "address": "四川省安岳县石羊镇 642364", "image": "", "rank": 15, "time": 1.5, "location": {"lat": 29.933861963791642, "lng": 105.6330182642101}, "feature": {"sight_features": "", "sight_content": ""}}, {"title": "茗山寺", "address": "安岳县石羊镇", "image": "", "rank": 16, "time": 2, "location": {"lat": 29.933861963791642, "lng": 105.6330182642101}, "feature": {"sight_features": "", "sight_content": ""}}, {"title": "孔雀洞", "address": "四川省安岳县双龙街乡", "image": "", "rank": 17, "time": 2, "location": {"lat": 29.875981870393925, "lng": 105.68973858651572}, "feature": {"sight_features": "", "sight_content": ""}}, {"title": "童乐方海洋世界", "address": "资阳市雁江区车城大道1200号", "image": "", "rank": 18, "time": 2, "location": {"lat": 30.13505502503819, "lng": 104.6432225661427}, "feature": {"sight_features": "", "sight_content": ""}}, {"title": "快乐小勇士儿童拓展乐园", "address": "梅西百货二楼", "image": "", "rank": 19, "time": 2, "location": {"lat": 30.978337580045082, "lng": 104.28685446856686}, "feature": {"sight_features": "", "sight_content": ""}}, {"title": "川通农业旅游有限公司", "address": "政新街266乡", "image": "", "rank": 20, "time": 2, "location": {"lat": 30.269472264667183, "lng": 104.69683728192916}, "feature": {"sight_features": "", "sight_content": ""}}, {"title": "雁江剧场", "address": "建设北路二段", "image": "", "rank": 21, "time": 2, "location": {"lat": 30.67959951361514, "lng": 104.11023756674112}, "feature": {"sight_features": "", "sight_content": ""}}, {"title": "钓鱼台农家乐", "address": "321国道西50米", "image": "", "rank": 22, "time": 2, "location": {"lat": 23.231187385915014, "lng": 112.93264042414685}, "feature": {"sight_features": "", "sight_content": ""}}, {"title": "半日休闲山庄", "address": "乐一路与资资路交叉口西南100米(铺子村)", "image": "", "rank": 23, "time": 2, "location": {"lat": 29.98796012069996, "lng": 104.80423030837966}, "feature": {"sight_features": "", "sight_content": ""}}, {"title": "四海鱼塘", "address": "厦蓉高速公路四海鱼塘", "image": "", "rank": 24, "time": null, "location": {"lat": 26.849999866763415, "lng": 105.3252862191656}, "feature": {"sight_features": "", "sight_content": ""}}, {"title": "草莓基地", "address": "厦蓉高速公路", "image": "", "rank": 25, "time": 2, "location": {"lat": 26.849999866763415, "lng": 105.3252862191656}, "feature": {"sight_features": "", "sight_content": ""}}, {"title": "二娥湖山庄", "address": "迎接镇", "image": "", "rank": 26, "time": 2, "location": {"lat": 30.077342463292037, "lng": 104.59487083369504}, "feature": {"sight_features": "", "sight_content": ""}}, {"title": "柠都乐园", "address": "资阳市安岳县成安渝高速出口200米处", "image": "", "rank": 27, "time": 2, "location": {"lat": 30.103392734493756, "lng": 105.34245423273225}, "feature": {"sight_features": "特色1 尽情游玩，放松身心", "sight_content": "柠都乐园以柠檬文化为主体，有欢乐海洋战队、熊出没转杯、无轨仿古火车、海盗船、大摆锤、激流勇进、高空飞翔、碰碰车、海盗船、摩天轮等20余项游乐设施一应俱全。园区呈现出风格悬殊、鬼魅奇特的建筑及园林景观。"}}, {"title": "南苑会所", "address": "岳阳镇南桥村", "image": "", "rank": 28, "time": 2, "location": {"lat": 30.061603852001824, "lng": 105.32120911428558}, "feature": {"sight_features": "", "sight_content": ""}}, {"title": "文化印象大型生态垂钓场", "address": "交通北街附近", "image": "", "rank": 29, "time": 2, "location": {"lat": 29.997063590655067, "lng": 105.2928860821441}, "feature": {"sight_features": "", "sight_content": ""}}, {"title": "安岳县关新村何家农家乐", "address": "304乡道附近", "image": "", "rank": 30, "time": 2, "location": {"lat": 40.60067079792464, "lng": 111.51899666839556}, "feature": {"sight_features": "", "sight_content": ""}}, {"title": "豆豆草莓园", "address": "319国道", "image": "", "rank": 31, "time": 2, "location": {"lat": 25.761668573925817, "lng": 116.38626783390552}, "feature": {"sight_features": "", "sight_content": ""}}, {"title": "鳄鱼漆", "address": "058县道附近", "image": "", "rank": 32, "time": 2, "location": {"lat": 47.26894780666635, "lng": 123.08299317172614}, "feature": {"sight_features": "", "sight_content": ""}}, {"title": "欢乐谷(龙台店)", "address": "下码头街与蟠龙正街交叉口东北150米", "image": "", "rank": 33, "time": 2, "location": {"lat": 30.07384968937308, "lng": 105.57105627653914}, "feature": {"sight_features": "", "sight_content": ""}}, {"title": "乐至县童家镇志成家庭农场", "address": "童家镇新团大石沟村五组", "image": "", "rank": 34, "time": null, "location": {"lat": 30.244928764007444, "lng": 104.92744508204146}, "feature": {"sight_features": "", "sight_content": ""}}, {"title": "路孔古镇朝阳洞", "address": "重庆地区荣昌县路孔古镇境内 642350", "image": "", "rank": 35, "time": 2, "location": {"lat": 29.471195885653362, "lng": 105.51265645524255}, "feature": {"sight_features": "", "sight_content": ""}}, {"title": "劳动镇影剧院", "address": "乐至县劳动镇卫生院附近", "image": "", "rank": 36, "time": 2, "location": {"lat": 30.382968187264783, "lng": 104.97856507586732}, "feature": {"sight_features": "", "sight_content": ""}}, {"title": "兄弟茶楼", "address": "板永路南50米", "image": "", "rank": 37, "time": 2, "location": {"lat": 22.847227208629473, "lng": 107.06762569883841}, "feature": {"sight_features": "", "sight_content": ""}}, {"title": "秦皇茶楼", "address": "雁江镇西门桥街4栋二号", "image": "", "rank": 38, "time": 2, "location": {"lat": 30.127893783163717, "lng": 104.64508144231077}, "feature": {"sight_features": "", "sight_content": ""}}, {"title": "北海风情雪花啤酒广场", "address": "铁坤游乐场附近", "image": "", "rank": 39, "time": 3.0, "location": {"lat": 30.12128546626351, "lng": 104.66984450838883}, "feature": {"sight_features": "", "sight_content": ""}}, {"title": "贝佳乐儿童乐园", "address": "武圣街南100米", "image": "", "rank": 40, "time": 2, "location": {"lat": 30.435869717723875, "lng": 108.69422064658315}, "feature": {"sight_features": "", "sight_content": ""}}, {"title": "安岳县周礼镇救星村水立方水上乐...", "address": "周礼镇救星村11组", "image": "", "rank": 41, "time": 2, "location": {"lat": 29.922201787026736, "lng": 105.13600960474862}, "feature": {"sight_features": "", "sight_content": ""}}, {"title": "李家祠堂", "address": "资阳市安岳县三三四乡道", "image": "", "rank": 42, "time": 2, "location": {"lat": 29.957054543747088, "lng": 105.11077799599947}, "feature": {"sight_features": "", "sight_content": ""}}, {"title": "紫阳寺", "address": "四川省资阳市安岳县文大路", "image": "", "rank": 43, "time": 2, "location": {"lat": 29.886615642816466, "lng": 105.42475046341968}, "feature": {"sight_features": "", "sight_content": ""}}, {"title": "毗卢洞石刻造像", "address": "资阳市安岳县毗卢洞石刻造像附近毗卢洞文物景区内", "image": "", "rank": 44, "time": 2, "location": {"lat": 29.929733960583064, "lng": 105.63126676429683}, "feature": {"sight_features": "", "sight_content": ""}}, {"title": "安岳石窟", "address": "四川省资阳市安岳县莲花路", "image": "", "rank": 45, "time": 2.5, "location": {"lat": 29.93305996287803, "lng": 105.62991207018142}, "feature": {"sight_features": "", "sight_content": ""}}, {"title": "五家祠堂", "address": "资阳市安岳县一三七县道", "image": "", "rank": 46, "time": 2, "location": {"lat": 29.860846659027843, "lng": 105.22307426945922}, "feature": {"sight_features": "", "sight_content": ""}}, {"title": "欢乐岛儿童乐园", "address": "四川省资阳市安岳县建设街272号", "image": "", "rank": 47, "time": 2, "location": {"lat": 30.10508465837095, "lng": 105.34257358764121}, "feature": {"sight_features": "", "sight_content": ""}}, {"title": "普安寺", "address": "岳阳镇茶店子街252号", "image": "", "rank": 48, "time": 2, "location": {"lat": 30.102786359040802, "lng": 105.348321245679}, "feature": {"sight_features": "", "sight_content": ""}}, {"title": "安岳县基督教", "address": "四川省资阳市安岳县兴安路", "image": "", "rank": 49, "time": 2, "location": {"lat": 30.11371314414583, "lng": 105.3492322056187}, "feature": {"sight_features": "", "sight_content": ""}}, {"title": "南山公园", "address": "兴柠街西150米", "image": "", "rank": 50, "time": 2.5, "location": {"lat": 22.269899808088628, "lng": 113.55742664103542}, "feature": {"sight_features": "", "sight_content": ""}}, {"title": "淘气堡", "address": "上西后街79", "image": "", "rank": 51, "time": 1.0, "location": {"lat": 30.128438642947767, "lng": 104.65255641223905}, "feature": {"sight_features": "", "sight_content": ""}}, {"title": "水体公园", "address": "四川省资阳市雁江区s106", "image": "", "rank": 52, "time": 2, "location": {"lat": 30.123753456785117, "lng": 104.65842441062695}, "feature": {"sight_features": "", "sight_content": ""}}, {"title": "莲台寺", "address": "凤岭公园", "image": "", "rank": 53, "time": 1.0, "location": {"lat": 30.135902395384896, "lng": 104.65671167708739}, "feature": {"sight_features": "", "sight_content": ""}}, {"title": "陈家祠堂", "address": "资阳市雁江区盘石街村--一碗水", "image": "", "rank": 54, "time": 1.5, "location": {"lat": 30.179018737699145, "lng": 104.96819507389067}, "feature": {"sight_features": "", "sight_content": ""}}, {"title": "云莲寺", "address": "资阳市雁江区莲花村4组", "image": "", "rank": 55, "time": 2, "location": {"lat": 30.132116086374452, "lng": 104.669363065144}, "feature": {"sight_features": "", "sight_content": ""}}, {"title": "蒋氏祠堂", "address": "资阳市安岳县镇驯路", "image": "", "rank": 56, "time": 2, "location": {"lat": 30.016301503314384, "lng": 105.15042169959223}, "feature": {"sight_features": "", "sight_content": ""}}, {"title": "资阳烈士陵园", "address": "莲花路西150米", "image": "", "rank": 57, "time": 3.0, "location": {"lat": 31.766880968894487, "lng": 117.23649025624978}, "feature": {"sight_features": "", "sight_content": ""}}, {"title": "唐家祠堂", "address": "资阳市雁江区二零七乡道", "image": "", "rank": 58, "time": 2.5, "location": {"lat": 30.123753456785117, "lng": 104.65842441062695}, "feature": {"sight_features": "", "sight_content": ""}}, {"title": "谢家祠堂", "address": "资阳市雁江区二六九乡道", "image": "", "rank": 59, "time": 2, "location": {"lat": 30.179484900003096, "lng": 104.82932901017239}, "feature": {"sight_features": "", "sight_content": ""}}, {"title": "罗家祠堂", "address": "资阳市雁江区板永路", "image": "", "rank": 60, "time": 2, "location": {"lat": 30.15686296201228, "lng": 104.83375337411421}, "feature": {"sight_features": "", "sight_content": ""}}]}