{"cityName": "紫阳", "days": 2, "cityImage": "", "spots": [{"title": "长白农家乐", "address": "紫府路180号", "image": "", "rank": 1, "time": 2, "location": {"lat": 30.768952365955425, "lng": 106.0813499848512}, "feature": {"sight_features": "", "sight_content": ""}}, {"title": "茶山杨家院子农家乐", "address": "桑红路", "image": "", "rank": 2, "time": 2, "location": {"lat": 30.82920714381299, "lng": 104.35895603327396}, "feature": {"sight_features": "", "sight_content": ""}}, {"title": "紫阳县图书馆", "address": "桥沟路", "image": "", "rank": 3, "time": 2, "location": {"lat": 32.52757304131105, "lng": 108.53873139269083}, "feature": {"sight_features": "", "sight_content": ""}}, {"title": "文笔山庄农家乐", "address": "文笔山坎下汉江大桥东100米", "image": "", "rank": 4, "time": 2, "location": {"lat": 32.62189222454496, "lng": 108.9019138813568}, "feature": {"sight_features": "", "sight_content": ""}}, {"title": "蓝宝乐园", "address": "城关镇紫邑新城汉安精品家居城", "image": "", "rank": 5, "time": 2, "location": {"lat": 32.52875946159271, "lng": 108.53779562873939}, "feature": {"sight_features": "", "sight_content": ""}}, {"title": "陈家祠堂", "address": "安康市紫阳县", "image": "", "rank": 6, "time": 1.5, "location": {"lat": 32.525785619364406, "lng": 108.54159431660538}, "feature": {"sight_features": "", "sight_content": ""}}, {"title": "怡鑫园农家乐", "address": "新田村保障房旁", "image": "", "rank": 7, "time": 2, "location": {"lat": 34.67764159633657, "lng": 109.22080059744427}, "feature": {"sight_features": "", "sight_content": ""}}, {"title": "硒园生态农庄", "address": "蒿汉路蒿坪镇金石村", "image": "", "rank": 8, "time": 2, "location": {"lat": 32.61607783298164, "lng": 108.59802283516449}, "feature": {"sight_features": "", "sight_content": ""}}, {"title": "半亩茶园", "address": "高桥镇梁家院子", "image": "", "rank": 9, "time": 2, "location": {"lat": 32.39859845973627, "lng": 108.43017852444059}, "feature": {"sight_features": "", "sight_content": ""}}, {"title": "桑树沟", "address": "安康市-紫阳县", "image": "", "rank": 10, "time": 2, "location": {"lat": 32.525785619364406, "lng": 108.54159431660538}, "feature": {"sight_features": "", "sight_content": ""}}, {"title": "桑树沟", "address": "安康市-紫阳县", "image": "", "rank": 11, "time": 2, "location": {"lat": 32.525785619364406, "lng": 108.54159431660538}, "feature": {"sight_features": "", "sight_content": ""}}, {"title": "魔王沟瀑布观瀑品茗", "address": "紫阳县城关镇磨坊沟", "image": "", "rank": 12, "time": null, "location": {"lat": 32.58920002700777, "lng": 108.50519267678065}, "feature": {"sight_features": "", "sight_content": ""}}]}