{"cityName": "紫云", "days": 2, "cityImage": "", "spots": [{"title": "中洞", "address": "安顺市紫云县水塘镇塔井村", "image": "", "rank": 1, "time": 3.5, "location": {"lat": 25.67910301920579, "lng": 106.15534242876548}, "feature": {"sight_features": "", "sight_content": ""}}, {"title": "花卉园", "address": "贵州省安顺市紫云苗族布依族自治县印山街", "image": "", "rank": 2, "time": 2, "location": {"lat": 25.758022828989255, "lng": 106.09176486440255}, "feature": {"sight_features": "", "sight_content": ""}}, {"title": "松云公园", "address": "安顺市紫云苗族布依族自治县", "image": "", "rank": 3, "time": 2, "location": {"lat": 25.75740872895845, "lng": 106.09041375093291}, "feature": {"sight_features": "", "sight_content": ""}}, {"title": "亚鲁王休闲广场", "address": "格凸大道东50米", "image": "", "rank": 4, "time": 2, "location": {"lat": 25.763719988443516, "lng": 106.09433264105789}, "feature": {"sight_features": "", "sight_content": ""}}, {"title": "烂木冲苗寨", "address": "贵州省紫云苗族布依族自治县白石岩乡新驰村", "image": "", "rank": 5, "time": 2, "location": {"lat": 25.81488946966627, "lng": 105.97885994673963}, "feature": {"sight_features": "", "sight_content": ""}}, {"title": "云上健身俱乐部", "address": "安顺市-紫云苗族布依族自治县", "image": "", "rank": 6, "time": 2, "location": {"lat": 25.75740872895845, "lng": 106.09041375093291}, "feature": {"sight_features": "", "sight_content": ""}}, {"title": "打毫村", "address": "安顺市-紫云苗族布依族自治县", "image": "", "rank": 7, "time": 2, "location": {"lat": 25.75740872895845, "lng": 106.09041375093291}, "feature": {"sight_features": "", "sight_content": ""}}, {"title": "岜毫", "address": "安顺市-紫云苗族布依族自治县", "image": "", "rank": 8, "time": 2, "location": {"lat": 25.75740872895845, "lng": 106.09041375093291}, "feature": {"sight_features": "", "sight_content": ""}}, {"title": "大河苗寨", "address": "贵州省安顺市紫云自治县格凸河穿洞风景名胜区", "image": "", "rank": 9, "time": 4.5, "location": {"lat": 25.684187320428098, "lng": 106.27363896980935}, "feature": {"sight_features": "", "sight_content": ""}}]}