{"cityName": "资源", "days": 2, "cityImage": "", "spots": [{"title": "八角寨景区", "address": "桂林市资源县梅溪乡大坨村", "image": "", "rank": 1, "time": 4.5, "location": {"lat": 26.27762612872758, "lng": 110.70711083153238}, "feature": {"sight_features": "特色1 横跨两省的绝美丹霞地貌，步行于崖壁之间的降龙栈道，惊险刺激。", "sight_content": "八角寨，又名云台山，海拔818米，坐落在湘桂边陲，越城岭和雪峰山余脉交汇的地方，隶属广西资源县。位于群山拱卫之中，横空出世，独占鳌头，寨顶飞出八个犄角，形似八条峥嵘的巨龙远翘，故称八角寨。\n\n它是我国乃至世界稀有的丹霞峰林地貌，被誉为“丹霞之魂”。在这里，所有的石峰均向一个方向作近几年45度的倾斜，十分奇特，在断崖挽留着白云，云浪抚摸着山腹，岚气轻拂着苍松时，所有的石峰显得跌宕起伏，似大海中的鲸鱼在追逐嬉戏，翻腾闹海。八角寨东、西、南三面均为悬崖绝壁，只有沿着西南坡的一条古老、陡峻崎岖的曲径可登山顶。登斯山顶，方晓天地之博大，悟人生之真谛。"}}, {"title": "资源天门山", "address": "桂林市资源县中峰乡车田湾村", "image": "", "rank": 2, "time": 2.5, "location": {"lat": 25.992932927370592, "lng": 110.65263952307029}, "feature": {"sight_features": "特色1 有诸多90°角石柱悬 特色2 山形峻秀，岩壑争奇，典型的丹霞地貌", "sight_content": "天门山景区是国家3A级景区、国家森林公园、国家地质公园、自治区级风景名胜区。位于广西桂林市资源县北部。省道20181线经过，距桂林市区110千米。属丹霞地貌、生态型自然风景区。其方圆10公里，山形峻秀，岩壑争奇，源于典型的丹霞地貌，有三十八岩、十九涧、二潭、八石等。主峰\"三娘石\"宛如一柱擎天，百药谷汇天下本草于一地；神龙山庄因势就形，布局灵活，高低错落，自然与人文景观相得益彰。\n\n桂林天门山景区因天门山而得名，天门山雄镇资江，形状像天门中开。其方圆10千米，由东线（百卉谷）、西线（一线天）、神仙寨以及桃花岛四部分组成，山形峻秀，岩壑争奇，是典型的丹霞地貌，系3千万年前元古代造山运动开始发育，后经漫长的地质作用形成。景区突出自然与文化景观两大主题，景区内诸多淡红色的石柱成90度耸立，猿猴不上，鸟望生惊。海拨630米的孤峰—神仙寨，四周悬崖峭壁，从峭壁上开凿出1098级的石梯可登峰顶，峰顶方圆56亩长满原始森林，国内罕见，主峰“三娘石”宛如一柱擎天耸立。景区还有天脊、忘忧泉、银沙滩、半山亭、药师堂等20多处绝好佳景，汇聚成一个美若仙界的景观群落，加之近年新兴的回廊曲榭，亭台楼阁，群体雕塑，名家题词，使这幽静、灵秀之地，自成避暑悠闲的上佳去处。\n天门山景区引入国内首创同类景区全通透绝壁漂空玻璃观景平台——天之港，与美国科洛拉多U型观景平台同属世界奇迹，腾云踏景之上让鬼斧神工的丹霞尽收眼底。为丹霞奇观量身打造的45°极佳观景角度，让心跳与视野共同起舞，体验非一般的观景乐趣。"}}, {"title": "五排河漂流", "address": "桂林市资源县猫儿山脚下", "image": "", "rank": 3, "time": 2, "location": {"lat": 25.886801922593992, "lng": 110.50147264674858}, "feature": {"sight_features": "", "sight_content": ""}}, {"title": "资源丹霞温泉", "address": "桂林市资源县中峰乡车田湾村", "image": "", "rank": 4, "time": 2.5, "location": {"lat": 25.992932927370592, "lng": 110.65263952307029}, "feature": {"sight_features": "特色1 丰富的矿物质含量", "sight_content": "资源丹霞温泉位于广西桂林市资源县中峰乡，距资源县城6公里，距桂林市96公里。景区北面与湖南省接壤，322国道擦肩而过，省道202直通景区，地理位置十分优越。\n桂林资源丹霞温泉是按国家AAAA级景区标准精心打造，由桂林丹霞温泉旅游有限公司投资建设而成。温泉整体占地360亩，集温泉沐浴、休闲保健、科普教育、生态旅游以及完善的住、餐、娱、购配套于一体。"}}, {"title": "资江景区", "address": "桂林市资源县中峰乡车田湾村", "image": "", "rank": 5, "time": 2, "location": {"lat": 25.992932927370592, "lng": 110.65263952307029}, "feature": {"sight_features": "特色1 贺敬之盛赞“资江漂流，华南一流”", "sight_content": "风光旖旎的资江发源于华南第一高峰猫儿山, 属长江水系, 自南向北贯入洞庭湖, 河床宽度平均约100米, 资江植被保护良好, 流量, 流速相对稳定, 似一条玉带穿梭于奇山峻岭之间。资江漂流全长22.5公里, 滩潭交替, 下45条滩, 拐31道湾, 不管是乘坐丹霞轻舟, 还是橡皮艇, 都是有惊无险, 漂流其中, 犹如观赏一条长长的山水画廊, 著名诗人贺敬之盛赞。\n资江除具原始、古朴、幽野的特色外, 更富一种灵动、秀丽的美。沿江分布60多处景点, 其中风帆石、神象饮水、火炬山等, 堪称风景中一绝, 具有很高的观赏价值。\n资江，是资源县境内最大的一条河之一，发源于华南第一峰猫儿山东北麓，浩浩北去，流入湖南省境内，最后注入洞庭湖，属长江水系。资江漂流河段自县城下游5公里至梅溪乡胡家田，全程22.5公里，下45个滩，拐31道湾，既有自己的雄伟险峻，又有桂林漓江的清纯秀丽。资江两岸植被保护良好，流量、流速相对稳定，似一条玉带穿梭于奇山峻岭之间。资江除具有原始、古朴、幽野的特色外，更富有一种灵动、秀丽之美。沿江分布的60多处景点，古怪稀奇，美不胜收，其中\"风帆石\"、\"神象饮水\"、\"火炬山\"、\"将军骑马镇天门\"、\"资江大佛\"等景点形神毕俏，堪称美景，具有很高的观赏价值。"}}, {"title": "资源丹霞国家地质公园", "address": "桂林市资源县资源镇桂林资江景区资江丹霞旅游码头", "image": "", "rank": 6, "time": 3.0, "location": {"lat": 26.04633026667858, "lng": 110.68136097057197}, "feature": {"sight_features": "", "sight_content": ""}}, {"title": "资江漂流", "address": "桂林市资源县中峰乡车田湾村资江景区内", "image": "", "rank": 7, "time": 2, "location": {"lat": 25.938135000838702, "lng": 110.63066233594536}, "feature": {"sight_features": "", "sight_content": ""}}, {"title": "百卉谷生态景园", "address": "桂林市资源县资江漂流景区终点地段", "image": "", "rank": 8, "time": 2.5, "location": {"lat": 26.110037744249805, "lng": 110.68953044474155}, "feature": {"sight_features": "", "sight_content": ""}}, {"title": "风雨桥", "address": "桂林市资源县", "image": "", "rank": 9, "time": 2, "location": {"lat": 26.048569077338414, "lng": 110.65843911010187}, "feature": {"sight_features": "", "sight_content": ""}}, {"title": "丹霞温泉", "address": "桂林市资源县中峰乡车田湾村。", "image": "", "rank": 10, "time": 2, "location": {"lat": 25.992932927370592, "lng": 110.65263952307029}, "feature": {"sight_features": "", "sight_content": ""}}, {"title": "龙洞峡", "address": "桂林市资源县车田苗族乡石山底村", "image": "", "rank": 11, "time": 2.5, "location": {"lat": 26.060346012920224, "lng": 110.47552056194675}, "feature": {"sight_features": "", "sight_content": ""}}, {"title": "果香园农庄", "address": "山黄背村7组八角寨景区山脚下", "image": "", "rank": 12, "time": 2, "location": {"lat": 23.969056401402533, "lng": 112.94216294493954}, "feature": {"sight_features": "", "sight_content": ""}}, {"title": "花里山温泉喀斯特", "address": "广西壮族自治区资源县中峰乡车田湾 541402", "image": "", "rank": 13, "time": 2, "location": {"lat": 25.948863757860867, "lng": 110.63838686502311}, "feature": {"sight_features": "", "sight_content": ""}}, {"title": "农泉山庄", "address": "资源县捉口", "image": "", "rank": 14, "time": 2, "location": {"lat": 26.048569077338414, "lng": 110.65843911010187}, "feature": {"sight_features": "", "sight_content": ""}}, {"title": "马家马氏祠堂", "address": "广西壮族自治区桂林市资源县595乡道附近", "image": "", "rank": 15, "time": 2, "location": {"lat": 26.048569077338414, "lng": 110.65843911010187}, "feature": {"sight_features": "", "sight_content": ""}}, {"title": "资源县图书馆", "address": "西延南路", "image": "", "rank": 16, "time": 2, "location": {"lat": 26.033969416531896, "lng": 110.6510524795399}, "feature": {"sight_features": "", "sight_content": ""}}, {"title": "资源奇石展览馆", "address": "镇中路与城中路交叉口", "image": "", "rank": 17, "time": 2.5, "location": {"lat": 26.038728079057222, "lng": 110.64854484354011}, "feature": {"sight_features": "", "sight_content": ""}}, {"title": "资源县博物馆", "address": "西延南路", "image": "", "rank": 18, "time": 2, "location": {"lat": 26.033969416531896, "lng": 110.6510524795399}, "feature": {"sight_features": "", "sight_content": ""}}, {"title": "五排河", "address": "广西壮族自治区资源县境内", "image": "", "rank": 19, "time": 2, "location": {"lat": 26.048569077338414, "lng": 110.65843911010187}, "feature": {"sight_features": "", "sight_content": ""}}, {"title": "老山界原始森林", "address": "广西壮族自治区资源县资源、兴安两县交界处", "image": "", "rank": 20, "time": 2, "location": {"lat": 26.048569077338414, "lng": 110.65843911010187}, "feature": {"sight_features": "", "sight_content": ""}}, {"title": "银竹老山冷杉保护区", "address": "广西壮族自治区资源县资源县与湖南省交界处", "image": "", "rank": 21, "time": 2, "location": {"lat": 26.048569077338414, "lng": 110.65843911010187}, "feature": {"sight_features": "", "sight_content": ""}}, {"title": "桂北民俗风情街", "address": "广西壮族自治区资源县西延南路", "image": "", "rank": 22, "time": 2, "location": {"lat": 26.033969416531896, "lng": 110.6510524795399}, "feature": {"sight_features": "", "sight_content": ""}}, {"title": "资源县源祥养殖专业合作社有机生...", "address": "桂林市-资源县-大埠街130号东南50米", "image": "", "rank": 23, "time": 2, "location": {"lat": 26.03949975928251, "lng": 110.64796436750282}, "feature": {"sight_features": "", "sight_content": ""}}]}