{"cityName": "资中", "days": 2, "cityImage": "", "spots": [{"title": "圣灵山地质公园", "address": "内江市资中县金李井镇", "image": "", "rank": 1, "time": 2, "location": {"lat": 29.77150861639702, "lng": 104.67450665740485}, "feature": {"sight_features": "特色1 号称亚洲最长的溶洞", "sight_content": "资中县圣灵山地质公园位于成渝高速公路资中县鱼溪站出口2公里，区位优势突出,海拔1051米,园区总占地面积7平方公里,东距成都127公里，南距重庆220公里，西距国家级千年古镇罗泉33公里,距资中县城区12公里。\n2006年12月被四川省人民政府批准为省级地质公园,2007年12月29日举行了隆重的揭碑开园仪式,2009年12月31日正式向游客开放.景区以圣灵山大溶洞为主体,圣灵山大溶洞号称亚洲最长的溶洞,共43公里,分上、中、下、底四层,现已向游客开放5.8公里,溶洞内景观众多，最著名的景点有迎宾塔林、贵妃池、山路十八弯、巨人脚印、东方巨龙、海底世界、佛祖、莫愁湖莫愁女、七仙姑下凡、牛郎织女、洞中塔林、圣灵火炬、孔子问乐、会唱歌的石头等396处。景区内有会议中心、长城大酒店、迎宾停车场、贵宾停车场、茶楼、音乐广场、松山别墅等，配套设施完善。\n景区区以圣灵山大溶洞为主体,圣灵山大溶洞号称亚洲最长的溶洞,共43公里,分上、中、下、底四层,现已向游客开放5.8公里,溶洞内景观众多，最著名的景点有迎宾塔林、贵妃池、山路十八弯、巨人脚印、东方巨龙、海底世界、佛祖、莫愁湖莫愁女、七仙姑下凡、牛郎织女、洞中塔林、圣灵火炬、孔子问乐、会唱歌的石头等396处。景区内有会议中心、长城大酒店、迎宾停车场、贵宾停车场、茶楼、音乐广场、松山别墅等，配套设施完善。\n未来的圣灵山地质公园可以建成一个集科考、观光、探险、休闲、娱乐、环境教育、佛教研究、美食旅游为一体的综合性风景区。"}}, {"title": "花芊谷农业科技园", "address": "内江市资中县银山镇岗石村5组", "image": "", "rank": 2, "time": 2, "location": {"lat": 29.696653568893264, "lng": 104.95030617027614}, "feature": {"sight_features": "", "sight_content": ""}}, {"title": "状元街", "address": "内江市资中县状元街", "image": "", "rank": 3, "time": 2, "location": {"lat": 29.789245083284744, "lng": 104.85894664853392}, "feature": {"sight_features": "", "sight_content": ""}}, {"title": "罗泉古镇", "address": "资中县罗泉镇", "image": "", "rank": 4, "time": 2, "location": {"lat": 29.834837063808827, "lng": 104.5157053996582}, "feature": {"sight_features": "", "sight_content": ""}}, {"title": "鲢鱼化石博物馆", "address": "金李井镇归沙路圣灵山地质公园", "image": "", "rank": 5, "time": 2, "location": {"lat": 29.79543290804533, "lng": 104.68964617565122}, "feature": {"sight_features": "", "sight_content": ""}}, {"title": "鱼进沟", "address": "四川省内江市资中县", "image": "", "rank": 6, "time": 2, "location": {"lat": 29.770234032564836, "lng": 104.85849482242187}, "feature": {"sight_features": "", "sight_content": ""}}, {"title": "响水滩·乡村记忆旅游景区", "address": "内江市资中县鱼溪镇双联村", "image": "", "rank": 7, "time": 2, "location": {"lat": 29.82109121264044, "lng": 104.72969613776598}, "feature": {"sight_features": "", "sight_content": ""}}, {"title": "曾家大院", "address": "金李井镇白果村1号", "image": "", "rank": 8, "time": 2, "location": {"lat": 29.804940661008608, "lng": 104.69359656036737}, "feature": {"sight_features": "", "sight_content": ""}}, {"title": "清代一条街", "address": "新正街", "image": "", "rank": 9, "time": 2, "location": {"lat": 37.857658592928395, "lng": 112.61292077944834}, "feature": {"sight_features": "", "sight_content": ""}}, {"title": "三磊石钓鱼山庄", "address": "成渝街附近", "image": "", "rank": 10, "time": 2, "location": {"lat": 29.823615943455998, "lng": 104.72740344471534}, "feature": {"sight_features": "", "sight_content": ""}}, {"title": "资中金泰葡萄园", "address": "明心寺镇万福场", "image": "", "rank": 11, "time": 2, "location": {"lat": 29.730577711577606, "lng": 104.89634519456393}, "feature": {"sight_features": "", "sight_content": ""}}, {"title": "白云湖度假村", "address": "四川省内江市资中县", "image": "", "rank": 12, "time": 2, "location": {"lat": 29.770234032564836, "lng": 104.85849482242187}, "feature": {"sight_features": "", "sight_content": ""}}, {"title": "铁佛古镇", "address": "四川省资中县铁佛镇 641200", "image": "", "rank": 13, "time": 2, "location": {"lat": 29.8075576235331, "lng": 104.61215848431837}, "feature": {"sight_features": "", "sight_content": ""}}, {"title": "白云山风景区", "address": "四川省资中县资中县 641000", "image": "", "rank": 14, "time": 2, "location": {"lat": 29.770234032564836, "lng": 104.85849482242187}, "feature": {"sight_features": "", "sight_content": ""}}, {"title": "手攀岩", "address": "内江市资中县资中银山--资中楠木寺", "image": "", "rank": 15, "time": 2, "location": {"lat": 29.770234032564836, "lng": 104.85849482242187}, "feature": {"sight_features": "", "sight_content": ""}}, {"title": "大祠堂", "address": "内江市资中县资中板栗--威远铺子湾", "image": "", "rank": 16, "time": 2, "location": {"lat": 29.565854590828064, "lng": 104.66627168059412}, "feature": {"sight_features": "", "sight_content": ""}}, {"title": "隆家祠堂", "address": "内江市资中县二零七省道", "image": "", "rank": 17, "time": 2, "location": {"lat": 29.770234032564836, "lng": 104.85849482242187}, "feature": {"sight_features": "", "sight_content": ""}}, {"title": "城隍庙", "address": "内江市资中县罗泉古镇内", "image": "", "rank": 18, "time": 1.5, "location": {"lat": 29.833714112468773, "lng": 104.51468954817766}, "feature": {"sight_features": "", "sight_content": ""}}, {"title": "张家祠堂", "address": "内江市资中县五零七乡道", "image": "", "rank": 19, "time": null, "location": {"lat": 29.770234032564836, "lng": 104.85849482242187}, "feature": {"sight_features": "", "sight_content": ""}}, {"title": "文家祠堂", "address": "内江市资中县五五一乡道", "image": "", "rank": 20, "time": 2, "location": {"lat": 29.770234032564836, "lng": 104.85849482242187}, "feature": {"sight_features": "", "sight_content": ""}}, {"title": "笔架山公园", "address": "郁春路北200米", "image": "", "rank": 21, "time": 2.0, "location": {"lat": 29.77577475567762, "lng": 104.86046947849155}, "feature": {"sight_features": "", "sight_content": ""}}, {"title": "蔡家祠堂", "address": "内江市资中县", "image": "", "rank": 22, "time": 2, "location": {"lat": 29.770234032564836, "lng": 104.85849482242187}, "feature": {"sight_features": "", "sight_content": ""}}, {"title": "练氏宗祠", "address": "四川省内江市资中县孟塘镇建华村7组", "image": "", "rank": 23, "time": 2, "location": {"lat": 29.963001880816975, "lng": 105.04423027429932}, "feature": {"sight_features": "", "sight_content": ""}}, {"title": "铁佛寺", "address": "四川省内江市资中县龙江镇铁佛寺", "image": "", "rank": 24, "time": null, "location": {"lat": 29.93339424879232, "lng": 105.05398253942103}, "feature": {"sight_features": "", "sight_content": ""}}, {"title": "曙奇士密柚绿色生态园", "address": "四川省内江市资中县水南镇乘加村4组", "image": "", "rank": 25, "time": 2, "location": {"lat": 29.773975011953244, "lng": 104.85302922807371}, "feature": {"sight_features": "", "sight_content": ""}}, {"title": "饶家祠堂", "address": "内江市资中县资中孟塘--东兴区木牌坊", "image": "", "rank": 26, "time": 2, "location": {"lat": 29.770234032564836, "lng": 104.85849482242187}, "feature": {"sight_features": "", "sight_content": ""}}, {"title": "隆盛生态园", "address": "水南镇乘家村5号", "image": "", "rank": 27, "time": 2, "location": {"lat": 29.75201547652295, "lng": 104.88995921794991}, "feature": {"sight_features": "", "sight_content": ""}}, {"title": "天外天山庄", "address": "凤凰街附近", "image": "", "rank": 28, "time": 2, "location": {"lat": 40.151283224097064, "lng": 118.32029944726023}, "feature": {"sight_features": "", "sight_content": ""}}, {"title": "陈家镇烈士陵园", "address": "内资公路附近", "image": "", "rank": 29, "time": 2, "location": {"lat": 29.590166925343368, "lng": 104.83893278265974}, "feature": {"sight_features": "", "sight_content": ""}}, {"title": "泰达植物生态园", "address": "207省道", "image": "", "rank": 30, "time": 2, "location": {"lat": 41.663861161619536, "lng": 118.91663300242887}, "feature": {"sight_features": "", "sight_content": ""}}, {"title": "资中博物馆", "address": "武庙街", "image": "", "rank": 31, "time": 2.5, "location": {"lat": 37.133282451875054, "lng": 114.68869361958538}, "feature": {"sight_features": "", "sight_content": ""}}, {"title": "高洞桃源休闲山庄", "address": "板栗桠乡太阳河村5社", "image": "", "rank": 32, "time": 2, "location": {"lat": 29.77558259803239, "lng": 104.78163653603085}, "feature": {"sight_features": "", "sight_content": ""}}, {"title": "天天乐草莓园", "address": "高桥镇松柏村1组", "image": "", "rank": 33, "time": 2, "location": {"lat": 29.621560145447724, "lng": 105.12638262629636}, "feature": {"sight_features": "", "sight_content": ""}}, {"title": "葡萄井凉糕", "address": "老下街7附近", "image": "", "rank": 34, "time": 2, "location": {"lat": 29.689900278862247, "lng": 104.97953344799113}, "feature": {"sight_features": "", "sight_content": ""}}, {"title": "资中县立新种植家庭农场", "address": "归德镇麻柳河村七组(归德加油站东南100米)", "image": "", "rank": 35, "time": 2, "location": {"lat": 29.85066617239651, "lng": 104.7449252395293}, "feature": {"sight_features": "", "sight_content": ""}}, {"title": "传奇真人密室逃脱", "address": "苌弘路481号", "image": "", "rank": 36, "time": 2, "location": {"lat": 29.59313955153274, "lng": 105.05732085918663}, "feature": {"sight_features": "", "sight_content": ""}}, {"title": "龙江湖", "address": "四川省资中县龙江镇", "image": "", "rank": 37, "time": 2, "location": {"lat": 29.895493571036784, "lng": 105.05861393223898}, "feature": {"sight_features": "", "sight_content": ""}}, {"title": "资中文庙", "address": "四川省资中县状元街", "image": "", "rank": 38, "time": 2, "location": {"lat": 29.789245083284744, "lng": 104.85894664853392}, "feature": {"sight_features": "", "sight_content": ""}}, {"title": "资中武庙", "address": "四川省资中县城北门外重龙山南麓", "image": "", "rank": 39, "time": 1.5, "location": {"lat": 29.789607234829212, "lng": 104.8655902861173}, "feature": {"sight_features": "", "sight_content": ""}}]}