{"cityName": "邹平", "days": 2, "cityImage": "", "spots": [{"title": "鹤伴山", "address": "滨州市邹平县鹤伴山国家森林公园", "image": "", "rank": 1, "time": 3.5, "location": {"lat": 36.77513071407299, "lng": 117.7371883203846}, "feature": {"sight_features": "特色1 中国石窟文化和佛教文化的体验之地", "sight_content": "邹平鹤伴山占地总面积7200亩，景区内植被茂盛，森林覆盖率高达97%，是不可多得的天然氧吧 ，被誉为“鲁中生态明珠”。峻拔巍峨的山势，优美迷人的环境，以及独特而丰富的人文景观，吸引了无数游客到这里休闲旅游。\n为满足广大游客的旅游需求，鹤伴山旅游景区先后开辟了自然景观与人文景观交相辉映的九瀑 涧游线；自然与宗教相融的水帘洞游线；如九颗明珠一线相穿的九潭溪游线；形如仙鹤展翅欲飞的 鹤翔岭游线；以及环境优雅、如临仙境的鹤鸣谷等五条游线，线路总长6000余米。在我们这五条游线里面最为吸引人的是最东边的九瀑涧游线和第二条水帘洞游线。此外，这里还新建了集宗教祭祀、养生健康于一体的道观——长生院，使以风景优美著称的鹤伴山 旅游景区，增添了新的文化元素。"}}, {"title": "唐李庵", "address": "滨州市邹平县城西5公里会仙山东麓", "image": "", "rank": 2, "time": 2, "location": {"lat": 36.864250623170335, "lng": 117.67088361545547}, "feature": {"sight_features": "", "sight_content": ""}}, {"title": "范公祠", "address": "滨州市邹平县范公路", "image": "", "rank": 3, "time": 0.4, "location": {"lat": 36.883484939059, "lng": 117.87765407577537}, "feature": {"sight_features": "", "sight_content": ""}}, {"title": "樱花山风景区", "address": "滨州市邹平县西董镇政府驻地往西2公里", "image": "", "rank": 4, "time": 2, "location": {"lat": 36.81547964693798, "lng": 117.73094239229236}, "feature": {"sight_features": "特色1 寻一方山水怡情，品一段浪漫人生。 特色2 园内六峰相连，层峦叠嶂，俏石嶙峋，奇石遍布，植被茂密。", "sight_content": "山东省樱花山风景区座落于山东省邹平市西董街道办事处西两公里，总面积3600亩，最高海拔421米，森林覆盖率为95%，是民营企业家颜景江先生自投资金4亿多元，历经10多年时间由荒山荒滩改造而成。是国家级水土保持科技示范园区、国家级水利风景区、国家AAA级风景区，国家级摄影创作基地、国内一流赏樱基地、省级环境教育基地、齐鲁美丽田园。\n景区东为湖，西为岭，植被茂密，葱茏滴翠。六峰相连，层峦叠嶂，俏石嶙峋；五湖相依，白鹭竟翔。精心打造的“万株樱树十里花谷”、“五湖两溪水系”、“十八弯珍稀植物”、“西汉烽火古道”、“ 漫山秋日红叶”等五大核心景区，点缀着琴岛、天池、神仙洞、虎伏涧等三十余个亮丽景点；樱花、玉兰、枫香、水杉等八十余种珍稀植物遍布山间；观湖大桥、湖岛会馆、嘉园酒店等二十余处人文建筑鳞次栉比，与自然景观融为一体，体现出尊贵、大气、幽静的北方山水园林特点，是一处集休闲观光、养生度假、生态教育为一体的自然景观。\n樱花山的美丽在于樱花，景区内5万株樱花遍布其中，倚山傍水，风景怡人。每年阳春三月，万株樱树十里花谷次第盛开，满树烂漫，如云似霞，放眼眺望，只见远山含黛，一片片粉白、粉红的樱花如同水墨画般渲染在山林野谷；落樱时，樱花瓣随风而落，似雪般漫天飞舞，浪漫、优雅、洁净，充满诗情画意，极大满足了游客赏樱的需求。\n樱花山的魅力在于湖水，景区有5个大的湖面，总面积400亩，库容量200万立方米，最深处达18米。湖面周边大部是由麦饭石矿石组成，能够释放人体所需微量元素，因此景区的湖水大都是优质的麦饭石矿泉水，每逢夏季丰水期，景区内桃柳夹岸，水波潋滟，游船点点，是游览观光、休闲度假的理想场所。\n樱花山的感动在于建园主人改山治水的传奇故事，过去的樱花山岩石裸露，荆棘丛生，满目荒芜。颜景江从2004年开始围绕着山、水、林、路四大主题，通过实施劈山引水、调整山势、筑坝拦水、挖坑养水、植树造林、砌墙防火、道路成网等七大治理工程，挖鱼鳞坑60万个，栽种优质树木60万棵，砌防火石墙10公里，修园区公路20公里，使园内林草覆盖率达95%以上，每年减少土壤流失7400吨。生态治理效果非常显著。颜景江先生用青山绿水公益报国的传奇故事感动中国。他被全国人大、政协专业委员会、教育部、环保部等八部委授予 “中华环境生态保护类优秀奖”荣誉称号，成为山东第一人，被山东电视台列为专访人物，被山东画报列为封面人物。\n景区内的自然资源和人文资源可以满足开展环保教育、水利科普教育、国学教育、传统文化教育、气象科普教育、林业科普教育、研学写生、拓展训练、攀岩挑战、野外锻炼等综合实践基地的需求。课程体系设置着重学生的素质能力设计，在要求学生掌握相关知识的同时重点关注的是学生能力与情感态度价值观的培养，了解实践过程与方法，并能够应用到实际生活中。重视学生组织协调能力、沟通表达能力、动手实践能力、创新实践能力、问题解决能力、计划决策能力、团队合作能力等的培养与锻炼，弥补学校教育中这些能力的缺失。\n樱花山风景区有三十几个自然景观，湖岛会馆、嘉园酒店、研学教育等二十余处人文建筑鳞次栉比，与自然景观完美融合，体现出宏伟高大、厚重沉稳、尊贵典雅的北方山水园林特点，是一处集休闲观光、养生度假、研学教育为一体的景观盛地。\n寻一方山水怡情，品一段浪漫人生，樱花山风景区是您身边的世外桃源！"}}, {"title": "雕窝峪", "address": "滨州市邹平县青阳镇西阿陀村南5华里处", "image": "", "rank": 5, "time": 2, "location": {"lat": 36.859397908331914, "lng": 117.62453924638177}, "feature": {"sight_features": "", "sight_content": ""}}, {"title": "市民公园", "address": "滨州市邹平市鹤伴二路与广场西路交叉路口西南角", "image": "", "rank": 6, "time": 2, "location": {"lat": 36.86421284850778, "lng": 117.74880225989925}, "feature": {"sight_features": "", "sight_content": ""}}, {"title": "龙德汤泉", "address": "滨州市邹平县鹤伴二路766号南水北调大楼院内东侧", "image": "", "rank": 7, "time": 2, "location": {"lat": 36.86425783983749, "lng": 117.73731184860584}, "feature": {"sight_features": "", "sight_content": ""}}, {"title": "蓝精灵水上乐园", "address": "会仙二路", "image": "", "rank": 8, "time": 2, "location": {"lat": 36.88683345503654, "lng": 117.79159283176526}, "feature": {"sight_features": "", "sight_content": ""}}, {"title": "康平生态家庭农场", "address": "魏桥镇康庄村", "image": "", "rank": 9, "time": 2, "location": {"lat": 36.9825778368592, "lng": 117.49764203190547}, "feature": {"sight_features": "", "sight_content": ""}}, {"title": "黄山泡泡糖水上乐园", "address": "广场东路157号", "image": "", "rank": 10, "time": 2.0, "location": {"lat": 27.838135042031208, "lng": 120.7066623904434}, "feature": {"sight_features": "", "sight_content": ""}}, {"title": "中国数字图书馆(邹平分馆)", "address": "黄山街道黄山三路26号", "image": "", "rank": 11, "time": 2, "location": {"lat": 36.88954293035158, "lng": 117.76080600022554}, "feature": {"sight_features": "", "sight_content": ""}}, {"title": "水上乐园", "address": "黄山五路新汽车站西南角齐明天健苑小区内", "image": "", "rank": 12, "time": 2, "location": {"lat": 36.89912479911887, "lng": 117.73596389494057}, "feature": {"sight_features": "", "sight_content": ""}}, {"title": "三斋剧院", "address": "太平村", "image": "", "rank": 13, "time": 2, "location": {"lat": 38.82283181321504, "lng": 117.13114060261755}, "feature": {"sight_features": "", "sight_content": ""}}, {"title": "金海燕花卉生态园", "address": "花卉路附近", "image": "", "rank": 14, "time": 2, "location": {"lat": 30.940477428962456, "lng": 121.12798053735327}, "feature": {"sight_features": "", "sight_content": ""}}, {"title": "雪野樱桃采摘", "address": "月河六路987号", "image": "", "rank": 15, "time": 2, "location": {"lat": 36.877670814477796, "lng": 117.82057556940012}, "feature": {"sight_features": "", "sight_content": ""}}, {"title": "邹平黄山", "address": "山东省邹平县邹平黄山 256200", "image": "", "rank": 16, "time": 1.0, "location": {"lat": 36.956593309429216, "lng": 117.67080618615937}, "feature": {"sight_features": "", "sight_content": ""}}, {"title": "摩诃山", "address": "山东省邹平县邹平县城西南15公里处 256207", "image": "", "rank": 17, "time": 2, "location": {"lat": 36.956593309429216, "lng": 117.67080618615937}, "feature": {"sight_features": "", "sight_content": ""}}, {"title": "滨州邹平黄山", "address": "山东省邹平县城南 256200", "image": "", "rank": 18, "time": null, "location": {"lat": 36.956593309429216, "lng": 117.67080618615937}, "feature": {"sight_features": "", "sight_content": ""}}, {"title": "锋速卡丁车馆", "address": "山东省滨州市邹平县黄山二路27号", "image": "", "rank": 19, "time": 2, "location": {"lat": 36.88805652135292, "lng": 117.74676533508757}, "feature": {"sight_features": "", "sight_content": ""}}, {"title": "贝儿健儿童乐园", "address": "长山镇范公小学对过", "image": "", "rank": 20, "time": 2, "location": {"lat": 36.89905926927482, "lng": 117.88273391348511}, "feature": {"sight_features": "", "sight_content": ""}}, {"title": "悦菡水族馆", "address": "山东省滨州市邹平县兴发路", "image": "", "rank": 21, "time": 2, "location": {"lat": 36.717055739426264, "lng": 117.78861162257438}, "feature": {"sight_features": "", "sight_content": ""}}, {"title": "洛克公园", "address": "山东省滨州市邹平县黛溪三路142号", "image": "", "rank": 22, "time": 2, "location": {"lat": 36.88811397557386, "lng": 117.74358748951548}, "feature": {"sight_features": "", "sight_content": ""}}, {"title": "禾和湿地公园", "address": "山东省滨州市邹平县明达路", "image": "", "rank": 23, "time": 2, "location": {"lat": 36.939833439794455, "lng": 117.6468380394628}, "feature": {"sight_features": "", "sight_content": ""}}, {"title": "七一广场", "address": "好生街道白云三路", "image": "", "rank": 24, "time": 1.5, "location": {"lat": 36.8249692196082, "lng": 117.807871635861}, "feature": {"sight_features": "", "sight_content": ""}}, {"title": "邢马文化广场", "address": "新建一路与321省道交叉口南150米", "image": "", "rank": 25, "time": 2, "location": {"lat": 36.888928735521816, "lng": 117.84387234037729}, "feature": {"sight_features": "", "sight_content": ""}}, {"title": "雪花山度假村", "address": "邹平县城南雪花山驻地(近西外环)", "image": "", "rank": 26, "time": 2, "location": {"lat": 36.8106377526162, "lng": 117.70686431380975}, "feature": {"sight_features": "", "sight_content": ""}}, {"title": "聚云山庄", "address": "山东省滨州市邹平县", "image": "", "rank": 27, "time": 2, "location": {"lat": 36.956593309429216, "lng": 117.67080618615937}, "feature": {"sight_features": "", "sight_content": ""}}, {"title": "魏桥纺织影剧院", "address": "清河一路1588", "image": "", "rank": 28, "time": 2, "location": {"lat": 37.03467700568673, "lng": 117.49621193851665}, "feature": {"sight_features": "", "sight_content": ""}}, {"title": "印台山生态园", "address": "山东省滨州市邹平县西外环", "image": "", "rank": 29, "time": 2, "location": {"lat": 36.870519288901434, "lng": 117.7125356542571}, "feature": {"sight_features": "", "sight_content": ""}}, {"title": "魏桥游乐园", "address": "齐东二路", "image": "", "rank": 30, "time": 2, "location": {"lat": 37.04361328814752, "lng": 117.64155362075792}, "feature": {"sight_features": "", "sight_content": ""}}, {"title": "魏桥游乐园", "address": "齐东二路", "image": "", "rank": 31, "time": 2, "location": {"lat": 37.04361328814752, "lng": 117.64155362075792}, "feature": {"sight_features": "", "sight_content": ""}}, {"title": "玛特天使儿童乐园", "address": "会仙2路国际商贸城淄博商厦新玛特购物广场二楼", "image": "", "rank": 32, "time": 2, "location": {"lat": 36.89062661266033, "lng": 117.78093662067006}, "feature": {"sight_features": "", "sight_content": ""}}, {"title": "淘乐湾水上乐园", "address": "新玛特南广场西侧", "image": "", "rank": 33, "time": 2, "location": {"lat": 42.55276803845896, "lng": 124.04575169764455}, "feature": {"sight_features": "", "sight_content": ""}}, {"title": "梦幻港口水上乐园", "address": "西董镇醴泉五路南首芽庄水库西临", "image": "", "rank": 34, "time": 2, "location": {"lat": 36.78814623877394, "lng": 117.765837439031}, "feature": {"sight_features": "", "sight_content": ""}}, {"title": "浅水湾水上乐园", "address": "高新办事处会仙二路与月河五路交叉路口", "image": "", "rank": 35, "time": 2, "location": {"lat": 36.886533335529315, "lng": 117.81318553425781}, "feature": {"sight_features": "", "sight_content": ""}}, {"title": "先锋美术馆", "address": "通山街28附近", "image": "", "rank": 36, "time": 2, "location": {"lat": 41.13395288258529, "lng": 123.01999781335313}, "feature": {"sight_features": "", "sight_content": ""}}, {"title": "银座儿童乐园", "address": "黄山二路银座商场四楼电梯口西北角", "image": "", "rank": 37, "time": 2, "location": {"lat": 29.551025203783038, "lng": 106.46109471446668}, "feature": {"sight_features": "", "sight_content": ""}}, {"title": "蝴蝶欢乐谷", "address": "西董西庵村(醴泉五路南首路东)", "image": "", "rank": 38, "time": 2, "location": {"lat": 36.196641737287294, "lng": 117.13111707958946}, "feature": {"sight_features": "", "sight_content": ""}}, {"title": "青帝生态园", "address": "明集镇里六田村", "image": "", "rank": 39, "time": 2, "location": {"lat": 36.95009361406272, "lng": 117.61356257647387}, "feature": {"sight_features": "", "sight_content": ""}}, {"title": "福源采摘园", "address": "山东省滨州市邹平县西董办事处朱家白云山风景区", "image": "", "rank": 40, "time": 2, "location": {"lat": 37.06265984993695, "lng": 117.4210437097138}, "feature": {"sight_features": "", "sight_content": ""}}, {"title": "萌卡纳绘本馆(邹平店)", "address": "新天地商业步行街7-112号", "image": "", "rank": 41, "time": 2, "location": {"lat": 27.923594536247883, "lng": 118.54292673438202}, "feature": {"sight_features": "", "sight_content": ""}}, {"title": "长丰生态大农场第①直供站", "address": "月河二路胜利花园东门长丰农场第一直销店", "image": "", "rank": 42, "time": 2, "location": {"lat": 32.483722623763164, "lng": 117.17356009256213}, "feature": {"sight_features": "", "sight_content": ""}}, {"title": "润泽观光旅游采摘园", "address": "246省道附近", "image": "", "rank": 43, "time": 2, "location": {"lat": 41.45829374987228, "lng": 114.52682579560586}, "feature": {"sight_features": "", "sight_content": ""}}, {"title": "邹平县图书馆", "address": "广场东路89", "image": "", "rank": 44, "time": 2, "location": {"lat": 29.491608017045593, "lng": 119.3029340002018}, "feature": {"sight_features": "", "sight_content": ""}}, {"title": "魏桥创业剧院", "address": "会仙一路附近", "image": "", "rank": 45, "time": 2, "location": {"lat": 36.87954429742663, "lng": 117.8143217236431}, "feature": {"sight_features": "", "sight_content": ""}}, {"title": "邹平县吕剧团", "address": "黛溪二路104号", "image": "", "rank": 46, "time": 2, "location": {"lat": 36.891281876806204, "lng": 117.73727023596574}, "feature": {"sight_features": "", "sight_content": ""}}, {"title": "贺家水杏种植基地", "address": "黄山街道办事处贺家村东400米", "image": "", "rank": 47, "time": 2, "location": {"lat": 34.269219915343236, "lng": 117.24783462865378}, "feature": {"sight_features": "", "sight_content": ""}}, {"title": "会仙山", "address": "山东省邹平县邹平县城西南7.5公里处", "image": "", "rank": 48, "time": 2, "location": {"lat": 36.956593309429216, "lng": 117.67080618615937}, "feature": {"sight_features": "", "sight_content": ""}}, {"title": "于陵故城", "address": "山东省淄博市周村区正南方", "image": "", "rank": 49, "time": 2, "location": {"lat": 36.808994352212316, "lng": 117.87648217784775}, "feature": {"sight_features": "", "sight_content": ""}}, {"title": "醴泉寺", "address": "山东省邹平县青阳镇南陈村", "image": "", "rank": 50, "time": 2, "location": {"lat": 36.84081291453832, "lng": 117.64119171592559}, "feature": {"sight_features": "", "sight_content": ""}}, {"title": "黄山步行街", "address": "山东省邹平县醴泉一路", "image": "", "rank": 51, "time": 3.0, "location": {"lat": 36.870430548684574, "lng": 117.74096830283494}, "feature": {"sight_features": "", "sight_content": ""}}, {"title": "好生步行街", "address": "山东省邹平县白云一路", "image": "", "rank": 52, "time": 2, "location": {"lat": 36.82346254033965, "lng": 117.80364184040113}, "feature": {"sight_features": "", "sight_content": ""}}, {"title": "梁漱溟墓", "address": "邹平黄山南路黄山半山腰", "image": "", "rank": 53, "time": 2, "location": {"lat": 29.790105983649703, "lng": 118.20120234532554}, "feature": {"sight_features": "", "sight_content": ""}}]}