{"cityName": "左贡", "days": 2, "cityImage": "", "spots": [{"title": "东达山", "address": "西藏自治区昌都地区左贡县以北", "image": "", "rank": 1, "time": 2, "location": {"lat": 29.56256091374007, "lng": 97.80828842556404}, "feature": {"sight_features": "", "sight_content": ""}}, {"title": "芒框腊卡", "address": "西藏自治区昌都市左贡县", "image": "", "rank": 2, "time": 2, "location": {"lat": 29.676848537197444, "lng": 97.84736683298861}, "feature": {"sight_features": "", "sight_content": ""}}, {"title": "田妥寺", "address": "214国道附近", "image": "", "rank": 3, "time": 2, "location": {"lat": 28.319159428535947, "lng": 99.13023574560108}, "feature": {"sight_features": "", "sight_content": ""}}, {"title": "梅里雪山北坡", "address": "碧土乡", "image": "", "rank": 4, "time": 4.5, "location": {"lat": 28.829183484343172, "lng": 98.47241057969391}, "feature": {"sight_features": "", "sight_content": ""}}, {"title": "东坝野生葡萄田园风光", "address": "东坝乡", "image": "", "rank": 5, "time": 2.0, "location": {"lat": 39.97385928686867, "lng": 116.55530247065933}, "feature": {"sight_features": "", "sight_content": ""}}, {"title": "乌雅村大棚温室", "address": "318国道北50米", "image": "", "rank": 6, "time": 2, "location": {"lat": 31.023735098058253, "lng": 120.88254137011852}, "feature": {"sight_features": "", "sight_content": ""}}, {"title": "斯加巴东", "address": "昌都市-左贡县", "image": "", "rank": 7, "time": 2, "location": {"lat": 29.676848537197444, "lng": 97.84736683298861}, "feature": {"sight_features": "", "sight_content": ""}}, {"title": "巴东普坚", "address": "昌都市-左贡县", "image": "", "rank": 8, "time": 2, "location": {"lat": 29.676848537197444, "lng": 97.84736683298861}, "feature": {"sight_features": "", "sight_content": ""}}]}