{"cityName": "左权", "days": 2, "cityImage": "", "spots": [{"title": "莲花岩", "address": "晋中市左权县桐峪镇桐滩村", "image": "", "rank": 1, "time": 1.0, "location": {"lat": 36.85755000794474, "lng": 113.47265614818524}, "feature": {"sight_features": "", "sight_content": ""}}, {"title": "抗战文物展览馆", "address": "太行女神自然风景区", "image": "", "rank": 2, "time": 2, "location": {"lat": 36.829594527989066, "lng": 113.5177812247326}, "feature": {"sight_features": "", "sight_content": ""}}, {"title": "高欢云洞", "address": "申家峧村", "image": "", "rank": 3, "time": 2, "location": {"lat": 36.929650558747944, "lng": 113.3881781092466}, "feature": {"sight_features": "", "sight_content": ""}}, {"title": "农家乐杂粮店", "address": "寒王乡寒王乡寒王村附近", "image": "", "rank": 4, "time": 2, "location": {"lat": 37.217535919929, "lng": 113.47363522753008}, "feature": {"sight_features": "", "sight_content": ""}}, {"title": "左权将军纪念亭", "address": "麻田镇十字岭", "image": "", "rank": 5, "time": 2, "location": {"lat": 25.37484871876849, "lng": 112.78898453980189}, "feature": {"sight_features": "", "sight_content": ""}}, {"title": "恒顺苑文化广场", "address": "晋中市左权县银鑫嘉苑1号楼", "image": "", "rank": 6, "time": 2, "location": {"lat": 37.08869433200793, "lng": 113.36865746878574}, "feature": {"sight_features": "", "sight_content": ""}}, {"title": "芸山公园", "address": "山西省晋中市左权县", "image": "", "rank": 7, "time": 2, "location": {"lat": 37.088555147170815, "lng": 113.38545184005775}, "feature": {"sight_features": "", "sight_content": ""}}, {"title": "左权爱葡生态园", "address": "207国道附近", "image": "", "rank": 8, "time": 2, "location": {"lat": 38.67484937592033, "lng": 114.04837902844483}, "feature": {"sight_features": "", "sight_content": ""}}, {"title": "太行奇石展览馆", "address": "太行女神自然风景区", "image": "", "rank": 9, "time": 2, "location": {"lat": 36.829594527989066, "lng": 113.5177812247326}, "feature": {"sight_features": "", "sight_content": ""}}, {"title": "左权将军烈士陵园", "address": "北街胡同", "image": "", "rank": 10, "time": 2, "location": {"lat": 37.085598437522684, "lng": 113.38267395692922}, "feature": {"sight_features": "", "sight_content": ""}}, {"title": "泰山圣母庙", "address": "红军南路与陵园街交叉口", "image": "", "rank": 11, "time": 1.5, "location": {"lat": 37.085216566333365, "lng": 113.37633021414662}, "feature": {"sight_features": "", "sight_content": ""}}, {"title": "左权日月星生态庄园", "address": "晋中市-左权县-芹泉镇营圪道村", "image": "", "rank": 12, "time": 2, "location": {"lat": 37.07306723598142, "lng": 113.7661566319844}, "feature": {"sight_features": "", "sight_content": ""}}, {"title": "五里堠村", "address": "晋中市-左权县-二零七国道", "image": "", "rank": 13, "time": 2, "location": {"lat": 37.088555147170815, "lng": 113.38545184005775}, "feature": {"sight_features": "", "sight_content": ""}}]}